Longitude,Latitude,Speed,Distance,Time,Acc X,Acc Y,Acc Z,Heading,Pitch,Roll,gyro_x,gyro_y,gyro_z,gravity_x,gravity_y,gravity_z
34.80524512,31.26506628,0.0,2.361815,12-20-02,0.090544224,0.0061335564,0.008722305,253.0,-3.459354,-15.502185,0.013717651,-0.055343628,-0.010574341,-2.5562415,0.618851,9.447383
34.80524512,31.26506628,0.0,2.361815,12-20-02,-0.07593179,0.15637088,0.22371769,251.0,-2.8219752,-15.738157,-0.070236206,0.07913208,-0.01637268,-2.5768049,0.63313246,9.440848
34.80524512,31.26506628,0.0,2.361815,12-20-02,-0.3444028,-0.31902173,0.07767105,249.0,-3.7783113,-16.513424,-0.018859863,0.10559082,0.3560791,-2.7223647,0.43992853,9.410929
34.80524512,31.26506628,0.0,2.361815,12-20-02,-0.3444028,-0.31902173,0.07767105,249.0,-3.7783113,-16.513424,-0.018859863,0.10559082,0.3560791,-2.7223647,0.43992853,9.410929
34.80524512,31.26506628,0.0,2.361815,12-20-02,-0.3444028,-0.31902173,0.07767105,249.0,-3.7783113,-16.513424,-0.018859863,0.10559082,0.3560791,-2.7223647,0.43992853,9.410929
34.80524512,31.26506628,0.0,2.361815,12-20-02,-0.3444028,-0.31902173,0.07767105,249.0,-4.035817,-17.28329,-0.018859863,0.10559082,0.3560791,-2.7223647,0.43992853,9.410929
34.80524512,31.26506628,0.0,2.361815,12-20-02,-0.3444028,-0.31902173,0.07767105,248.0,-3.9877512,-18.420284,-0.018859863,0.10559082,0.3560791,-2.7223647,0.43992853,9.410929
34.80524512,31.26506628,0.0,2.361815,12-20-02,-0.3444028,-0.31902173,0.07767105,248.0,-3.9877512,-18.420284,-0.018859863,0.10559082,0.3560791,-2.7223647,0.43992853,9.410929
34.80524512,31.26506628,0.0,2.361815,12-20-02,1.7762816,0.25847077,0.12444401,247.0,-3.8952277,-19.95241,-0.018859863,0.10559082,0.3560791,-2.9998662,0.50806516,9.322718
34.80524512,31.26506628,0.0,2.361815,12-20-02,1.7762816,0.25847077,0.12444401,247.0,-3.8497436,-20.619139,-0.018859863,0.10559082,0.3560791,-2.9998662,0.50806516,9.322718
34.80524512,31.26506628,0.0,2.361815,12-20-02,1.7762816,0.25847077,0.12444401,247.0,-3.8497436,-20.619139,-0.018859863,0.10559082,0.3560791,-2.9998662,0.50806516,9.322718
34.80524512,31.26506628,0.0,2.361815,12-20-02,1.7762816,0.25847077,0.12444401,247.0,-3.8497436,-20.619139,-0.018859863,0.10559082,0.3560791,-2.9998662,0.50806516,9.322718
34.80524512,31.26506628,0.0,2.361815,12-20-02,1.7762816,0.25847077,0.12444401,247.0,-3.7950172,-22.578913,-0.063949585,0.5820465,0.14590454,-2.9998662,0.50806516,9.322718
34.80524512,31.26506628,0.0,2.361815,12-20-02,1.7762816,0.25847077,0.12444401,247.0,-3.7950172,-22.578913,-0.063949585,0.5820465,0.14590454,-2.9998662,0.50806516,9.322718
34.80524512,31.26506628,0.0,2.361815,12-20-02,1.7762816,0.25847077,0.12444401,248.0,-3.7935984,-23.137663,-0.063949585,0.5820465,0.14590454,-2.9998662,0.50806516,9.322718
34.80524512,31.26506628,0.0,2.361815,12-20-02,1.7762816,0.25847077,0.12444401,248.0,-3.7935984,-23.137663,-0.063949585,0.5820465,0.14590454,-2.9998662,0.50806516,9.322718
34.80524512,31.26506628,0.0,2.361815,12-20-02,1.7762816,0.25847077,0.12444401,248.0,-3.7559526,-23.591434,-0.063949585,0.5820465,0.14590454,-2.9998662,0.50806516,9.322718
34.80524512,31.26506628,0.0,2.361815,12-20-02,1.7762816,0.25847077,0.12444401,248.0,-3.7559526,-23.591434,-0.063949585,0.5820465,0.14590454,-2.9998662,0.50806516,9.322718
34.80524512,31.26506628,0.0,2.361815,12-20-02,-0.17116976,0.29737258,-0.8924198,248.0,-3.4240603,-24.399628,-0.063949585,0.5820465,0.14590454,-3.7502356,0.5385243,9.045226
34.80524512,31.26506628,0.0,2.361815,12-20-02,-0.17116976,0.29737258,-0.8924198,248.0,-3.4240603,-24.399628,-0.063949585,0.5820465,0.14590454,-3.7502356,0.5385243,9.045226
34.80524512,31.26506628,0.0,2.361815,12-20-02,-0.17116976,0.29737258,-0.8924198,248.0,-3.2481418,-24.550196,-0.063949585,0.5820465,0.14590454,-3.7502356,0.5385243,9.045226
34.80524512,31.26506628,0.0,2.361815,12-20-02,-0.17116976,0.29737258,-0.8924198,247.0,-3.0678825,-24.610949,-0.063949585,0.5820465,0.14590454,-3.7502356,0.5385243,9.045226
34.80524512,31.26506628,0.0,2.361815,12-20-02,-0.17116976,0.29737258,-0.8924198,247.0,-3.0678825,-24.610949,-0.063949585,0.5820465,0.14590454,-3.7502356,0.5385243,9.045226
34.80524512,31.26506628,0.0,2.361815,12-20-02,-0.17116976,0.29737258,-0.8924198,247.0,-3.0678825,-24.610949,-0.063949585,0.5820465,0.14590454,-3.7502356,0.5385243,9.045226
34.80524512,31.26506628,0.0,2.361815,12-20-02,-0.17116976,0.29737258,-0.8924198,247.0,-2.5287194,-24.478285,-0.14648438,0.11376953,0.034057617,-3.7502356,0.5385243,9.045226
34.80524512,31.26506628,0.0,2.361815,12-20-02,-0.17116976,0.29737258,-0.8924198,247.0,-2.5287194,-24.478285,-0.14648438,0.11376953,0.034057617,-3.7502356,0.5385243,9.045226
34.80524524,31.2650666,0.0,0.037274968,12-20-02,-0.17116976,0.29737258,-0.8924198,246.0,-2.3705719,-24.40741,-0.14648438,0.11376953,0.034057617,-3.7502356,0.5385243,9.045226
34.80524524,31.2650666,0.0,0.037274968,12-20-02,-0.17116976,0.29737258,-0.8924198,246.0,-2.2524848,-24.360134,-0.14648438,0.11376953,0.034057617,-3.7502356,0.5385243,9.045226
34.80524524,31.2650666,0.0,0.037274968,12-20-02,-0.17116976,0.29737258,-0.8924198,246.0,-2.2524848,-24.360134,-0.14648438,0.11376953,0.034057617,-3.7502356,0.5385243,9.045226
34.80524524,31.2650666,0.0,0.037274968,12-20-02,-0.17116976,0.29737258,-0.8924198,246.0,-2.1571248,-24.319233,-0.14648438,0.11376953,0.034057617,-3.7502356,0.5385243,9.045226
34.80524524,31.2650666,0.0,0.037274968,12-20-02,-0.33735228,0.11145693,-0.220397,246.0,-2.0146687,-24.188404,-0.14648438,0.11376953,0.034057617,-4.1155515,0.37107685,8.893533
34.80524524,31.2650666,0.0,0.037274968,12-20-02,-0.33735228,0.11145693,-0.220397,246.0,-2.0146687,-24.188404,-0.14648438,0.11376953,0.034057617,-4.1155515,0.37107685,8.893533
34.80524524,31.2650666,0.0,0.037274968,12-20-02,-0.33735228,0.11145693,-0.220397,246.0,-1.9616083,-23.85554,-0.14648438,0.11376953,0.034057617,-4.1155515,0.37107685,8.893533
34.80524524,31.2650666,0.0,0.037274968,12-20-02,-0.33735228,0.11145693,-0.220397,246.0,-1.9616083,-23.85554,-0.14648438,0.11376953,0.034057617,-4.1155515,0.37107685,8.893533
34.80524524,31.2650666,0.0,0.037274968,12-20-02,-0.33735228,0.11145693,-0.220397,246.0,-1.9616083,-23.85554,-0.14648438,0.11376953,0.034057617,-4.1155515,0.37107685,8.893533
34.80524524,31.2650666,0.0,0.037274968,12-20-02,-0.33735228,0.11145693,-0.220397,246.0,-1.9468796,-23.652893,-0.14648438,0.11376953,0.034057617,-4.1155515,0.37107685,8.893533
34.80524524,31.2650666,0.0,0.037274968,12-20-02,-0.33735228,0.11145693,-0.220397,247.0,-2.058423,-23.1696,0.014328003,-0.16331482,-0.08392334,-4.1155515,0.37107685,8.893533
34.80524524,31.2650666,0.0,0.037274968,12-20-02,-0.33735228,0.11145693,-0.220397,247.0,-2.058423,-23.1696,0.014328003,-0.16331482,-0.08392334,-4.1155515,0.37107685,8.893533
34.80524524,31.2650666,0.0,0.037274968,12-20-02,-0.33735228,0.11145693,-0.220397,248.0,-2.2509348,-22.522533,0.014328003,-0.16331482,-0.08392334,-4.1155515,0.37107685,8.893533
34.80524524,31.2650666,0.0,0.037274968,12-20-02,-0.33735228,0.11145693,-0.220397,248.0,-2.2509348,-22.522533,0.014328003,-0.16331482,-0.08392334,-4.1155515,0.37107685,8.893533
34.80524524,31.2650666,0.0,0.037274968,12-20-02,-0.33735228,0.11145693,-0.220397,248.0,-2.2509348,-22.522533,0.014328003,-0.16331482,-0.08392334,-4.1155515,0.37107685,8.893533
34.80524524,31.2650666,0.0,0.037274968,12-20-02,-0.33735228,0.11145693,-0.220397,248.0,-2.3908155,-22.204573,0.014328003,-0.16331482,-0.08392334,-4.1155515,0.37107685,8.893533
34.80524524,31.2650666,0.0,0.037274968,12-20-02,-2.148312,-0.08050981,1.1414194,249.0,-2.7740655,-21.483833,0.014328003,-0.16331482,-0.08392334,-3.9004579,0.3175465,8.991996
34.80524524,31.2650666,0.0,0.037274968,12-20-02,-2.148312,-0.08050981,1.1414194,249.0,-2.7740655,-21.483833,0.014328003,-0.16331482,-0.08392334,-3.9004579,0.3175465,8.991996
34.80524524,31.2650666,0.0,0.037274968,12-20-03,-2.148312,-0.08050981,1.1414194,248.0,-2.9779494,-21.007936,0.014328003,-0.16331482,-0.08392334,-3.9004579,0.3175465,8.991996
34.80524524,31.2650666,0.0,0.037274968,12-20-03,-2.148312,-0.08050981,1.1414194,248.0,-2.9779494,-21.007936,0.014328003,-0.16331482,-0.08392334,-3.9004579,0.3175465,8.991996
34.80524524,31.2650666,0.0,0.037274968,12-20-03,-2.148312,-0.08050981,1.1414194,248.0,-2.9779494,-21.007936,0.014328003,-0.16331482,-0.08392334,-3.9004579,0.3175465,8.991996
34.80524524,31.2650666,0.0,0.037274968,12-20-03,-2.148312,-0.08050981,1.1414194,248.0,-2.993235,-20.813766,0.014328003,-0.16331482,-0.08392334,-3.9004579,0.3175465,8.991996
34.80524524,31.2650666,0.0,0.037274968,12-20-03,-2.148312,-0.08050981,1.1414194,247.0,-3.094945,-20.345016,0.042938232,-0.236969,0.10081482,-3.9004579,0.3175465,8.991996
34.80524524,31.2650666,0.0,0.037274968,12-20-03,-2.148312,-0.08050981,1.1414194,246.0,-3.023246,-20.379545,0.042938232,-0.236969,0.10081482,-3.9004579,0.3175465,8.991996
34.80524524,31.2650666,0.0,0.037274968,12-20-03,-2.148312,-0.08050981,1.1414194,246.0,-2.943512,-20.284355,0.042938232,-0.236969,0.10081482,-3.9004579,0.3175465,8.991996
34.80524524,31.2650666,0.0,0.037274968,12-20-03,-2.148312,-0.08050981,1.1414194,246.0,-2.943512,-20.284355,0.042938232,-0.236969,0.10081482,-3.9004579,0.3175465,8.991996
34.80524524,31.2650666,0.0,0.037274968,12-20-03,-2.148312,-0.08050981,1.1414194,246.0,-2.9496706,-19.86863,0.042938232,-0.236969,0.10081482,-3.9004579,0.3175465,8.991996
34.80524524,31.2650666,0.0,0.037274968,12-20-03,-2.148312,-0.08050981,1.1414194,246.0,-2.9496706,-19.86863,0.042938232,-0.236969,0.10081482,-3.9004579,0.3175465,8.991996
34.80524524,31.2650666,0.0,0.037274968,12-20-03,-0.43931794,0.49878913,1.1599455,248.0,-2.9547296,-19.345423,0.042938232,-0.236969,0.10081482,-3.481951,0.41407856,9.158327
34.80524524,31.2650666,0.0,0.037274968,12-20-03,-0.43931794,0.49878913,1.1599455,249.0,-2.9177911,-19.45653,0.042938232,-0.236969,0.10081482,-3.481951,0.41407856,9.158327
34.80524524,31.2650666,0.0,0.037274968,12-20-03,-0.43931794,0.49878913,1.1599455,249.0,-2.9247227,-19.368937,0.042938232,-0.236969,0.10081482,-3.481951,0.41407856,9.158327
34.80524524,31.2650666,0.0,0.037274968,12-20-03,-0.43931794,0.49878913,1.1599455,250.0,-2.919174,-18.887833,0.042938232,-0.236969,0.10081482,-3.481951,0.41407856,9.158327
34.80524524,31.2650666,0.0,0.037274968,12-20-03,-0.43931794,0.49878913,1.1599455,250.0,-2.919174,-18.887833,0.042938232,-0.236969,0.10081482,-3.481951,0.41407856,9.158327
34.80524524,31.2650666,0.0,0.037274968,12-20-03,-0.43931794,0.49878913,1.1599455,250.0,-2.919174,-18.887833,0.042938232,-0.236969,0.10081482,-3.481951,0.41407856,9.158327
34.80524524,31.2650666,0.0,0.037274968,12-20-03,-0.43931794,0.49878913,1.1599455,249.0,-2.2993402,-17.932098,0.00970459,-0.2171936,-0.206604,-3.481951,0.41407856,9.158327
34.80524524,31.2650666,0.0,0.037274968,12-20-03,-0.43931794,0.49878913,1.1599455,249.0,-2.2993402,-17.932098,0.00970459,-0.2171936,-0.206604,-3.481951,0.41407856,9.158327
34.80524524,31.2650666,0.0,0.037274968,12-20-03,-0.43931794,0.49878913,1.1599455,248.0,-1.993066,-17.737082,0.00970459,-0.2171936,-0.206604,-3.481951,0.41407856,9.158327
34.80524524,31.2650666,0.0,0.037274968,12-20-03,-0.43931794,0.49878913,1.1599455,248.0,-1.7387834,-17.258013,0.00970459,-0.2171936,-0.206604,-3.481951,0.41407856,9.158327
34.80524524,31.2650666,0.0,0.037274968,12-20-03,-0.43931794,0.49878913,1.1599455,248.0,-1.7387834,-17.258013,0.00970459,-0.2171936,-0.206604,-3.481951,0.41407856,9.158327
34.80524524,31.2650666,0.0,0.037274968,12-20-03,-0.43931794,0.49878913,1.1599455,248.0,-1.7387834,-17.258013,0.00970459,-0.2171936,-0.206604,-3.481951,0.41407856,9.158327
34.80524524,31.2650666,0.0,0.037274968,12-20-03,0.7206576,-0.07073298,-0.44595718,247.0,-0.84320045,-16.2398,0.00970459,-0.2171936,-0.206604,-3.0526996,0.2805562,9.3151865
34.80524524,31.2650666,0.0,0.037274968,12-20-03,0.7206576,-0.07073298,-0.44595718,247.0,-0.84320045,-16.2398,0.00970459,-0.2171936,-0.206604,-3.0526996,0.2805562,9.3151865
34.80524524,31.2650666,0.0,0.037274968,12-20-03,0.7206576,-0.07073298,-0.44595718,248.0,-0.6971975,-16.040134,0.00970459,-0.2171936,-0.206604,-3.0526996,0.2805562,9.3151865
34.80524524,31.2650666,0.0,0.037274968,12-20-03,0.7206576,-0.07073298,-0.44595718,249.0,-0.7084693,-15.734332,0.00970459,-0.2171936,-0.206604,-3.0526996,0.2805562,9.3151865
34.80524524,31.2650666,0.0,0.037274968,12-20-03,0.7206576,-0.07073298,-0.44595718,249.0,-0.7084693,-15.734332,0.00970459,-0.2171936,-0.206604,-3.0526996,0.2805562,9.3151865
34.80524524,31.2650666,0.0,0.037274968,12-20-03,0.7206576,-0.07073298,-0.44595718,249.0,-0.7084693,-15.734332,0.00970459,-0.2171936,-0.206604,-3.0526996,0.2805562,9.3151865
34.80524524,31.2650666,0.0,0.037274968,12-20-03,0.7206576,-0.07073298,-0.44595718,253.0,-1.6241215,-15.805123,0.101867676,-0.13917542,-0.3659668,-3.0526996,0.2805562,9.3151865
34.80524524,31.2650666,0.0,0.037274968,12-20-03,0.7206576,-0.07073298,-0.44595718,253.0,-1.6241215,-15.805123,0.101867676,-0.13917542,-0.3659668,-3.0526996,0.2805562,9.3151865
34.80524524,31.2650666,0.0,0.037274968,12-20-03,0.7206576,-0.07073298,-0.44595718,254.0,-2.193598,-15.787286,0.101867676,-0.13917542,-0.3659668,-3.0526996,0.2805562,9.3151865
34.80524524,31.2650666,0.0,0.037274968,12-20-03,0.7206576,-0.07073298,-0.44595718,255.0,-2.7313766,-15.754483,0.101867676,-0.13917542,-0.3659668,-3.0526996,0.2805562,9.3151865
34.80524524,31.2650666,0.0,0.037274968,12-20-03,0.7206576,-0.07073298,-0.44595718,255.0,-2.7313766,-15.754483,0.101867676,-0.13917542,-0.3659668,-3.0526996,0.2805562,9.3151865
34.80524524,31.2650666,0.0,0.037274968,12-20-03,0.7206576,-0.07073298,-0.44595718,255.0,-2.7313766,-15.754483,0.101867676,-0.13917542,-0.3659668,-3.0526996,0.2805562,9.3151865
34.80524524,31.2650666,0.0,0.037274968,12-20-03,1.451402,-0.81899333,-0.7457285,252.0,-3.4673479,-16.384254,0.101867676,-0.13917542,-0.3659668,-2.7922173,0.2898992,9.396269
34.80524524,31.2650666,0.0,0.037274968,12-20-03,1.451402,-0.81899333,-0.7457285,252.0,-3.4673479,-16.384254,0.101867676,-0.13917542,-0.3659668,-2.7922173,0.2898992,9.396269
34.80524524,31.2650666,0.0,0.037274968,12-20-03,1.451402,-0.81899333,-0.7457285,249.0,-3.699122,-16.463663,0.101867676,-0.13917542,-0.3659668,-2.7922173,0.2898992,9.396269
34.80524524,31.2650666,0.0,0.037274968,12-20-03,1.451402,-0.81899333,-0.7457285,249.0,-3.699122,-16.463663,0.101867676,-0.13917542,-0.3659668,-2.7922173,0.2898992,9.396269
34.80524524,31.2650666,0.0,0.037274968,12-20-03,1.451402,-0.81899333,-0.7457285,249.0,-3.699122,-16.463663,0.101867676,-0.13917542,-0.3659668,-2.7922173,0.2898992,9.396269
34.80524524,31.2650666,0.0,0.037274968,12-20-03,1.451402,-0.81899333,-0.7457285,248.0,-3.9539218,-16.44211,0.101867676,-0.13917542,-0.3659668,-2.7922173,0.2898992,9.396269
34.80524524,31.2650666,0.0,0.037274968,12-20-03,1.451402,-0.81899333,-0.7457285,246.0,-4.3521338,-16.500732,0.024551392,0.13516235,0.6299286,-2.7922173,0.2898992,9.396269
34.80524524,31.2650666,0.0,0.037274968,12-20-03,1.451402,-0.81899333,-0.7457285,246.0,-4.3521338,-16.500732,0.024551392,0.13516235,0.6299286,-2.7922173,0.2898992,9.396269
34.80524627,31.2650668,0.3138471,0.123772986,12-20-03,1.451402,-0.81899333,-0.7457285,246.0,-4.758532,-16.802372,0.024551392,0.13516235,0.6299286,-2.7922173,0.2898992,9.396269
34.80524627,31.2650668,0.3138471,0.123772986,12-20-03,1.451402,-0.81899333,-0.7457285,246.0,-4.758532,-16.802372,0.024551392,0.13516235,0.6299286,-2.7922173,0.2898992,9.396269
34.80524627,31.2650668,0.3138471,0.123772986,12-20-03,1.451402,-0.81899333,-0.7457285,246.0,-4.758532,-16.802372,0.024551392,0.13516235,0.6299286,-2.7922173,0.2898992,9.396269
34.80524627,31.2650668,0.3138471,0.123772986,12-20-03,1.451402,-0.81899333,-0.7457285,246.0,-4.8844614,-17.033077,0.024551392,0.13516235,0.6299286,-2.7922173,0.2898992,9.396269
34.80524627,31.2650668,0.3138471,0.123772986,12-20-03,1.7003036,0.9118524,-0.19694805,247.0,-4.899487,-17.611404,0.024551392,0.13516235,0.6299286,-2.8928504,0.6447472,9.348054
34.80524627,31.2650668,0.3138471,0.123772986,12-20-03,1.7003036,0.9118524,-0.19694805,247.0,-4.899487,-17.611404,0.024551392,0.13516235,0.6299286,-2.8928504,0.6447472,9.348054
34.80524627,31.2650668,0.3138471,0.123772986,12-20-03,1.7003036,0.9118524,-0.19694805,248.0,-4.6725216,-18.466436,0.024551392,0.13516235,0.6299286,-2.8928504,0.6447472,9.348054
34.80524627,31.2650668,0.3138471,0.123772986,12-20-03,1.7003036,0.9118524,-0.19694805,248.0,-4.6725216,-18.466436,0.024551392,0.13516235,0.6299286,-2.8928504,0.6447472,9.348054
34.80524627,31.2650668,0.3138471,0.123772986,12-20-03,1.7003036,0.9118524,-0.19694805,248.0,-4.6725216,-18.466436,0.024551392,0.13516235,0.6299286,-2.8928504,0.6447472,9.348054
34.80524627,31.2650668,0.3138471,0.123772986,12-20-03,1.7003036,0.9118524,-0.19694805,249.0,-4.5790577,-18.667078,0.024551392,0.13516235,0.6299286,-2.8928504,0.6447472,9.348054
34.80524627,31.2650668,0.3138471,0.123772986,12-20-03,1.7003036,0.9118524,-0.19694805,250.0,-4.286628,-18.789734,0.024551392,0.13516235,0.6299286,-2.8928504,0.6447472,9.348054
34.80524627,31.2650668,0.3138471,0.123772986,12-20-03,1.7003036,0.9118524,-0.19694805,251.0,-4.209862,-18.923527,0.084198,0.17834473,-0.41635132,-2.8928504,0.6447472,9.348054
34.80524627,31.2650668,0.3138471,0.123772986,12-20-03,1.7003036,0.9118524,-0.19694805,252.0,-4.1230736,-19.075558,0.084198,0.17834473,-0.41635132,-2.8928504,0.6447472,9.348054
34.80524627,31.2650668,0.3138471,0.123772986,12-20-03,1.7003036,0.9118524,-0.19694805,252.0,-4.1230736,-19.075558,0.084198,0.17834473,-0.41635132,-2.8928504,0.6447472,9.348054
34.80524627,31.2650668,0.3138471,0.123772986,12-20-03,1.7003036,0.9118524,-0.19694805,252.0,-3.9906263,-19.2693,0.084198,0.17834473,-0.41635132,-2.8928504,0.6447472,9.348054
34.80524627,31.2650668,0.3138471,0.123772986,12-20-03,1.7003036,0.9118524,-0.19694805,252.0,-3.9906263,-19.2693,0.084198,0.17834473,-0.41635132,-2.8928504,0.6447472,9.348054
34.80524627,31.2650668,0.3138471,0.123772986,12-20-03,0.30485582,0.21017301,-1.0657778,253.0,-3.7254555,-19.735569,0.084198,0.17834473,-0.41635132,-3.1904228,0.6715906,9.248814
34.80524627,31.2650668,0.3138471,0.123772986,12-20-03,0.30485582,0.21017301,-1.0657778,253.0,-3.6749294,-19.95887,0.084198,0.17834473,-0.41635132,-3.1904228,0.6715906,9.248814
34.80524627,31.2650668,0.3138471,0.123772986,12-20-04,0.30485582,0.21017301,-1.0657778,254.0,-3.5593467,-20.271677,0.084198,0.17834473,-0.41635132,-3.1904228,0.6715906,9.248814
34.80524627,31.2650668,0.3138471,0.123772986,12-20-04,0.30485582,0.21017301,-1.0657778,254.0,-3.5593467,-20.271677,0.084198,0.17834473,-0.41635132,-3.1904228,0.6715906,9.248814
34.80524627,31.2650668,0.3138471,0.123772986,12-20-04,0.30485582,0.21017301,-1.0657778,254.0,-3.4199202,-20.57753,0.084198,0.17834473,-0.41635132,-3.1904228,0.6715906,9.248814
34.80524627,31.2650668,0.3138471,0.123772986,12-20-04,0.30485582,0.21017301,-1.0657778,254.0,-3.4199202,-20.57753,0.084198,0.17834473,-0.41635132,-3.1904228,0.6715906,9.248814
34.80524627,31.2650668,0.3138471,0.123772986,12-20-04,0.30485582,0.21017301,-1.0657778,255.0,-3.3252258,-21.159796,0.084198,0.17834473,-0.41635132,-3.1904228,0.6715906,9.248814
34.80524627,31.2650668,0.3138471,0.123772986,12-20-04,0.30485582,0.21017301,-1.0657778,255.0,-3.3252258,-21.159796,0.04963684,0.15905762,-0.338974,-3.1904228,0.6715906,9.248814
34.80524627,31.2650668,0.3138471,0.123772986,12-20-04,0.30485582,0.21017301,-1.0657778,255.0,-3.2975652,-21.066946,0.04963684,0.15905762,-0.338974,-3.1904228,0.6715906,9.248814
34.80524627,31.2650668,0.3138471,0.123772986,12-20-04,0.30485582,0.21017301,-1.0657778,256.0,-3.4041345,-20.70115,0.04963684,0.15905762,-0.338974,-3.1904228,0.6715906,9.248814
34.80524627,31.2650668,0.3138471,0.123772986,12-20-04,0.30485582,0.21017301,-1.0657778,256.0,-3.4041345,-20.70115,0.04963684,0.15905762,-0.338974,-3.1904228,0.6715906,9.248814
34.80524627,31.2650668,0.3138471,0.123772986,12-20-04,-0.47775912,-0.66390646,-0.7826576,256.0,-3.4041345,-20.70115,0.04963684,0.15905762,-0.338974,-3.4251525,0.5389976,9.173233
34.80524627,31.2650668,0.3138471,0.123772986,12-20-04,-0.47775912,-0.66390646,-0.7826576,256.0,-3.8379924,-19.86103,0.04963684,0.15905762,-0.338974,-3.4251525,0.5389976,9.173233
34.80524627,31.2650668,0.3138471,0.123772986,12-20-04,-0.47775912,-0.66390646,-0.7826576,256.0,-3.8379924,-19.86103,0.04963684,0.15905762,-0.338974,-3.4251525,0.5389976,9.173233
34.80524627,31.2650668,0.3138471,0.123772986,12-20-04,-0.47775912,-0.66390646,-0.7826576,256.0,-3.9844816,-19.783068,0.04963684,0.15905762,-0.338974,-3.4251525,0.5389976,9.173233
34.80524627,31.2650668,0.3138471,0.123772986,12-20-04,-0.47775912,-0.66390646,-0.7826576,255.0,-4.026603,-19.685814,0.04963684,0.15905762,-0.338974,-3.4251525,0.5389976,9.173233
34.80524627,31.2650668,0.3138471,0.123772986,12-20-04,-0.47775912,-0.66390646,-0.7826576,255.0,-4.026603,-19.685814,0.04963684,0.15905762,-0.338974,-3.4251525,0.5389976,9.173233
34.80524627,31.2650668,0.3138471,0.123772986,12-20-04,-0.47775912,-0.66390646,-0.7826576,255.0,-4.026603,-19.685814,0.04963684,0.15905762,-0.338974,-3.4251525,0.5389976,9.173233
34.80524627,31.2650668,0.3138471,0.123772986,12-20-04,-0.47775912,-0.66390646,-0.7826576,255.0,-3.9718199,-19.180206,0.04963684,0.15905762,-0.338974,-3.4251525,0.5389976,9.173233
34.80524627,31.2650668,0.3138471,0.123772986,12-20-04,-0.47775912,-0.66390646,-0.7826576,255.0,-3.9718199,-19.180206,0.05204773,-0.15621948,0.020812988,-3.4251525,0.5389976,9.173233
34.80524627,31.2650668,0.3138471,0.123772986,12-20-04,-0.47775912,-0.66390646,-0.7826576,255.0,-3.949746,-19.175594,0.05204773,-0.15621948,0.020812988,-3.4251525,0.5389976,9.173233
34.80524627,31.2650668,0.3138471,0.123772986,12-20-04,-0.47775912,-0.66390646,-0.7826576,256.0,-3.9223485,-19.086422,0.05204773,-0.15621948,0.020812988,-3.4251525,0.5389976,9.173233
34.80524627,31.2650668,0.3138471,0.123772986,12-20-04,-0.47775912,-0.66390646,-0.7826576,256.0,-3.9223485,-19.086422,0.05204773,-0.15621948,0.020812988,-3.4251525,0.5389976,9.173233
34.80524627,31.2650668,0.3138471,0.123772986,12-20-04,0.45103407,0.36195904,0.21745968,256.0,-3.8863685,-19.186035,0.05204773,-0.15621948,0.020812988,-3.3662772,0.57433087,9.192862
34.80524627,31.2650668,0.3138471,0.123772986,12-20-04,0.45103407,0.36195904,0.21745968,256.0,-3.95722,-19.118164,0.05204773,-0.15621948,0.020812988,-3.3662772,0.57433087,9.192862
34.80524627,31.2650668,0.3138471,0.123772986,12-20-04,0.45103407,0.36195904,0.21745968,256.0,-3.95722,-19.118164,0.05204773,-0.15621948,0.020812988,-3.3662772,0.57433087,9.192862
34.80524627,31.2650668,0.3138471,0.123772986,12-20-04,0.45103407,0.36195904,0.21745968,256.0,-4.0155087,-19.105003,0.05204773,-0.15621948,0.020812988,-3.3662772,0.57433087,9.192862
34.80524627,31.2650668,0.3138471,0.123772986,12-20-04,0.45103407,0.36195904,0.21745968,256.0,-4.0155087,-19.105003,0.05204773,-0.15621948,0.020812988,-3.3662772,0.57433087,9.192862
34.80524627,31.2650668,0.3138471,0.123772986,12-20-04,0.45103407,0.36195904,0.21745968,256.0,-4.0155087,-19.105003,0.05204773,-0.15621948,0.020812988,-3.3662772,0.57433087,9.192862
34.80524627,31.2650668,0.3138471,0.123772986,12-20-04,0.45103407,0.36195904,0.21745968,256.0,-4.035296,-19.078007,0.05204773,-0.15621948,0.020812988,-3.3662772,0.57433087,9.192862
34.80524627,31.2650668,0.3138471,0.123772986,12-20-04,0.45103407,0.36195904,0.21745968,256.0,-4.213903,-19.030567,0.05204773,-0.15621948,0.020812988,-3.3662772,0.57433087,9.192862
34.80524627,31.2650668,0.3138471,0.123772986,12-20-04,0.45103407,0.36195904,0.21745968,256.0,-4.213903,-19.030567,0.08879089,-0.020629883,-0.12333679,-3.3662772,0.57433087,9.192862
34.80524627,31.2650668,0.3138471,0.123772986,12-20-04,0.45103407,0.36195904,0.21745968,257.0,-4.453611,-19.13008,0.08879089,-0.020629883,-0.12333679,-3.3662772,0.57433087,9.192862
34.80524627,31.2650668,0.3138471,0.123772986,12-20-04,0.45103407,0.36195904,0.21745968,257.0,-4.453611,-19.13008,0.08879089,-0.020629883,-0.12333679,-3.3662772,0.57433087,9.192862
34.80524627,31.2650668,0.3138471,0.123772986,12-20-04,0.45103407,0.36195904,0.21745968,257.0,-4.453611,-19.13008,0.08879089,-0.020629883,-0.12333679,-3.3662772,0.57433087,9.192862
34.80524627,31.2650668,0.3138471,0.123772986,12-20-04,0.06381583,-0.4275667,-0.23759079,256.0,-4.604863,-19.147709,0.08879089,-0.020629883,-0.12333679,-3.294901,0.6411699,9.214277
34.80524627,31.2650668,0.3138471,0.123772986,12-20-04,0.06381583,-0.4275667,-0.23759079,256.0,-4.9641237,-19.054976,0.08879089,-0.020629883,-0.12333679,-3.294901,0.6411699,9.214277
34.80524627,31.2650668,0.3138471,0.123772986,12-20-04,0.06381583,-0.4275667,-0.23759079,256.0,-4.9641237,-19.054976,0.08879089,-0.020629883,-0.12333679,-3.294901,0.6411699,9.214277
34.80524627,31.2650668,0.3138471,0.123772986,12-20-04,0.06381583,-0.4275667,-0.23759079,256.0,-5.387262,-18.948475,0.08879089,-0.020629883,-0.12333679,-3.294901,0.6411699,9.214277
34.80524627,31.2650668,0.3138471,0.123772986,12-20-04,0.06381583,-0.4275667,-0.23759079,256.0,-5.387262,-18.948475,0.08879089,-0.020629883,-0.12333679,-3.294901,0.6411699,9.214277
34.80524627,31.2650668,0.3138471,0.123772986,12-20-04,0.06381583,-0.4275667,-0.23759079,256.0,-5.387262,-18.948475,0.08879089,-0.020629883,-0.12333679,-3.294901,0.6411699,9.214277
34.80524627,31.2650668,0.3138471,0.123772986,12-20-04,0.06381583,-0.4275667,-0.23759079,256.0,-5.5858345,-18.873001,0.08879089,-0.020629883,-0.12333679,-3.294901,0.6411699,9.214277
34.80524627,31.2650668,0.3138471,0.123772986,12-20-04,0.06381583,-0.4275667,-0.23759079,255.0,-5.9758983,-18.621729,0.08879089,-0.020629883,-0.12333679,-3.294901,0.6411699,9.214277
34.80524627,31.2650668,0.3138471,0.123772986,12-20-04,0.06381583,-0.4275667,-0.23759079,254.0,-6.1936035,-18.477873,0.10093689,-0.049987793,0.20396423,-3.294901,0.6411699,9.214277
34.80524188,31.26505997,0.0,0.7646435,12-20-04,0.06381583,-0.4275667,-0.23759079,254.0,-6.377395,-18.456673,0.10093689,-0.049987793,0.20396423,-3.294901,0.6411699,9.214277
34.80524188,31.26505997,0.0,0.7646435,12-20-04,0.68029,-0.04296416,-2.0557575,254.0,-6.377395,-18.456673,0.10093689,-0.049987793,0.20396423,-3.2154882,0.8774894,9.222854
34.80524188,31.26505997,0.0,0.7646435,12-20-04,0.68029,-0.04296416,-2.0557575,254.0,-6.377395,-18.456673,0.10093689,-0.049987793,0.20396423,-3.2154882,0.8774894,9.222854
34.80524188,31.26505997,0.0,0.7646435,12-20-04,0.68029,-0.04296416,-2.0557575,254.0,-6.377395,-18.456673,0.10093689,-0.049987793,0.20396423,-3.2154882,0.8774894,9.222854
34.80524188,31.26505997,0.0,0.7646435,12-20-04,0.68029,-0.04296416,-2.0557575,254.0,-6.676974,-17.929565,0.10093689,-0.049987793,0.20396423,-3.2154882,0.8774894,9.222854
34.80524188,31.26505997,0.0,0.7646435,12-20-04,0.68029,-0.04296416,-2.0557575,254.0,-6.7960854,-17.740063,0.10093689,-0.049987793,0.20396423,-3.2154882,0.8774894,9.222854
34.80524188,31.26505997,0.0,0.7646435,12-20-04,0.68029,-0.04296416,-2.0557575,254.0,-6.9361377,-17.541546,0.10093689,-0.049987793,0.20396423,-3.2154882,0.8774894,9.222854
34.80524188,31.26505997,0.0,0.7646435,12-20-04,0.68029,-0.04296416,-2.0557575,254.0,-6.9361377,-17.541546,0.10093689,-0.049987793,0.20396423,-3.2154882,0.8774894,9.222854
34.80524188,31.26505997,0.0,0.7646435,12-20-04,0.68029,-0.04296416,-2.0557575,254.0,-6.9361377,-17.541546,0.10093689,-0.049987793,0.20396423,-3.2154882,0.8774894,9.222854
34.80524188,31.26505997,0.0,0.7646435,12-20-04,0.68029,-0.04296416,-2.0557575,254.0,-7.065494,-17.494024,0.10093689,-0.049987793,0.20396423,-3.2154882,0.8774894,9.222854
34.80524188,31.26505997,0.0,0.7646435,12-20-04,0.68029,-0.04296416,-2.0557575,254.0,-7.4256024,-17.194643,0.10093689,-0.049987793,0.20396423,-3.2154882,0.8774894,9.222854
34.80524188,31.26505997,0.0,0.7646435,12-20-04,0.68029,-0.04296416,-2.0557575,254.0,-7.4256024,-17.194643,0.09315491,-0.10714722,0.016342163,-3.2154882,0.8774894,9.222854
34.80524188,31.26505997,0.0,0.7646435,12-20-04,0.68029,-0.04296416,-2.0557575,254.0,-7.489878,-17.07065,0.09315491,-0.10714722,0.016342163,-3.2154882,0.8774894,9.222854
34.80524188,31.26505997,0.0,0.7646435,12-20-04,0.10164976,0.42408073,0.6308851,254.0,-7.5673676,-16.945639,0.09315491,-0.10714722,0.016342163,-3.0235028,1.1296191,9.26028
34.80524188,31.26505997,0.0,0.7646435,12-20-04,0.10164976,0.42408073,0.6308851,254.0,-7.5673676,-16.945639,0.09315491,-0.10714722,0.016342163,-3.0235028,1.1296191,9.26028
34.80524188,31.26505997,0.0,0.7646435,12-20-04,0.10164976,0.42408073,0.6308851,254.0,-7.5673676,-16.945639,0.09315491,-0.10714722,0.016342163,-3.0235028,1.1296191,9.26028
34.80524188,31.26505997,0.0,0.7646435,12-20-04,0.10164976,0.42408073,0.6308851,254.0,-7.7629623,-16.49011,0.09315491,-0.10714722,0.016342163,-3.0235028,1.1296191,9.26028
34.80524188,31.26505997,0.0,0.7646435,12-20-04,0.10164976,0.42408073,0.6308851,254.0,-7.7629623,-16.49011,0.09315491,-0.10714722,0.016342163,-3.0235028,1.1296191,9.26028
34.80524188,31.26505997,0.0,0.7646435,12-20-05,0.10164976,0.42408073,0.6308851,254.0,-7.6787114,-16.372828,0.09315491,-0.10714722,0.016342163,-3.0235028,1.1296191,9.26028
34.80524188,31.26505997,0.0,0.7646435,12-20-05,0.10164976,0.42408073,0.6308851,254.0,-7.5935493,-16.205597,0.09315491,-0.10714722,0.016342163,-3.0235028,1.1296191,9.26028
34.80524188,31.26505997,0.0,0.7646435,12-20-05,0.10164976,0.42408073,0.6308851,254.0,-7.5935493,-16.205597,0.09315491,-0.10714722,0.016342163,-3.0235028,1.1296191,9.26028
34.80524188,31.26505997,0.0,0.7646435,12-20-05,0.10164976,0.42408073,0.6308851,254.0,-7.5935493,-16.205597,0.09315491,-0.10714722,0.016342163,-3.0235028,1.1296191,9.26028
34.80524188,31.26505997,0.0,0.7646435,12-20-05,0.10164976,0.42408073,0.6308851,254.0,-7.4220467,-15.823647,0.09315491,-0.10714722,0.016342163,-3.0235028,1.1296191,9.26028
34.80524188,31.26505997,0.0,0.7646435,12-20-05,0.10164976,0.42408073,0.6308851,254.0,-7.4220467,-15.823647,0.09315491,-0.10714722,0.016342163,-3.0235028,1.1296191,9.26028
34.80524188,31.26505997,0.0,0.7646435,12-20-05,0.3365357,0.52909756,0.23984432,255.0,-7.300065,-15.700365,-0.014755249,-0.11592102,-0.021850586,-2.7880461,1.190376,9.326318
34.80524188,31.26505997,0.0,0.7646435,12-20-05,0.3365357,0.52909756,0.23984432,255.0,-7.300065,-15.700365,-0.014755249,-0.11592102,-0.021850586,-2.7880461,1.190376,9.326318
34.80524188,31.26505997,0.0,0.7646435,12-20-05,0.3365357,0.52909756,0.23984432,255.0,-7.1735225,-15.519577,-0.014755249,-0.11592102,-0.021850586,-2.7880461,1.190376,9.326318
34.80524188,31.26505997,0.0,0.7646435,12-20-05,0.3365357,0.52909756,0.23984432,255.0,-7.1735225,-15.519577,-0.014755249,-0.11592102,-0.021850586,-2.7880461,1.190376,9.326318
34.80524188,31.26505997,0.0,0.7646435,12-20-05,0.3365357,0.52909756,0.23984432,255.0,-6.957759,-15.315304,-0.014755249,-0.11592102,-0.021850586,-2.7880461,1.190376,9.326318
34.80524188,31.26505997,0.0,0.7646435,12-20-05,0.3365357,0.52909756,0.23984432,255.0,-6.957759,-15.315304,-0.014755249,-0.11592102,-0.021850586,-2.7880461,1.190376,9.326318
34.80524188,31.26505997,0.0,0.7646435,12-20-05,0.3365357,0.52909756,0.23984432,255.0,-6.8915286,-15.255162,-0.014755249,-0.11592102,-0.021850586,-2.7880461,1.190376,9.326318
34.80524188,31.26505997,0.0,0.7646435,12-20-05,0.3365357,0.52909756,0.23984432,255.0,-6.8241253,-15.240457,-0.014755249,-0.11592102,-0.021850586,-2.7880461,1.190376,9.326318
34.80524188,31.26505997,0.0,0.7646435,12-20-05,0.3365357,0.52909756,0.23984432,255.0,-6.8241253,-15.240457,-0.014755249,-0.11592102,-0.021850586,-2.7880461,1.190376,9.326318
34.80524188,31.26505997,0.0,0.7646435,12-20-05,0.3365357,0.52909756,0.23984432,255.0,-6.7435946,-15.283542,-0.014755249,-0.11592102,-0.021850586,-2.7880461,1.190376,9.326318
34.80524188,31.26505997,0.0,0.7646435,12-20-05,0.3365357,0.52909756,0.23984432,254.0,-6.5937047,-15.179163,-0.014755249,-0.11592102,-0.021850586,-2.7880461,1.190376,9.326318
34.80524188,31.26505997,0.0,0.7646435,12-20-05,0.3365357,0.52909756,0.23984432,254.0,-6.5937047,-15.179163,-0.014755249,-0.11592102,-0.021850586,-2.7880461,1.190376,9.326318
34.80524188,31.26505997,0.0,0.7646435,12-20-05,0.5645642,0.047045946,0.2918148,255.0,-6.539487,-15.198039,-0.07043457,-0.02961731,0.010955811,-2.6413677,1.0930829,9.380764
34.80524188,31.26505997,0.0,0.7646435,12-20-05,0.5645642,0.047045946,0.2918148,255.0,-6.480018,-15.248479,-0.07043457,-0.02961731,0.010955811,-2.6413677,1.0930829,9.380764
34.80524188,31.26505997,0.0,0.7646435,12-20-05,0.5645642,0.047045946,0.2918148,255.0,-6.480018,-15.248479,-0.07043457,-0.02961731,0.010955811,-2.6413677,1.0930829,9.380764
34.80524188,31.26505997,0.0,0.7646435,12-20-05,0.5645642,0.047045946,0.2918148,255.0,-6.4209194,-15.286984,-0.07043457,-0.02961731,0.010955811,-2.6413677,1.0930829,9.380764
34.80524188,31.26505997,0.0,0.7646435,12-20-05,0.5645642,0.047045946,0.2918148,255.0,-6.3110056,-15.399789,-0.07043457,-0.02961731,0.010955811,-2.6413677,1.0930829,9.380764
34.80524188,31.26505997,0.0,0.7646435,12-20-05,0.5645642,0.047045946,0.2918148,255.0,-6.3110056,-15.399789,-0.07043457,-0.02961731,0.010955811,-2.6413677,1.0930829,9.380764
34.80524188,31.26505997,0.0,0.7646435,12-20-05,0.5645642,0.047045946,0.2918148,255.0,-6.2543077,-15.430977,-0.07043457,-0.02961731,0.010955811,-2.6413677,1.0930829,9.380764
34.80524188,31.26505997,0.0,0.7646435,12-20-05,0.5645642,0.047045946,0.2918148,255.0,-6.2093987,-15.476824,-0.07043457,-0.02961731,0.010955811,-2.6413677,1.0930829,9.380764
34.80524188,31.26505997,0.0,0.7646435,12-20-05,0.5645642,0.047045946,0.2918148,255.0,-6.2093987,-15.476824,-0.07043457,-0.02961731,0.010955811,-2.6413677,1.0930829,9.380764
34.80524188,31.26505997,0.0,0.7646435,12-20-05,0.5645642,0.047045946,0.2918148,255.0,-6.158668,-15.549539,-0.07043457,-0.02961731,0.010955811,-2.6413677,1.0930829,9.380764
34.80524188,31.26505997,0.0,0.7646435,12-20-05,0.5645642,0.047045946,0.2918148,255.0,-6.054383,-15.680761,-0.07043457,-0.02961731,0.010955811,-2.6413677,1.0930829,9.380764
34.80524188,31.26505997,0.0,0.7646435,12-20-05,0.5645642,0.047045946,0.2918148,255.0,-6.054383,-15.680761,-0.07043457,-0.02961731,0.010955811,-2.6413677,1.0930829,9.380764
34.80524188,31.26505997,0.0,0.7646435,12-20-05,0.12963319,0.034547925,-0.035292625,255.0,-6.0444574,-15.807046,-0.041137695,0.046279907,-0.022216797,-2.6798778,0.9957646,9.380676
34.80524188,31.26505997,0.0,0.7646435,12-20-05,0.12963319,0.034547925,-0.035292625,255.0,-6.0444574,-15.807046,-0.041137695,0.046279907,-0.022216797,-2.6798778,0.9957646,9.380676
34.80524188,31.26505997,0.0,0.7646435,12-20-05,0.12963319,0.034547925,-0.035292625,255.0,-6.0444574,-15.807046,-0.041137695,0.046279907,-0.022216797,-2.6798778,0.9957646,9.380676
34.80524188,31.26505997,0.0,0.7646435,12-20-05,0.12963319,0.034547925,-0.035292625,255.0,-6.051875,-15.791876,-0.041137695,0.046279907,-0.022216797,-2.6798778,0.9957646,9.380676
34.80524188,31.26505997,0.0,0.7646435,12-20-05,0.12963319,0.034547925,-0.035292625,255.0,-5.9328647,-15.992098,-0.041137695,0.046279907,-0.022216797,-2.6798778,0.9957646,9.380676
34.80524188,31.26505997,0.0,0.7646435,12-20-05,0.12963319,0.034547925,-0.035292625,255.0,-5.9328647,-15.992098,-0.041137695,0.046279907,-0.022216797,-2.6798778,0.9957646,9.380676
34.80524188,31.26505997,0.0,0.7646435,12-20-05,0.12963319,0.034547925,-0.035292625,255.0,-5.823493,-16.140984,-0.041137695,0.046279907,-0.022216797,-2.6798778,0.9957646,9.380676
34.80524188,31.26505997,0.0,0.7646435,12-20-05,0.12963319,0.034547925,-0.035292625,255.0,-5.7479577,-16.214586,-0.041137695,0.046279907,-0.022216797,-2.6798778,0.9957646,9.380676
34.80524188,31.26505997,0.0,0.7646435,12-20-05,0.12963319,0.034547925,-0.035292625,255.0,-5.7479577,-16.214586,-0.041137695,0.046279907,-0.022216797,-2.6798778,0.9957646,9.380676
34.80524188,31.26505997,0.0,0.7646435,12-20-05,0.12963319,0.034547925,-0.035292625,255.0,-5.7479577,-16.214586,-0.041137695,0.046279907,-0.022216797,-2.6798778,0.9957646,9.380676
34.80524188,31.26505997,0.0,0.7646435,12-20-05,0.12963319,0.034547925,-0.035292625,255.0,-5.540904,-16.307768,-0.041137695,0.046279907,-0.022216797,-2.6798778,0.9957646,9.380676
34.80524188,31.26505997,0.0,0.7646435,12-20-05,0.12963319,0.034547925,-0.035292625,255.0,-5.419717,-16.275496,-0.041137695,0.046279907,-0.022216797,-2.6798778,0.9957646,9.380676
34.80524123,31.26506131,0.0,0.66400665,12-20-05,0.036770105,0.14111048,-0.18188381,255.0,-5.290517,-16.300325,-0.07060242,0.035812378,-0.053756714,-2.7587664,0.88024426,9.369352
34.80524123,31.26506131,0.0,0.66400665,12-20-05,0.036770105,0.14111048,-0.18188381,255.0,-5.178504,-16.392826,-0.07060242,0.035812378,-0.053756714,-2.7587664,0.88024426,9.369352
34.80524123,31.26506131,0.0,0.66400665,12-20-05,0.036770105,0.14111048,-0.18188381,255.0,-5.178504,-16.392826,-0.07060242,0.035812378,-0.053756714,-2.7587664,0.88024426,9.369352
34.80524123,31.26506131,0.0,0.66400665,12-20-05,0.036770105,0.14111048,-0.18188381,255.0,-5.178504,-16.392826,-0.07060242,0.035812378,-0.053756714,-2.7587664,0.88024426,9.369352
34.80524123,31.26506131,0.0,0.66400665,12-20-05,0.036770105,0.14111048,-0.18188381,255.0,-4.891162,-16.411442,-0.07060242,0.035812378,-0.053756714,-2.7587664,0.88024426,9.369352
34.80524123,31.26506131,0.0,0.66400665,12-20-05,0.036770105,0.14111048,-0.18188381,255.0,-4.6846123,-16.370457,-0.07060242,0.035812378,-0.053756714,-2.7587664,0.88024426,9.369352
34.80524123,31.26506131,0.0,0.66400665,12-20-05,0.036770105,0.14111048,-0.18188381,255.0,-4.569565,-16.340391,-0.07060242,0.035812378,-0.053756714,-2.7587664,0.88024426,9.369352
34.80524123,31.26506131,0.0,0.66400665,12-20-05,0.036770105,0.14111048,-0.18188381,255.0,-4.5258026,-16.215773,-0.07060242,0.035812378,-0.053756714,-2.7587664,0.88024426,9.369352
34.80524123,31.26506131,0.0,0.66400665,12-20-05,0.036770105,0.14111048,-0.18188381,255.0,-4.5258026,-16.215773,-0.07060242,0.035812378,-0.053756714,-2.7587664,0.88024426,9.369352
34.80524123,31.26506131,0.0,0.66400665,12-20-05,0.036770105,0.14111048,-0.18188381,255.0,-4.5258026,-16.215773,-0.07060242,0.035812378,-0.053756714,-2.7587664,0.88024426,9.369352
34.80524123,31.26506131,0.0,0.66400665,12-20-05,0.036770105,0.14111048,-0.18188381,255.0,-4.4067273,-16.10689,-0.07060242,0.035812378,-0.053756714,-2.7587664,0.88024426,9.369352
34.80524123,31.26506131,0.0,0.66400665,12-20-05,0.036770105,0.14111048,-0.18188381,255.0,-4.4067273,-16.10689,-0.07060242,0.035812378,-0.053756714,-2.7587664,0.88024426,9.369352
34.80524123,31.26506131,0.0,0.66400665,12-20-05,0.05996418,-0.19912738,0.06589222,255.0,-4.365884,-16.114862,-0.051879883,-0.009155273,-0.008728027,-2.779234,0.741142,9.375338
34.80524123,31.26506131,0.0,0.66400665,12-20-05,0.05996418,-0.19912738,0.06589222,255.0,-4.3314595,-16.11687,-0.051879883,-0.009155273,-0.008728027,-2.779234,0.741142,9.375338
34.80524123,31.26506131,0.0,0.66400665,12-20-05,0.05996418,-0.19912738,0.06589222,255.0,-4.3314595,-16.11687,-0.051879883,-0.009155273,-0.008728027,-2.779234,0.741142,9.375338
34.80524123,31.26506131,0.0,0.66400665,12-20-05,0.05996418,-0.19912738,0.06589222,255.0,-4.3314595,-16.11687,-0.051879883,-0.009155273,-0.008728027,-2.779234,0.741142,9.375338
34.80524123,31.26506131,0.0,0.66400665,12-20-05,0.05996418,-0.19912738,0.06589222,255.0,-4.3398004,-16.155376,-0.051879883,-0.009155273,-0.008728027,-2.779234,0.741142,9.375338
34.80524123,31.26506131,0.0,0.66400665,12-20-05,0.05996418,-0.19912738,0.06589222,255.0,-4.3398004,-16.155376,-0.051879883,-0.009155273,-0.008728027,-2.779234,0.741142,9.375338
34.80524123,31.26506131,0.0,0.66400665,12-20-06,0.05996418,-0.19912738,0.06589222,255.0,-4.4008317,-16.182549,-0.051879883,-0.009155273,-0.008728027,-2.779234,0.741142,9.375338
34.80524123,31.26506131,0.0,0.66400665,12-20-06,0.05996418,-0.19912738,0.06589222,255.0,-4.4334617,-16.143106,-0.051879883,-0.009155273,-0.008728027,-2.779234,0.741142,9.375338
34.80524123,31.26506131,0.0,0.66400665,12-20-06,0.05996418,-0.19912738,0.06589222,255.0,-4.4334617,-16.143106,-0.051879883,-0.009155273,-0.008728027,-2.779234,0.741142,9.375338
34.80524123,31.26506131,0.0,0.66400665,12-20-06,0.05996418,-0.19912738,0.06589222,255.0,-4.4463506,-16.113129,-0.051879883,-0.009155273,-0.008728027,-2.779234,0.741142,9.375338
34.80524123,31.26506131,0.0,0.66400665,12-20-06,0.05996418,-0.19912738,0.06589222,255.0,-4.495108,-16.17034,-0.051879883,-0.009155273,-0.008728027,-2.779234,0.741142,9.375338
34.80524123,31.26506131,0.0,0.66400665,12-20-06,0.05996418,-0.19912738,0.06589222,255.0,-4.495108,-16.17034,-0.051879883,-0.009155273,-0.008728027,-2.779234,0.741142,9.375338
34.80524123,31.26506131,0.0,0.66400665,12-20-06,0.083215475,-0.068481445,0.03605461,255.0,-4.5652895,-16.173363,0.017364502,0.011764526,0.017120361,-2.7412431,0.68061334,9.391099
34.80524123,31.26506131,0.0,0.66400665,12-20-06,0.083215475,-0.068481445,0.03605461,255.0,-4.636912,-16.083431,0.017364502,0.011764526,0.017120361,-2.7412431,0.68061334,9.391099
34.80524123,31.26506131,0.0,0.66400665,12-20-06,0.083215475,-0.068481445,0.03605461,255.0,-4.636912,-16.083431,0.017364502,0.011764526,0.017120361,-2.7412431,0.68061334,9.391099
34.80524123,31.26506131,0.0,0.66400665,12-20-06,0.083215475,-0.068481445,0.03605461,255.0,-4.636912,-16.083431,0.017364502,0.011764526,0.017120361,-2.7412431,0.68061334,9.391099
34.80524123,31.26506131,0.0,0.66400665,12-20-06,0.083215475,-0.068481445,0.03605461,255.0,-4.7204905,-16.140514,0.017364502,0.011764526,0.017120361,-2.7412431,0.68061334,9.391099
34.80524123,31.26506131,0.0,0.66400665,12-20-06,0.083215475,-0.068481445,0.03605461,255.0,-4.7204905,-16.140514,0.017364502,0.011764526,0.017120361,-2.7412431,0.68061334,9.391099
34.80524123,31.26506131,0.0,0.66400665,12-20-06,0.083215475,-0.068481445,0.03605461,255.0,-4.8085375,-16.214361,0.017364502,0.011764526,0.017120361,-2.7412431,0.68061334,9.391099
34.80524123,31.26506131,0.0,0.66400665,12-20-06,0.083215475,-0.068481445,0.03605461,255.0,-4.95775,-15.972265,0.017364502,0.011764526,0.017120361,-2.7412431,0.68061334,9.391099
34.80524123,31.26506131,0.0,0.66400665,12-20-06,0.083215475,-0.068481445,0.03605461,255.0,-4.95775,-15.972265,0.017364502,0.011764526,0.017120361,-2.7412431,0.68061334,9.391099
34.80524123,31.26506131,0.0,0.66400665,12-20-06,0.083215475,-0.068481445,0.03605461,255.0,-4.95775,-15.972265,0.017364502,0.011764526,0.017120361,-2.7412431,0.68061334,9.391099
34.80524123,31.26506131,0.0,0.66400665,12-20-06,0.083215475,-0.068481445,0.03605461,255.0,-5.0030375,-16.161407,0.017364502,0.011764526,0.017120361,-2.7412431,0.68061334,9.391099
34.80524123,31.26506131,0.0,0.66400665,12-20-06,0.083215475,-0.068481445,0.03605461,255.0,-5.0030375,-16.161407,0.017364502,0.011764526,0.017120361,-2.7412431,0.68061334,9.391099
34.80524123,31.26506131,0.0,0.66400665,12-20-06,0.11051655,0.17695874,-0.02492237,255.0,-5.029527,-16.060745,0.002243042,0.017044067,0.008346558,-2.7170806,0.7968108,9.38898
34.80524123,31.26506131,0.0,0.66400665,12-20-06,0.11051655,0.17695874,-0.02492237,255.0,-5.029911,-16.069498,0.002243042,0.017044067,0.008346558,-2.7170806,0.7968108,9.38898
34.80524123,31.26506131,0.0,0.66400665,12-20-06,0.11051655,0.17695874,-0.02492237,255.0,-5.029911,-16.069498,0.002243042,0.017044067,0.008346558,-2.7170806,0.7968108,9.38898
34.80524123,31.26506131,0.0,0.66400665,12-20-06,0.11051655,0.17695874,-0.02492237,255.0,-5.029911,-16.069498,0.002243042,0.017044067,0.008346558,-2.7170806,0.7968108,9.38898
34.80524123,31.26506131,0.0,0.66400665,12-20-06,0.11051655,0.17695874,-0.02492237,255.0,-4.9922237,-16.165527,0.002243042,0.017044067,0.008346558,-2.7170806,0.7968108,9.38898
34.80524123,31.26506131,0.0,0.66400665,12-20-06,0.11051655,0.17695874,-0.02492237,255.0,-4.9922237,-16.165527,0.002243042,0.017044067,0.008346558,-2.7170806,0.7968108,9.38898
34.80524123,31.26506131,0.0,0.66400665,12-20-06,0.11051655,0.17695874,-0.02492237,255.0,-4.857072,-16.096508,0.002243042,0.017044067,0.008346558,-2.7170806,0.7968108,9.38898
34.80524123,31.26506131,0.0,0.66400665,12-20-06,0.11051655,0.17695874,-0.02492237,255.0,-4.7864614,-16.136654,0.002243042,0.017044067,0.008346558,-2.7170806,0.7968108,9.38898
34.80524123,31.26506131,0.0,0.66400665,12-20-06,0.11051655,0.17695874,-0.02492237,255.0,-4.7864614,-16.136654,0.002243042,0.017044067,0.008346558,-2.7170806,0.7968108,9.38898
34.80524123,31.26506131,0.0,0.66400665,12-20-06,0.11051655,0.17695874,-0.02492237,255.0,-4.7864614,-16.136654,0.002243042,0.017044067,0.008346558,-2.7170806,0.7968108,9.38898
34.80524123,31.26506131,0.0,0.66400665,12-20-06,0.11051655,0.17695874,-0.02492237,255.0,-4.665346,-16.129728,0.002243042,0.017044067,0.008346558,-2.7170806,0.7968108,9.38898
34.80524123,31.26506131,0.0,0.66400665,12-20-06,0.11051655,0.17695874,-0.02492237,255.0,-4.665346,-16.129728,0.002243042,0.017044067,0.008346558,-2.7170806,0.7968108,9.38898
34.80524123,31.26506131,0.0,0.66400665,12-20-06,0.011118889,0.06415236,-0.003296852,256.0,-4.433187,-16.084513,-0.04257202,-0.006225586,-0.030639648,-2.7242587,0.78571236,9.3878355
34.80524123,31.26506131,0.0,0.66400665,12-20-06,0.011118889,0.06415236,-0.003296852,256.0,-4.3303213,-16.10029,-0.04257202,-0.006225586,-0.030639648,-2.7242587,0.78571236,9.3878355
34.80524123,31.26506131,0.0,0.66400665,12-20-06,0.011118889,0.06415236,-0.003296852,256.0,-4.3303213,-16.10029,-0.04257202,-0.006225586,-0.030639648,-2.7242587,0.78571236,9.3878355
34.80524123,31.26506131,0.0,0.66400665,12-20-06,0.011118889,0.06415236,-0.003296852,256.0,-4.3303213,-16.10029,-0.04257202,-0.006225586,-0.030639648,-2.7242587,0.78571236,9.3878355
34.80524123,31.26506131,0.0,0.66400665,12-20-06,0.011118889,0.06415236,-0.003296852,255.0,-4.199074,-15.995094,-0.04257202,-0.006225586,-0.030639648,-2.7242587,0.78571236,9.3878355
34.80524123,31.26506131,0.0,0.66400665,12-20-06,0.011118889,0.06415236,-0.003296852,255.0,-4.199074,-15.995094,-0.04257202,-0.006225586,-0.030639648,-2.7242587,0.78571236,9.3878355
34.80524123,31.26506131,0.0,0.66400665,12-20-06,0.011118889,0.06415236,-0.003296852,256.0,-4.0587626,-15.873625,-0.04257202,-0.006225586,-0.030639648,-2.7242587,0.78571236,9.3878355
34.80524123,31.26506131,0.0,0.66400665,12-20-06,0.011118889,0.06415236,-0.003296852,256.0,-4.01685,-15.957794,-0.04257202,-0.006225586,-0.030639648,-2.7242587,0.78571236,9.3878355
34.80524123,31.26506131,0.0,0.66400665,12-20-06,0.011118889,0.06415236,-0.003296852,256.0,-4.01685,-15.957794,-0.04257202,-0.006225586,-0.030639648,-2.7242587,0.78571236,9.3878355
34.80524123,31.26506131,0.0,0.66400665,12-20-06,0.011118889,0.06415236,-0.003296852,256.0,-4.01685,-15.957794,-0.04257202,-0.006225586,-0.030639648,-2.7242587,0.78571236,9.3878355
34.80524123,31.26506131,0.0,0.66400665,12-20-06,0.098446846,-0.10820699,0.0067358017,256.0,-4.0583386,-15.768159,-0.04257202,-0.006225586,-0.030639648,-2.6701245,0.66775304,9.412488
34.80524123,31.26506131,0.0,0.66400665,12-20-06,0.098446846,-0.10820699,0.0067358017,256.0,-4.0583386,-15.768159,-0.04257202,-0.006225586,-0.030639648,-2.6701245,0.66775304,9.412488
34.8052387,31.26506267,0.0,0.7307919,12-20-06,0.098446846,-0.10820699,0.0067358017,256.0,-4.06715,-15.820075,-0.01727295,-0.0048980713,0.002029419,-2.6701245,0.66775304,9.412488
34.8052387,31.26506267,0.0,0.7307919,12-20-06,0.098446846,-0.10820699,0.0067358017,256.0,-4.0566864,-15.939614,-0.01727295,-0.0048980713,0.002029419,-2.6701245,0.66775304,9.412488
34.8052387,31.26506267,0.0,0.7307919,12-20-06,0.098446846,-0.10820699,0.0067358017,256.0,-4.0566864,-15.939614,-0.01727295,-0.0048980713,0.002029419,-2.6701245,0.66775304,9.412488
34.8052387,31.26506267,0.0,0.7307919,12-20-06,0.098446846,-0.10820699,0.0067358017,256.0,-4.0566864,-15.939614,-0.01727295,-0.0048980713,0.002029419,-2.6701245,0.66775304,9.412488
34.8052387,31.26506267,0.0,0.7307919,12-20-06,0.098446846,-0.10820699,0.0067358017,255.0,-4.0195875,-15.917206,-0.01727295,-0.0048980713,0.002029419,-2.6701245,0.66775304,9.412488
34.8052387,31.26506267,0.0,0.7307919,12-20-06,0.098446846,-0.10820699,0.0067358017,255.0,-4.0195875,-15.917206,-0.01727295,-0.0048980713,0.002029419,-2.6701245,0.66775304,9.412488
34.8052387,31.26506267,0.0,0.7307919,12-20-06,0.098446846,-0.10820699,0.0067358017,255.0,-3.9849463,-16.001251,-0.01727295,-0.0048980713,0.002029419,-2.6701245,0.66775304,9.412488
34.8052387,31.26506267,0.0,0.7307919,12-20-06,0.098446846,-0.10820699,0.0067358017,255.0,-3.9332807,-16.042376,-0.01727295,-0.0048980713,0.002029419,-2.6701245,0.66775304,9.412488
34.8052387,31.26506267,0.0,0.7307919,12-20-06,0.098446846,-0.10820699,0.0067358017,255.0,-3.9332807,-16.042376,-0.01727295,-0.0048980713,0.002029419,-2.6701245,0.66775304,9.412488
34.8052387,31.26506267,0.0,0.7307919,12-20-06,0.098446846,-0.10820699,0.0067358017,255.0,-3.9332807,-16.042376,-0.01727295,-0.0048980713,0.002029419,-2.6701245,0.66775304,9.412488
34.8052387,31.26506267,0.0,0.7307919,12-20-06,-0.06559372,0.053851902,-0.020792961,255.0,-3.8701906,-15.936203,-0.01727295,-0.0048980713,0.002029419,-2.6966453,0.6513289,9.4060755
34.8052387,31.26506267,0.0,0.7307919,12-20-06,-0.06559372,0.053851902,-0.020792961,255.0,-3.8701906,-15.936203,-0.01727295,-0.0048980713,0.002029419,-2.6966453,0.6513289,9.4060755
34.8052387,31.26506267,0.0,0.7307919,12-20-06,-0.06559372,0.053851902,-0.020792961,255.0,-3.8407288,-15.96132,-0.03302002,0.001449585,0.020233154,-2.6966453,0.6513289,9.4060755
34.8052387,31.26506267,0.0,0.7307919,12-20-06,-0.06559372,0.053851902,-0.020792961,255.0,-3.8397639,-15.960611,-0.03302002,0.001449585,0.020233154,-2.6966453,0.6513289,9.4060755
34.8052387,31.26506267,0.0,0.7307919,12-20-06,-0.06559372,0.053851902,-0.020792961,255.0,-3.8397639,-15.960611,-0.03302002,0.001449585,0.020233154,-2.6966453,0.6513289,9.4060755
34.8052387,31.26506267,0.0,0.7307919,12-20-06,-0.06559372,0.053851902,-0.020792961,255.0,-3.8397639,-15.960611,-0.03302002,0.001449585,0.020233154,-2.6966453,0.6513289,9.4060755
34.8052387,31.26506267,0.0,0.7307919,12-20-06,-0.06559372,0.053851902,-0.020792961,255.0,-3.8048823,-15.847756,-0.03302002,0.001449585,0.020233154,-2.6966453,0.6513289,9.4060755
34.8052387,31.26506267,0.0,0.7307919,12-20-06,-0.06559372,0.053851902,-0.020792961,255.0,-3.8048823,-15.847756,-0.03302002,0.001449585,0.020233154,-2.6966453,0.6513289,9.4060755
34.8052387,31.26506267,0.0,0.7307919,12-20-07,-0.06559372,0.053851902,-0.020792961,255.0,-3.7872267,-15.890842,-0.03302002,0.001449585,0.020233154,-2.6966453,0.6513289,9.4060755
34.8052387,31.26506267,0.0,0.7307919,12-20-07,-0.06559372,0.053851902,-0.020792961,255.0,-3.7815278,-15.869041,-0.03302002,0.001449585,0.020233154,-2.6966453,0.6513289,9.4060755
34.8052387,31.26506267,0.0,0.7307919,12-20-07,-0.06559372,0.053851902,-0.020792961,255.0,-3.7815278,-15.869041,-0.03302002,0.001449585,0.020233154,-2.6966453,0.6513289,9.4060755
34.8052387,31.26506267,0.0,0.7307919,12-20-07,-0.06559372,0.053851902,-0.020792961,255.0,-3.7815278,-15.869041,-0.03302002,0.001449585,0.020233154,-2.6966453,0.6513289,9.4060755
34.8052387,31.26506267,0.0,0.7307919,12-20-07,0.008104563,-0.06385994,0.10619068,256.0,-3.7275298,-15.673064,-0.03302002,0.001449585,0.020233154,-2.666489,0.5989394,9.418147
34.8052387,31.26506267,0.0,0.7307919,12-20-07,0.008104563,-0.06385994,0.10619068,256.0,-3.7275298,-15.673064,-0.03302002,0.001449585,0.020233154,-2.666489,0.5989394,9.418147
34.8052387,31.26506267,0.0,0.7307919,12-20-07,0.008104563,-0.06385994,0.10619068,256.0,-3.7687883,-15.630224,0.018371582,-0.018951416,-0.015930176,-2.666489,0.5989394,9.418147
34.8052387,31.26506267,0.0,0.7307919,12-20-07,0.008104563,-0.06385994,0.10619068,256.0,-3.8212054,-15.559292,0.018371582,-0.018951416,-0.015930176,-2.666489,0.5989394,9.418147
34.8052387,31.26506267,0.0,0.7307919,12-20-07,0.008104563,-0.06385994,0.10619068,256.0,-3.8212054,-15.559292,0.018371582,-0.018951416,-0.015930176,-2.666489,0.5989394,9.418147
34.8052387,31.26506267,0.0,0.7307919,12-20-07,0.008104563,-0.06385994,0.10619068,256.0,-3.8770447,-15.453921,0.018371582,-0.018951416,-0.015930176,-2.666489,0.5989394,9.418147
34.8052387,31.26506267,0.0,0.7307919,12-20-07,0.008104563,-0.06385994,0.10619068,256.0,-3.9549563,-15.311575,0.018371582,-0.018951416,-0.015930176,-2.666489,0.5989394,9.418147
34.8052387,31.26506267,0.0,0.7307919,12-20-07,0.008104563,-0.06385994,0.10619068,256.0,-3.9549563,-15.311575,0.018371582,-0.018951416,-0.015930176,-2.666489,0.5989394,9.418147
34.8052387,31.26506267,0.0,0.7307919,12-20-07,0.008104563,-0.06385994,0.10619068,256.0,-4.113251,-15.389574,0.018371582,-0.018951416,-0.015930176,-2.666489,0.5989394,9.418147
34.8052387,31.26506267,0.0,0.7307919,12-20-07,0.008104563,-0.06385994,0.10619068,256.0,-4.235895,-15.361708,0.018371582,-0.018951416,-0.015930176,-2.666489,0.5989394,9.418147
34.8052387,31.26506267,0.0,0.7307919,12-20-07,0.008104563,-0.06385994,0.10619068,256.0,-4.235895,-15.361708,0.018371582,-0.018951416,-0.015930176,-2.666489,0.5989394,9.418147
34.8052387,31.26506267,0.0,0.7307919,12-20-07,0.008104563,-0.06385994,0.10619068,256.0,-4.235895,-15.361708,0.018371582,-0.018951416,-0.015930176,-2.666489,0.5989394,9.418147
34.8052387,31.26506267,0.0,0.7307919,12-20-07,0.19091082,0.036502957,0.024214745,256.0,-4.355254,-15.426472,0.018371582,-0.018951416,-0.015930176,-2.5793872,0.6687574,9.437686
34.8052387,31.26506267,0.0,0.7307919,12-20-07,0.19091082,0.036502957,0.024214745,256.0,-4.355254,-15.426472,0.018371582,-0.018951416,-0.015930176,-2.5793872,0.6687574,9.437686
34.8052387,31.26506267,0.0,0.7307919,12-20-07,0.19091082,0.036502957,0.024214745,256.0,-4.483258,-15.649964,0.047805786,0.027755737,-0.0041503906,-2.5793872,0.6687574,9.437686
34.8052387,31.26506267,0.0,0.7307919,12-20-07,0.19091082,0.036502957,0.024214745,256.0,-4.592866,-15.683375,0.047805786,0.027755737,-0.0041503906,-2.5793872,0.6687574,9.437686
34.8052387,31.26506267,0.0,0.7307919,12-20-07,0.19091082,0.036502957,0.024214745,256.0,-4.592866,-15.683375,0.047805786,0.027755737,-0.0041503906,-2.5793872,0.6687574,9.437686
34.8052387,31.26506267,0.0,0.7307919,12-20-07,0.19091082,0.036502957,0.024214745,256.0,-4.592866,-15.683375,0.047805786,0.027755737,-0.0041503906,-2.5793872,0.6687574,9.437686
34.8052387,31.26506267,0.0,0.7307919,12-20-07,0.19091082,0.036502957,0.024214745,256.0,-4.6794434,-15.7882,0.047805786,0.027755737,-0.0041503906,-2.5793872,0.6687574,9.437686
34.8052387,31.26506267,0.0,0.7307919,12-20-07,0.19091082,0.036502957,0.024214745,256.0,-4.6794434,-15.7882,0.047805786,0.027755737,-0.0041503906,-2.5793872,0.6687574,9.437686
34.8052387,31.26506267,0.0,0.7307919,12-20-07,0.19091082,0.036502957,0.024214745,256.0,-4.7353992,-16.000261,0.047805786,0.027755737,-0.0041503906,-2.5793872,0.6687574,9.437686
34.8052387,31.26506267,0.0,0.7307919,12-20-07,0.19091082,0.036502957,0.024214745,256.0,-4.7609553,-16.053198,0.047805786,0.027755737,-0.0041503906,-2.5793872,0.6687574,9.437686
34.8052387,31.26506267,0.0,0.7307919,12-20-07,0.19091082,0.036502957,0.024214745,256.0,-4.7609553,-16.053198,0.047805786,0.027755737,-0.0041503906,-2.5793872,0.6687574,9.437686
34.8052387,31.26506267,0.0,0.7307919,12-20-07,0.19091082,0.036502957,0.024214745,256.0,-4.7609553,-16.053198,0.047805786,0.027755737,-0.0041503906,-2.5793872,0.6687574,9.437686
34.8052387,31.26506267,0.0,0.7307919,12-20-07,-0.179075,0.13190359,-0.12537861,255.0,-4.687457,-16.150814,0.047805786,0.027755737,-0.0041503906,-2.712882,0.77864784,9.391718
34.8052387,31.26506267,0.0,0.7307919,12-20-07,-0.179075,0.13190359,-0.12537861,255.0,-4.687457,-16.150814,0.047805786,0.027755737,-0.0041503906,-2.712882,0.77864784,9.391718
34.8052387,31.26506267,0.0,0.7307919,12-20-07,-0.179075,0.13190359,-0.12537861,255.0,-4.608781,-16.172373,-0.008422852,0.009246826,-0.011688232,-2.712882,0.77864784,9.391718
34.8052387,31.26506267,0.0,0.7307919,12-20-07,-0.179075,0.13190359,-0.12537861,255.0,-4.579412,-16.191124,-0.008422852,0.009246826,-0.011688232,-2.712882,0.77864784,9.391718
34.8052387,31.26506267,0.0,0.7307919,12-20-07,-0.179075,0.13190359,-0.12537861,255.0,-4.579412,-16.191124,-0.008422852,0.009246826,-0.011688232,-2.712882,0.77864784,9.391718
34.8052387,31.26506267,0.0,0.7307919,12-20-07,-0.179075,0.13190359,-0.12537861,255.0,-4.579412,-16.191124,-0.008422852,0.009246826,-0.011688232,-2.712882,0.77864784,9.391718
34.8052387,31.26506267,0.0,0.7307919,12-20-07,-0.179075,0.13190359,-0.12537861,255.0,-4.387318,-16.096138,-0.008422852,0.009246826,-0.011688232,-2.712882,0.77864784,9.391718
34.8052387,31.26506267,0.0,0.7307919,12-20-07,-0.179075,0.13190359,-0.12537861,255.0,-4.387318,-16.096138,-0.008422852,0.009246826,-0.011688232,-2.712882,0.77864784,9.391718
34.8052387,31.26506267,0.0,0.7307919,12-20-07,-0.179075,0.13190359,-0.12537861,255.0,-4.3454275,-16.07466,-0.008422852,0.009246826,-0.011688232,-2.712882,0.77864784,9.391718
34.8052387,31.26506267,0.0,0.7307919,12-20-07,-0.179075,0.13190359,-0.12537861,255.0,-4.306404,-16.0111,-0.008422852,0.009246826,-0.011688232,-2.712882,0.77864784,9.391718
34.8052387,31.26506267,0.0,0.7307919,12-20-07,-0.179075,0.13190359,-0.12537861,255.0,-4.306404,-16.0111,-0.008422852,0.009246826,-0.011688232,-2.712882,0.77864784,9.391718
34.8052387,31.26506267,0.0,0.7307919,12-20-07,-0.179075,0.13190359,-0.12537861,255.0,-4.306404,-16.0111,-0.008422852,0.009246826,-0.011688232,-2.712882,0.77864784,9.391718
34.8052372,31.26506345,0.0,0.8169531,12-20-07,-0.020993471,-0.072066486,-0.060521126,256.0,-4.169682,-15.825733,-0.008422852,0.009246826,-0.011688232,-2.7215977,0.71948665,9.393914
34.8052372,31.26506345,0.0,0.8169531,12-20-07,-0.020993471,-0.072066486,-0.060521126,256.0,-4.169682,-15.825733,-0.008422852,0.009246826,-0.011688232,-2.7215977,0.71948665,9.393914
34.8052372,31.26506345,0.0,0.8169531,12-20-07,-0.020993471,-0.072066486,-0.060521126,256.0,-4.1073713,-15.818534,-0.020828247,-0.033493042,-0.011230469,-2.7215977,0.71948665,9.393914
34.8052372,31.26506345,0.0,0.8169531,12-20-07,-0.020993471,-0.072066486,-0.060521126,256.0,-4.071338,-15.827376,-0.020828247,-0.033493042,-0.011230469,-2.7215977,0.71948665,9.393914
34.8052372,31.26506345,0.0,0.8169531,12-20-07,-0.020993471,-0.072066486,-0.060521126,256.0,-4.071338,-15.827376,-0.020828247,-0.033493042,-0.011230469,-2.7215977,0.71948665,9.393914
34.8052372,31.26506345,0.0,0.8169531,12-20-07,-0.020993471,-0.072066486,-0.060521126,256.0,-4.071338,-15.827376,-0.020828247,-0.033493042,-0.011230469,-2.7215977,0.71948665,9.393914
34.8052372,31.26506345,0.0,0.8169531,12-20-07,-0.020993471,-0.072066486,-0.060521126,255.0,-4.0316358,-15.691402,-0.020828247,-0.033493042,-0.011230469,-2.7215977,0.71948665,9.393914
34.8052372,31.26506345,0.0,0.8169531,12-20-07,-0.020993471,-0.072066486,-0.060521126,255.0,-4.0316358,-15.691402,-0.020828247,-0.033493042,-0.011230469,-2.7215977,0.71948665,9.393914
34.8052372,31.26506345,0.0,0.8169531,12-20-07,-0.020993471,-0.072066486,-0.060521126,255.0,-4.0095615,-15.645495,-0.020828247,-0.033493042,-0.011230469,-2.7215977,0.71948665,9.393914
34.8052372,31.26506345,0.0,0.8169531,12-20-07,-0.020993471,-0.072066486,-0.060521126,255.0,-3.9934065,-15.634963,-0.020828247,-0.033493042,-0.011230469,-2.7215977,0.71948665,9.393914
34.8052372,31.26506345,0.0,0.8169531,12-20-07,-0.020993471,-0.072066486,-0.060521126,255.0,-3.9934065,-15.634963,-0.020828247,-0.033493042,-0.011230469,-2.7215977,0.71948665,9.393914
34.8052372,31.26506345,0.0,0.8169531,12-20-07,-0.020993471,-0.072066486,-0.060521126,255.0,-3.9923987,-15.619287,-0.020828247,-0.033493042,-0.011230469,-2.7215977,0.71948665,9.393914
34.8052372,31.26506345,0.0,0.8169531,12-20-07,-0.031686068,-0.08266926,0.0353899,255.0,-4.0248804,-15.476843,-0.020828247,-0.033493042,-0.011230469,-2.6692662,0.65360194,9.413725
34.8052372,31.26506345,0.0,0.8169531,12-20-07,-0.031686068,-0.08266926,0.0353899,255.0,-4.0248804,-15.476843,-0.020828247,-0.033493042,-0.011230469,-2.6692662,0.65360194,9.413725
34.8052372,31.26506345,0.0,0.8169531,12-20-07,-0.031686068,-0.08266926,0.0353899,255.0,-4.0387683,-15.425377,-2.746582E-4,-0.035461426,0.019577026,-2.6692662,0.65360194,9.413725
34.8052372,31.26506345,0.0,0.8169531,12-20-07,-0.031686068,-0.08266926,0.0353899,255.0,-4.0333185,-15.408575,-2.746582E-4,-0.035461426,0.019577026,-2.6692662,0.65360194,9.413725
