Longitude,Latitude,Speed,Distance,Time,Acc X,Acc Y,Acc Z,Heading,Pitch,Roll,gyro_x,gyro_y,gyro_z,gravity_x,gravity_y,gravity_z
34.8051974,31.26502394,0.0,1.2039946,12-30-16,0.21914911,0.109104276,0.09964466,101.0,-5.073982,-22.545172,-0.024795532,0.031417847,0.036331177,-3.7091575,0.81732666,9.041267
34.8051974,31.26502394,0.0,1.2039946,12-30-16,0.21914911,0.109104276,0.09964466,101.0,-5.052839,-22.564878,-0.024795532,0.031417847,0.036331177,-3.7091575,0.81732666,9.041267
34.8051974,31.26502394,0.0,1.2039946,12-30-16,0.21914911,0.109104276,0.09964466,101.0,-5.052839,-22.564878,-0.024795532,0.031417847,0.036331177,-3.7091575,0.81732666,9.041267
34.8051974,31.26502394,0.0,1.2039946,12-30-16,0.21914911,0.109104276,0.09964466,101.0,-5.052839,-22.564878,-0.024795532,0.031417847,0.036331177,-3.7091575,0.81732666,9.041267
34.8051974,31.26502394,0.0,1.2039946,12-30-16,0.21914911,0.109104276,0.09964466,101.0,-5.052839,-22.564878,-0.024795532,0.031417847,0.036331177,-3.7091575,0.81732666,9.041267
34.8051974,31.26502394,0.0,1.2039946,12-30-16,0.21914911,0.109104276,0.09964466,101.0,-5.052839,-22.564878,-0.024795532,0.031417847,0.036331177,-3.7091575,0.81732666,9.041267
34.8051974,31.26502394,0.0,1.2039946,12-30-16,0.21914911,0.109104276,0.09964466,101.0,-5.052839,-22.564878,-0.024795532,0.031417847,0.036331177,-3.7091575,0.81732666,9.041267
34.8051974,31.26502394,0.0,1.2039946,12-30-16,0.21914911,0.109104276,0.09964466,101.0,-5.052839,-22.564878,-0.024795532,0.031417847,0.036331177,-3.7091575,0.81732666,9.041267
34.8051974,31.26502394,0.0,1.2039946,12-30-16,-0.06600213,0.04495132,0.1104269,100.0,-5.0400896,-22.580343,-0.024795532,0.031417847,0.036331177,-3.7439268,0.83281714,9.025509
34.8051974,31.26502394,0.0,1.2039946,12-30-16,-0.06600213,0.04495132,0.1104269,100.0,-5.0400896,-22.580343,-0.024795532,0.031417847,0.036331177,-3.7439268,0.83281714,9.025509
34.8051974,31.26502394,0.0,1.2039946,12-30-16,-0.06600213,0.04495132,0.1104269,100.0,-5.0400896,-22.580343,-0.024795532,0.031417847,0.036331177,-3.7439268,0.83281714,9.025509
34.8051974,31.26502394,0.0,1.2039946,12-30-16,-0.06600213,0.04495132,0.1104269,100.0,-5.042814,-22.574398,-0.024795532,0.031417847,0.036331177,-3.7439268,0.83281714,9.025509
34.8051974,31.26502394,0.0,1.2039946,12-30-16,-0.06600213,0.04495132,0.1104269,100.0,-5.042814,-22.574398,-0.024795532,0.031417847,0.036331177,-3.7439268,0.83281714,9.025509
34.8051974,31.26502394,0.0,1.2039946,12-30-16,-0.06600213,0.04495132,0.1104269,100.0,-5.042814,-22.574398,-0.024795532,0.031417847,0.036331177,-3.7439268,0.83281714,9.025509
34.8051974,31.26502394,0.0,1.2039946,12-30-16,-0.06600213,0.04495132,0.1104269,101.0,-5.0571585,-22.577604,-0.024795532,0.031417847,0.036331177,-3.7439268,0.83281714,9.025509
34.8051974,31.26502394,0.0,1.2039946,12-30-16,-0.06600213,0.04495132,0.1104269,101.0,-5.0571585,-22.577604,-0.024795532,0.031417847,0.036331177,-3.7439268,0.83281714,9.025509
34.8051974,31.26502394,0.0,1.2039946,12-30-16,-0.06600213,0.04495132,0.1104269,101.0,-5.0648813,-22.590607,-0.024795532,0.031417847,0.036331177,-3.7439268,0.83281714,9.025509
34.8051974,31.26502394,0.0,1.2039946,12-30-16,-0.06600213,0.04495132,0.1104269,101.0,-5.0648813,-22.590607,-0.024795532,0.031417847,0.036331177,-3.7439268,0.83281714,9.025509
34.8051974,31.26502394,0.0,1.2039946,12-30-16,-0.06600213,0.04495132,0.1104269,101.0,-5.0648813,-22.590607,-0.015686035,0.003692627,0.044509888,-3.7439268,0.83281714,9.025509
34.8051974,31.26502394,0.0,1.2039946,12-30-16,-0.06600213,0.04495132,0.1104269,101.0,-5.0648813,-22.590607,-0.015686035,0.003692627,0.044509888,-3.7439268,0.83281714,9.025509
34.8051974,31.26502394,0.0,1.2039946,12-30-16,-0.06600213,0.04495132,0.1104269,100.0,-5.091738,-22.594503,-0.015686035,0.003692627,0.044509888,-3.7439268,0.83281714,9.025509
34.8051974,31.26502394,0.0,1.2039946,12-30-16,-0.06600213,0.04495132,0.1104269,100.0,-5.2632213,-22.353672,-0.015686035,0.003692627,0.044509888,-3.7439268,0.83281714,9.025509
34.8051974,31.26502394,0.0,1.2039946,12-30-16,-0.06600213,0.04495132,0.1104269,100.0,-5.2632213,-22.353672,-0.015686035,0.003692627,0.044509888,-3.7439268,0.83281714,9.025509
34.8051974,31.26502394,0.0,1.2039946,12-30-16,-0.06600213,0.04495132,0.1104269,100.0,-5.2632213,-22.353672,-0.015686035,0.003692627,0.044509888,-3.7439268,0.83281714,9.025509
34.8051974,31.26502394,0.0,1.2039946,12-30-16,-0.06600213,0.04495132,0.1104269,99.0,-5.2872925,-22.282196,-0.015686035,0.003692627,0.044509888,-3.7439268,0.83281714,9.025509
34.8051974,31.26502394,0.0,1.2039946,12-30-16,-0.06600213,0.04495132,0.1104269,99.0,-5.2872925,-22.282196,-0.015686035,0.003692627,0.044509888,-3.7439268,0.83281714,9.025509
34.8051974,31.26502394,0.0,1.2039946,12-30-16,-0.06600213,0.04495132,0.1104269,100.0,-5.3138943,-22.23634,-0.015686035,0.003692627,0.044509888,-3.7439268,0.83281714,9.025509
34.8051974,31.26502394,0.0,1.2039946,12-30-16,-0.06600213,0.04495132,0.1104269,100.0,-5.3138943,-22.23634,-0.015686035,0.003692627,0.044509888,-3.7439268,0.83281714,9.025509
34.8051974,31.26502394,0.0,1.2039946,12-30-16,-0.19540358,0.04140228,0.16812038,100.0,-5.33704,-22.23178,-0.015686035,0.003692627,0.044509888,-3.7846375,0.8479386,9.007103
34.8051974,31.26502394,0.0,1.2039946,12-30-16,-0.19540358,0.04140228,0.16812038,100.0,-5.33704,-22.23178,-0.015686035,0.003692627,0.044509888,-3.7846375,0.8479386,9.007103
34.8051974,31.26502394,0.0,1.2039946,12-30-16,-0.19540358,0.04140228,0.16812038,100.0,-5.33704,-22.23178,-0.015686035,0.003692627,0.044509888,-3.7846375,0.8479386,9.007103
34.8051974,31.26502394,0.0,1.2039946,12-30-16,-0.19540358,0.04140228,0.16812038,101.0,-5.444829,-22.193886,-0.015686035,0.003692627,0.044509888,-3.7846375,0.8479386,9.007103
34.8051974,31.26502394,0.0,1.2039946,12-30-16,-0.19540358,0.04140228,0.16812038,101.0,-5.444829,-22.193886,-0.015686035,0.003692627,0.044509888,-3.7846375,0.8479386,9.007103
34.8051974,31.26502394,0.0,1.2039946,12-30-16,-0.19540358,0.04140228,0.16812038,101.0,-5.444829,-22.193886,-0.015686035,0.003692627,0.044509888,-3.7846375,0.8479386,9.007103
34.8051974,31.26502394,0.0,1.2039946,12-30-16,-0.19540358,0.04140228,0.16812038,101.0,-5.4762945,-22.156826,-0.015686035,0.003692627,0.044509888,-3.7846375,0.8479386,9.007103
34.8051974,31.26502394,0.0,1.2039946,12-30-16,-0.19540358,0.04140228,0.16812038,101.0,-5.4762945,-22.156826,-0.015686035,0.003692627,0.044509888,-3.7846375,0.8479386,9.007103
34.8051974,31.26502394,0.0,1.2039946,12-30-16,-0.19540358,0.04140228,0.16812038,102.0,-5.5367627,-22.14353,-0.015686035,0.003692627,0.044509888,-3.7846375,0.8479386,9.007103
34.8051974,31.26502394,0.0,1.2039946,12-30-16,-0.19540358,0.04140228,0.16812038,102.0,-5.5367627,-22.14353,-0.015686035,0.003692627,0.044509888,-3.7846375,0.8479386,9.007103
34.8051974,31.26502394,0.0,1.2039946,12-30-16,-0.19540358,0.04140228,0.16812038,102.0,-5.5367627,-22.14353,0.08377075,-0.06175232,-0.09764099,-3.7846375,0.8479386,9.007103
34.8051974,31.26502394,0.0,1.2039946,12-30-16,-0.19540358,0.04140228,0.16812038,102.0,-5.5367627,-22.14353,0.08377075,-0.06175232,-0.09764099,-3.7846375,0.8479386,9.007103
34.8051974,31.26502394,0.0,1.2039946,12-30-16,-0.19540358,0.04140228,0.16812038,102.0,-5.6418486,-22.140352,0.08377075,-0.06175232,-0.09764099,-3.7846375,0.8479386,9.007103
34.8051974,31.26502394,0.0,1.2039946,12-30-16,-0.19540358,0.04140228,0.16812038,101.0,-5.7420883,-21.98237,0.08377075,-0.06175232,-0.09764099,-3.7846375,0.8479386,9.007103
34.8051974,31.26502394,0.0,1.2039946,12-30-16,-0.19540358,0.04140228,0.16812038,101.0,-5.7420883,-21.98237,0.08377075,-0.06175232,-0.09764099,-3.7846375,0.8479386,9.007103
34.8051974,31.26502394,0.0,1.2039946,12-30-16,-0.19540358,0.04140228,0.16812038,101.0,-5.7420883,-21.98237,0.08377075,-0.06175232,-0.09764099,-3.7846375,0.8479386,9.007103
34.8051974,31.26502394,0.0,1.2039946,12-30-16,-0.19540358,0.04140228,0.16812038,100.0,-5.828037,-21.933533,0.08377075,-0.06175232,-0.09764099,-3.7846375,0.8479386,9.007103
34.8051974,31.26502394,0.0,1.2039946,12-30-16,-0.19540358,0.04140228,0.16812038,100.0,-5.9082384,-21.88083,0.08377075,-0.06175232,-0.09764099,-3.7846375,0.8479386,9.007103
34.8051974,31.26502394,0.0,1.2039946,12-30-16,-1.8509002,0.13374907,2.1503725,100.0,-5.9082384,-21.88083,0.08377075,-0.06175232,-0.09764099,-3.7501872,0.91477704,9.01497
34.8051974,31.26502394,0.0,1.2039946,12-30-16,-1.8509002,0.13374907,2.1503725,100.0,-5.9082384,-21.88083,0.08377075,-0.06175232,-0.09764099,-3.7501872,0.91477704,9.01497
34.8051974,31.26502394,0.0,1.2039946,12-30-16,-1.8509002,0.13374907,2.1503725,100.0,-6.0024166,-21.804684,0.08377075,-0.06175232,-0.09764099,-3.7501872,0.91477704,9.01497
34.8051974,31.26502394,0.0,1.2039946,12-30-16,-1.8509002,0.13374907,2.1503725,100.0,-6.0024166,-21.804684,0.08377075,-0.06175232,-0.09764099,-3.7501872,0.91477704,9.01497
34.8051974,31.26502394,0.0,1.2039946,12-30-16,-1.8509002,0.13374907,2.1503725,100.0,-6.0024166,-21.804684,0.08377075,-0.06175232,-0.09764099,-3.7501872,0.91477704,9.01497
34.8051974,31.26502394,0.0,1.2039946,12-30-16,-1.8509002,0.13374907,2.1503725,100.0,-6.088634,-21.921736,0.08377075,-0.06175232,-0.09764099,-3.7501872,0.91477704,9.01497
34.8051974,31.26502394,0.0,1.2039946,12-30-16,-1.8509002,0.13374907,2.1503725,100.0,-6.088634,-21.921736,0.08377075,-0.06175232,-0.09764099,-3.7501872,0.91477704,9.01497
34.8051974,31.26502394,0.0,1.2039946,12-30-16,-1.8509002,0.13374907,2.1503725,100.0,-6.088634,-21.921736,0.08377075,-0.06175232,-0.09764099,-3.7501872,0.91477704,9.01497
34.8051974,31.26502394,0.0,1.2039946,12-30-16,-1.8509002,0.13374907,2.1503725,102.0,-6.1141186,-21.922422,0.08377075,-0.06175232,-0.09764099,-3.7501872,0.91477704,9.01497
34.8051974,31.26502394,0.0,1.2039946,12-30-16,-1.8509002,0.13374907,2.1503725,102.0,-6.118057,-22.026932,0.08377075,-0.06175232,-0.09764099,-3.7501872,0.91477704,9.01497
34.8051974,31.26502394,0.0,1.2039946,12-30-16,-1.8509002,0.13374907,2.1503725,102.0,-6.118057,-22.026932,0.08377075,-0.06175232,-0.09764099,-3.7501872,0.91477704,9.01497
34.8051974,31.26502394,0.0,1.2039946,12-30-16,-1.8509002,0.13374907,2.1503725,102.0,-6.118057,-22.026932,0.08377075,-0.06175232,-0.09764099,-3.7501872,0.91477704,9.01497
34.8051974,31.26502394,0.0,1.2039946,12-30-16,-1.8509002,0.13374907,2.1503725,102.0,-6.0962977,-22.092756,0.03538513,-0.011688232,0.009399414,-3.7501872,0.91477704,9.01497
34.8051974,31.26502394,0.0,1.2039946,12-30-16,-1.8509002,0.13374907,2.1503725,102.0,-6.0962977,-22.092756,0.03538513,-0.011688232,0.009399414,-3.7501872,0.91477704,9.01497
34.8051974,31.26502394,0.0,1.2039946,12-30-16,-1.8509002,0.13374907,2.1503725,101.0,-6.0293717,-21.944935,0.03538513,-0.011688232,0.009399414,-3.7501872,0.91477704,9.01497
34.8051974,31.26502394,0.0,1.2039946,12-30-16,-1.8509002,0.13374907,2.1503725,101.0,-5.948046,-21.74439,0.03538513,-0.011688232,0.009399414,-3.7501872,0.91477704,9.01497
34.8051974,31.26502394,0.0,1.2039946,12-30-16,-1.8509002,0.13374907,2.1503725,101.0,-5.948046,-21.74439,0.03538513,-0.011688232,0.009399414,-3.7501872,0.91477704,9.01497
34.8051974,31.26502394,0.0,1.2039946,12-30-16,-1.8509002,0.13374907,2.1503725,101.0,-5.948046,-21.74439,0.03538513,-0.011688232,0.009399414,-3.7501872,0.91477704,9.01497
34.8051974,31.26502394,0.0,1.2039946,12-30-16,-1.8509002,0.13374907,2.1503725,100.0,-5.876756,-21.536467,0.03538513,-0.011688232,0.009399414,-3.7501872,0.91477704,9.01497
34.8051974,31.26502394,0.0,1.2039946,12-30-16,-1.8509002,0.13374907,2.1503725,99.0,-5.819939,-21.322676,0.03538513,-0.011688232,0.009399414,-3.7501872,0.91477704,9.01497
34.8051974,31.26502394,0.0,1.2039946,12-30-16,0.0019569397,-0.52818716,-0.18849945,98.0,-5.736785,-21.163485,0.03538513,-0.011688232,0.009399414,-3.644237,0.9407986,9.055652
34.8051974,31.26502394,0.0,1.2039946,12-30-16,0.0019569397,-0.52818716,-0.18849945,98.0,-5.736785,-21.163485,0.03538513,-0.011688232,0.009399414,-3.644237,0.9407986,9.055652
34.80519744,31.26502421,0.0,0.030177413,12-30-16,0.0019569397,-0.52818716,-0.18849945,98.0,-5.736785,-21.163485,0.03538513,-0.011688232,0.009399414,-3.644237,0.9407986,9.055652
34.80519744,31.26502421,0.0,0.030177413,12-30-16,0.0019569397,-0.52818716,-0.18849945,98.0,-5.736785,-21.163485,0.03538513,-0.011688232,0.009399414,-3.644237,0.9407986,9.055652
34.80519744,31.26502421,0.0,0.030177413,12-30-16,0.0019569397,-0.52818716,-0.18849945,97.0,-5.591878,-20.949907,0.03538513,-0.011688232,0.009399414,-3.644237,0.9407986,9.055652
34.80519744,31.26502421,0.0,0.030177413,12-30-16,0.0019569397,-0.52818716,-0.18849945,96.0,-5.4174676,-20.630215,0.03538513,-0.011688232,0.009399414,-3.644237,0.9407986,9.055652
34.80519744,31.26502421,0.0,0.030177413,12-30-16,0.0019569397,-0.52818716,-0.18849945,96.0,-5.4174676,-20.630215,0.03538513,-0.011688232,0.009399414,-3.644237,0.9407986,9.055652
34.80519744,31.26502421,0.0,0.030177413,12-30-16,0.0019569397,-0.52818716,-0.18849945,96.0,-5.2689524,-20.364445,0.03538513,-0.011688232,0.009399414,-3.644237,0.9407986,9.055652
34.80519744,31.26502421,0.0,0.030177413,12-30-16,0.0019569397,-0.52818716,-0.18849945,96.0,-5.2689524,-20.364445,0.03538513,-0.011688232,0.009399414,-3.644237,0.9407986,9.055652
34.80519744,31.26502421,0.0,0.030177413,12-30-16,0.0019569397,-0.52818716,-0.18849945,95.0,-5.1368957,-20.248451,0.03538513,-0.011688232,0.009399414,-3.644237,0.9407986,9.055652
34.80519744,31.26502421,0.0,0.030177413,12-30-16,0.0019569397,-0.52818716,-0.18849945,95.0,-5.0042405,-20.160608,0.03538513,-0.011688232,0.009399414,-3.644237,0.9407986,9.055652
34.80519744,31.26502421,0.0,0.030177413,12-30-16,0.0019569397,-0.52818716,-0.18849945,95.0,-5.0042405,-20.160608,-0.3267975,-0.09375,0.61972046,-3.644237,0.9407986,9.055652
34.80519744,31.26502421,0.0,0.030177413,12-30-16,0.0019569397,-0.52818716,-0.18849945,95.0,-5.0042405,-20.160608,-0.3267975,-0.09375,0.61972046,-3.644237,0.9407986,9.055652
34.80519744,31.26502421,0.0,0.030177413,12-30-16,0.0019569397,-0.52818716,-0.18849945,95.0,-5.0042405,-20.160608,-0.3267975,-0.09375,0.61972046,-3.644237,0.9407986,9.055652
34.80519744,31.26502421,0.0,0.030177413,12-30-16,0.0019569397,-0.52818716,-0.18849945,94.0,-4.84952,-19.994972,-0.3267975,-0.09375,0.61972046,-3.644237,0.9407986,9.055652
34.80519744,31.26502421,0.0,0.030177413,12-30-16,0.0019569397,-0.52818716,-0.18849945,93.0,-4.689716,-19.759441,-0.3267975,-0.09375,0.61972046,-3.644237,0.9407986,9.055652
34.80519744,31.26502421,0.0,0.030177413,12-30-16,0.0019569397,-0.52818716,-0.18849945,93.0,-4.689716,-19.759441,-0.3267975,-0.09375,0.61972046,-3.644237,0.9407986,9.055652
34.80519744,31.26502421,0.0,0.030177413,12-30-16,0.0019569397,-0.52818716,-0.18849945,93.0,-4.5340257,-19.525015,-0.3267975,-0.09375,0.61972046,-3.644237,0.9407986,9.055652
34.80519744,31.26502421,0.0,0.030177413,12-30-16,0.0019569397,-0.52818716,-0.18849945,92.0,-4.4145703,-19.40012,-0.3267975,-0.09375,0.61972046,-3.644237,0.9407986,9.055652
34.80519744,31.26502421,0.0,0.030177413,12-30-16,0.0019569397,-0.52818716,-0.18849945,92.0,-4.4145703,-19.40012,-0.3267975,-0.09375,0.61972046,-3.644237,0.9407986,9.055652
34.80519744,31.26502421,0.0,0.030177413,12-30-16,1.5059347,-0.3227387,0.02247715,92.0,-4.287404,-19.320158,-0.3267975,-0.09375,0.61972046,-3.3973546,0.82422096,9.162371
34.80519744,31.26502421,0.0,0.030177413,12-30-16,1.5059347,-0.3227387,0.02247715,92.0,-4.287404,-19.320158,-0.3267975,-0.09375,0.61972046,-3.3973546,0.82422096,9.162371
34.80519744,31.26502421,0.0,0.030177413,12-30-16,1.5059347,-0.3227387,0.02247715,92.0,-4.287404,-19.320158,-0.3267975,-0.09375,0.61972046,-3.3973546,0.82422096,9.162371
34.80519744,31.26502421,0.0,0.030177413,12-30-16,1.5059347,-0.3227387,0.02247715,92.0,-4.127838,-19.278488,-0.3267975,-0.09375,0.61972046,-3.3973546,0.82422096,9.162371
34.80519744,31.26502421,0.0,0.030177413,12-30-16,1.5059347,-0.3227387,0.02247715,92.0,-4.127838,-19.278488,-0.3267975,-0.09375,0.61972046,-3.3973546,0.82422096,9.162371
34.80519744,31.26502421,0.0,0.030177413,12-30-16,1.5059347,-0.3227387,0.02247715,91.0,-3.9875093,-19.1475,-0.3267975,-0.09375,0.61972046,-3.3973546,0.82422096,9.162371
34.80519744,31.26502421,0.0,0.030177413,12-30-16,1.5059347,-0.3227387,0.02247715,91.0,-3.9875093,-19.1475,-0.3267975,-0.09375,0.61972046,-3.3973546,0.82422096,9.162371
34.80519744,31.26502421,0.0,0.030177413,12-30-16,1.5059347,-0.3227387,0.02247715,91.0,-3.8534393,-18.929157,-0.3267975,-0.09375,0.61972046,-3.3973546,0.82422096,9.162371
34.80519744,31.26502421,0.0,0.030177413,12-30-16,1.5059347,-0.3227387,0.02247715,91.0,-3.713737,-18.844032,-0.3267975,-0.09375,0.61972046,-3.3973546,0.82422096,9.162371
34.80519744,31.26502421,0.0,0.030177413,12-30-16,1.5059347,-0.3227387,0.02247715,91.0,-3.713737,-18.844032,-0.3267975,-0.09375,0.61972046,-3.3973546,0.82422096,9.162371
34.80519744,31.26502421,0.0,0.030177413,12-30-16,1.5059347,-0.3227387,0.02247715,90.0,-3.5295596,-18.800072,-0.3267975,-0.09375,0.61972046,-3.3973546,0.82422096,9.162371
34.80519744,31.26502421,0.0,0.030177413,12-30-16,1.5059347,-0.3227387,0.02247715,90.0,-3.5295596,-18.800072,-0.2682953,-0.050949097,0.3932953,-3.3973546,0.82422096,9.162371
34.80519744,31.26502421,0.0,0.030177413,12-30-16,1.5059347,-0.3227387,0.02247715,90.0,-3.5295596,-18.800072,-0.2682953,-0.050949097,0.3932953,-3.3973546,0.82422096,9.162371
34.80519744,31.26502421,0.0,0.030177413,12-30-16,1.5059347,-0.3227387,0.02247715,90.0,-3.5295596,-18.800072,-0.2682953,-0.050949097,0.3932953,-3.3973546,0.82422096,9.162371
34.80519744,31.26502421,0.0,0.030177413,12-30-17,1.5059347,-0.3227387,0.02247715,89.0,-3.3110526,-18.798752,-0.2682953,-0.050949097,0.3932953,-3.3973546,0.82422096,9.162371
34.80519744,31.26502421,0.0,0.030177413,12-30-17,1.5059347,-0.3227387,0.02247715,88.0,-3.1380599,-18.806015,-0.2682953,-0.050949097,0.3932953,-3.3973546,0.82422096,9.162371
34.80519744,31.26502421,0.0,0.030177413,12-30-17,1.5059347,-0.3227387,0.02247715,88.0,-3.1380599,-18.806015,-0.2682953,-0.050949097,0.3932953,-3.3973546,0.82422096,9.162371
34.80519744,31.26502421,0.0,0.030177413,12-30-17,1.5059347,-0.3227387,0.02247715,88.0,-2.979715,-18.807951,-0.2682953,-0.050949097,0.3932953,-3.3973546,0.82422096,9.162371
34.80519744,31.26502421,0.0,0.030177413,12-30-17,1.5059347,-0.3227387,0.02247715,88.0,-2.7917166,-18.987123,-0.2682953,-0.050949097,0.3932953,-3.3973546,0.82422096,9.162371
34.80519744,31.26502421,0.0,0.030177413,12-30-17,1.1472435,0.08222693,-0.4125328,88.0,-2.7917166,-18.987123,-0.2682953,-0.050949097,0.3932953,-3.245295,0.5870961,9.235462
34.80519744,31.26502421,0.0,0.030177413,12-30-17,1.1472435,0.08222693,-0.4125328,88.0,-2.5983446,-19.272488,-0.2682953,-0.050949097,0.3932953,-3.245295,0.5870961,9.235462
34.80519744,31.26502421,0.0,0.030177413,12-30-17,1.1472435,0.08222693,-0.4125328,88.0,-2.5983446,-19.272488,-0.2682953,-0.050949097,0.3932953,-3.245295,0.5870961,9.235462
34.80519744,31.26502421,0.0,0.030177413,12-30-17,1.1472435,0.08222693,-0.4125328,88.0,-2.4398355,-19.430817,-0.2682953,-0.050949097,0.3932953,-3.245295,0.5870961,9.235462
34.80519744,31.26502421,0.0,0.030177413,12-30-17,1.1472435,0.08222693,-0.4125328,88.0,-2.4398355,-19.430817,-0.2682953,-0.050949097,0.3932953,-3.245295,0.5870961,9.235462
34.80519744,31.26502421,0.0,0.030177413,12-30-17,1.1472435,0.08222693,-0.4125328,88.0,-2.4398355,-19.430817,-0.2682953,-0.050949097,0.3932953,-3.245295,0.5870961,9.235462
34.80519744,31.26502421,0.0,0.030177413,12-30-17,1.1472435,0.08222693,-0.4125328,89.0,-2.3230894,-19.35384,-0.2682953,-0.050949097,0.3932953,-3.245295,0.5870961,9.235462
34.80519744,31.26502421,0.0,0.030177413,12-30-17,1.1472435,0.08222693,-0.4125328,89.0,-2.3230894,-19.35384,-0.2682953,-0.050949097,0.3932953,-3.245295,0.5870961,9.235462
34.80519744,31.26502421,0.0,0.030177413,12-30-17,1.1472435,0.08222693,-0.4125328,90.0,-2.2962387,-19.16894,-0.2682953,-0.050949097,0.3932953,-3.245295,0.5870961,9.235462
34.80519744,31.26502421,0.0,0.030177413,12-30-17,1.1472435,0.08222693,-0.4125328,91.0,-2.384465,-19.032272,-0.2682953,-0.050949097,0.3932953,-3.245295,0.5870961,9.235462
34.80519744,31.26502421,0.0,0.030177413,12-30-17,1.1472435,0.08222693,-0.4125328,91.0,-2.384465,-19.032272,-0.2682953,-0.050949097,0.3932953,-3.245295,0.5870961,9.235462
34.80519744,31.26502421,0.0,0.030177413,12-30-17,1.1472435,0.08222693,-0.4125328,92.0,-2.5341218,-18.879045,-0.2682953,-0.050949097,0.3932953,-3.245295,0.5870961,9.235462
34.80519744,31.26502421,0.0,0.030177413,12-30-17,1.1472435,0.08222693,-0.4125328,92.0,-2.5341218,-18.879045,0.046279907,-0.011291504,-0.23582458,-3.245295,0.5870961,9.235462
34.80519744,31.26502421,0.0,0.030177413,12-30-17,1.1472435,0.08222693,-0.4125328,92.0,-2.5341218,-18.879045,0.046279907,-0.011291504,-0.23582458,-3.245295,0.5870961,9.235462
34.80519744,31.26502421,0.0,0.030177413,12-30-17,1.1472435,0.08222693,-0.4125328,92.0,-2.6950505,-18.732613,0.046279907,-0.011291504,-0.23582458,-3.245295,0.5870961,9.235462
34.80519744,31.26502421,0.0,0.030177413,12-30-17,1.1472435,0.08222693,-0.4125328,92.0,-2.6950505,-18.732613,0.046279907,-0.011291504,-0.23582458,-3.245295,0.5870961,9.235462
34.80519744,31.26502421,0.0,0.030177413,12-30-17,1.1472435,0.08222693,-0.4125328,90.0,-2.6370595,-18.874361,0.046279907,-0.011291504,-0.23582458,-3.245295,0.5870961,9.235462
34.80519744,31.26502421,0.0,0.030177413,12-30-17,1.1472435,0.08222693,-0.4125328,90.0,-2.6370595,-18.874361,0.046279907,-0.011291504,-0.23582458,-3.245295,0.5870961,9.235462
34.80519744,31.26502421,0.0,0.030177413,12-30-17,1.1472435,0.08222693,-0.4125328,90.0,-2.6370595,-18.874361,0.046279907,-0.011291504,-0.23582458,-3.245295,0.5870961,9.235462
34.80519744,31.26502421,0.0,0.030177413,12-30-17,-0.16889668,-0.63732827,-0.5262718,89.0,-2.5896833,-19.089071,0.046279907,-0.011291504,-0.23582458,-3.2783163,0.41683677,9.233053
34.80519744,31.26502421,0.0,0.030177413,12-30-17,-0.16889668,-0.63732827,-0.5262718,89.0,-2.5896833,-19.089071,0.046279907,-0.011291504,-0.23582458,-3.2783163,0.41683677,9.233053
34.80519744,31.26502421,0.0,0.030177413,12-30-17,-0.16889668,-0.63732827,-0.5262718,88.0,-2.418746,-19.28114,0.046279907,-0.011291504,-0.23582458,-3.2783163,0.41683677,9.233053
34.80519744,31.26502421,0.0,0.030177413,12-30-17,-0.16889668,-0.63732827,-0.5262718,88.0,-2.308897,-19.228828,0.046279907,-0.011291504,-0.23582458,-3.2783163,0.41683677,9.233053
34.80519744,31.26502421,0.0,0.030177413,12-30-17,-0.16889668,-0.63732827,-0.5262718,88.0,-2.308897,-19.228828,0.046279907,-0.011291504,-0.23582458,-3.2783163,0.41683677,9.233053
34.80519744,31.26502421,0.0,0.030177413,12-30-17,-0.16889668,-0.63732827,-0.5262718,88.0,-2.308897,-19.228828,0.046279907,-0.011291504,-0.23582458,-3.2783163,0.41683677,9.233053
34.80519744,31.26502421,0.0,0.030177413,12-30-17,-0.16889668,-0.63732827,-0.5262718,88.0,-2.308897,-19.228828,0.046279907,-0.011291504,-0.23582458,-3.2783163,0.41683677,9.233053
34.80519744,31.26502421,0.0,0.030177413,12-30-17,-0.16889668,-0.63732827,-0.5262718,89.0,-2.8714526,-18.739098,0.046279907,-0.011291504,-0.23582458,-3.2783163,0.41683677,9.233053
34.80519744,31.26502421,0.0,0.030177413,12-30-17,-0.16889668,-0.63732827,-0.5262718,89.0,-2.8714526,-18.739098,0.046279907,-0.011291504,-0.23582458,-3.2783163,0.41683677,9.233053
34.80519744,31.26502421,0.0,0.030177413,12-30-17,-0.16889668,-0.63732827,-0.5262718,89.0,-2.8714526,-18.739098,0.046279907,-0.011291504,-0.23582458,-3.2783163,0.41683677,9.233053
34.80519744,31.26502421,0.0,0.030177413,12-30-17,-0.16889668,-0.63732827,-0.5262718,90.0,-2.9757082,-18.58423,0.046279907,-0.011291504,-0.23582458,-3.2783163,0.41683677,9.233053
34.80519744,31.26502421,0.0,0.030177413,12-30-17,-0.16889668,-0.63732827,-0.5262718,90.0,-2.9757082,-18.58423,0.046279907,-0.011291504,-0.23582458,-3.2783163,0.41683677,9.233053
34.80519744,31.26502421,0.0,0.030177413,12-30-17,-0.16889668,-0.63732827,-0.5262718,91.0,-2.811775,-18.08928,0.046279907,-0.011291504,-0.23582458,-3.2783163,0.41683677,9.233053
34.80519744,31.26502421,0.0,0.030177413,12-30-17,-0.16889668,-0.63732827,-0.5262718,91.0,-2.811775,-18.08928,0.046279907,-0.011291504,-0.23582458,-3.2783163,0.41683677,9.233053
34.80519744,31.26502421,0.0,0.030177413,12-30-17,-0.16889668,-0.63732827,-0.5262718,93.0,-2.5494547,-17.567623,-0.02696228,-0.1312561,-0.086517334,-3.2783163,0.41683677,9.233053
34.80519744,31.26502421,0.0,0.030177413,12-30-17,-0.16889668,-0.63732827,-0.5262718,93.0,-2.5494547,-17.567623,-0.02696228,-0.1312561,-0.086517334,-3.2783163,0.41683677,9.233053
34.80519744,31.26502421,0.0,0.030177413,12-30-17,-0.16889668,-0.63732827,-0.5262718,93.0,-2.5494547,-17.567623,-0.02696228,-0.1312561,-0.086517334,-3.2783163,0.41683677,9.233053
34.80519744,31.26502421,0.0,0.030177413,12-30-17,-0.16889668,-0.63732827,-0.5262718,94.0,-1.7737101,-17.22455,-0.02696228,-0.1312561,-0.086517334,-3.2783163,0.41683677,9.233053
34.80519744,31.26502421,0.0,0.030177413,12-30-17,-0.16889668,-0.63732827,-0.5262718,94.0,-1.7737101,-17.22455,-0.02696228,-0.1312561,-0.086517334,-3.2783163,0.41683677,9.233053
34.80519744,31.26502421,0.0,0.030177413,12-30-17,-0.16889668,-0.63732827,-0.5262718,94.0,-1.7737101,-17.22455,-0.02696228,-0.1312561,-0.086517334,-3.2783163,0.41683677,9.233053
34.80519744,31.26502421,0.0,0.030177413,12-30-17,-0.94523597,1.1305904,0.69659615,93.0,-1.5026431,-16.937254,-0.02696228,-0.1312561,-0.086517334,-3.0551763,0.3693243,9.311277
34.80519744,31.26502421,0.0,0.030177413,12-30-17,-0.94523597,1.1305904,0.69659615,93.0,-1.4497944,-16.602194,-0.02696228,-0.1312561,-0.086517334,-3.0551763,0.3693243,9.311277
34.80519744,31.26502421,0.0,0.030177413,12-30-17,-0.94523597,1.1305904,0.69659615,93.0,-1.4497944,-16.602194,-0.02696228,-0.1312561,-0.086517334,-3.0551763,0.3693243,9.311277
34.80519744,31.26502421,0.0,0.030177413,12-30-17,-0.94523597,1.1305904,0.69659615,93.0,-1.4497944,-16.602194,-0.02696228,-0.1312561,-0.086517334,-3.0551763,0.3693243,9.311277
34.80519744,31.26502421,0.0,0.030177413,12-30-17,-0.94523597,1.1305904,0.69659615,94.0,-1.3801479,-16.259647,-0.02696228,-0.1312561,-0.086517334,-3.0551763,0.3693243,9.311277
34.80519744,31.26502421,0.0,0.030177413,12-30-17,-0.94523597,1.1305904,0.69659615,94.0,-1.3801479,-16.259647,-0.02696228,-0.1312561,-0.086517334,-3.0551763,0.3693243,9.311277
34.80519744,31.26502421,0.0,0.030177413,12-30-17,-0.94523597,1.1305904,0.69659615,94.0,-1.3801479,-16.259647,-0.02696228,-0.1312561,-0.086517334,-3.0551763,0.3693243,9.311277
34.80519744,31.26502421,0.0,0.030177413,12-30-17,-0.94523597,1.1305904,0.69659615,94.0,-0.9296101,-16.107893,-0.02696228,-0.1312561,-0.086517334,-3.0551763,0.3693243,9.311277
34.80519744,31.26502421,0.0,0.030177413,12-30-17,-0.94523597,1.1305904,0.69659615,94.0,-0.9296101,-16.107893,-0.02696228,-0.1312561,-0.086517334,-3.0551763,0.3693243,9.311277
34.80519744,31.26502421,0.0,0.030177413,12-30-17,-0.94523597,1.1305904,0.69659615,94.0,-0.9296101,-16.107893,-0.02696228,-0.1312561,-0.086517334,-3.0551763,0.3693243,9.311277
34.80519744,31.26502421,0.0,0.030177413,12-30-17,-0.94523597,1.1305904,0.69659615,95.0,-1.0260508,-15.557086,-0.02696228,-0.1312561,-0.086517334,-3.0551763,0.3693243,9.311277
34.80519744,31.26502421,0.0,0.030177413,12-30-17,-0.94523597,1.1305904,0.69659615,95.0,-1.0260508,-15.557086,-0.02696228,-0.1312561,-0.086517334,-3.0551763,0.3693243,9.311277
34.80519744,31.26502421,0.0,0.030177413,12-30-17,-0.94523597,1.1305904,0.69659615,95.0,-1.0260508,-15.557086,-0.02696228,-0.1312561,-0.086517334,-3.0551763,0.3693243,9.311277
34.80519744,31.26502421,0.0,0.030177413,12-30-17,-0.94523597,1.1305904,0.69659615,95.0,-1.0260508,-15.557086,-0.02696228,-0.1312561,-0.086517334,-3.0551763,0.3693243,9.311277
34.80519744,31.26502421,0.0,0.030177413,12-30-17,-0.94523597,1.1305904,0.69659615,96.0,-1.1093944,-15.391053,-0.020187378,-0.1867218,-0.31596375,-3.0551763,0.3693243,9.311277
34.80519744,31.26502421,0.0,0.030177413,12-30-17,-0.94523597,1.1305904,0.69659615,96.0,-1.1093944,-15.391053,-0.020187378,-0.1867218,-0.31596375,-3.0551763,0.3693243,9.311277
34.80519744,31.26502421,0.0,0.030177413,12-30-17,-0.94523597,1.1305904,0.69659615,96.0,-1.1093944,-15.391053,-0.020187378,-0.1867218,-0.31596375,-3.0551763,0.3693243,9.311277
34.80519744,31.26502421,0.0,0.030177413,12-30-17,-0.94523597,1.1305904,0.69659615,98.0,-1.0808576,-15.1431055,-0.020187378,-0.1867218,-0.31596375,-3.0551763,0.3693243,9.311277
34.80519744,31.26502421,0.0,0.030177413,12-30-17,-0.94523597,1.1305904,0.69659615,98.0,-1.0808576,-15.1431055,-0.020187378,-0.1867218,-0.31596375,-3.0551763,0.3693243,9.311277
34.80519744,31.26502421,0.0,0.030177413,12-30-17,-0.94523597,1.1305904,0.69659615,98.0,-1.3029823,-14.819638,-0.020187378,-0.1867218,-0.31596375,-3.0551763,0.3693243,9.311277
34.80519744,31.26502421,0.0,0.030177413,12-30-17,0.9751351,-0.5451149,-0.6709776,99.0,-1.583365,-14.580723,-0.020187378,-0.1867218,-0.31596375,-2.6215968,0.25498286,9.4463005
34.80519744,31.26502421,0.0,0.030177413,12-30-17,0.9751351,-0.5451149,-0.6709776,99.0,-1.583365,-14.580723,-0.020187378,-0.1867218,-0.31596375,-2.6215968,0.25498286,9.4463005
34.80519721,31.26502478,0.0,0.09487582,12-30-17,0.9751351,-0.5451149,-0.6709776,100.0,-1.8031533,-14.558745,-0.020187378,-0.1867218,-0.31596375,-2.6215968,0.25498286,9.4463005
34.80519721,31.26502478,0.0,0.09487582,12-30-17,0.9751351,-0.5451149,-0.6709776,100.0,-1.8031533,-14.558745,-0.020187378,-0.1867218,-0.31596375,-2.6215968,0.25498286,9.4463005
34.80519721,31.26502478,0.0,0.09487582,12-30-17,0.9751351,-0.5451149,-0.6709776,100.0,-1.8031533,-14.558745,-0.020187378,-0.1867218,-0.31596375,-2.6215968,0.25498286,9.4463005
34.80519721,31.26502478,0.0,0.09487582,12-30-17,0.9751351,-0.5451149,-0.6709776,100.0,-1.8031533,-14.558745,-0.020187378,-0.1867218,-0.31596375,-2.6215968,0.25498286,9.4463005
34.80519721,31.26502478,0.0,0.09487582,12-30-17,0.9751351,-0.5451149,-0.6709776,100.0,-2.0400903,-14.580446,-0.020187378,-0.1867218,-0.31596375,-2.6215968,0.25498286,9.4463005
34.80519721,31.26502478,0.0,0.09487582,12-30-17,0.9751351,-0.5451149,-0.6709776,101.0,-2.3629117,-14.54937,-0.020187378,-0.1867218,-0.31596375,-2.6215968,0.25498286,9.4463005
34.80519721,31.26502478,0.0,0.09487582,12-30-17,0.9751351,-0.5451149,-0.6709776,101.0,-2.3629117,-14.54937,-0.020187378,-0.1867218,-0.31596375,-2.6215968,0.25498286,9.4463005
34.80519721,31.26502478,0.0,0.09487582,12-30-17,0.9751351,-0.5451149,-0.6709776,101.0,-2.7104654,-14.595415,-0.020187378,-0.1867218,-0.31596375,-2.6215968,0.25498286,9.4463005
34.80519721,31.26502478,0.0,0.09487582,12-30-17,0.9751351,-0.5451149,-0.6709776,102.0,-3.050097,-14.834248,-0.020187378,-0.1867218,-0.31596375,-2.6215968,0.25498286,9.4463005
34.80519721,31.26502478,0.0,0.09487582,12-30-17,0.9751351,-0.5451149,-0.6709776,102.0,-3.050097,-14.834248,-0.020187378,-0.1867218,-0.31596375,-2.6215968,0.25498286,9.4463005
34.80519721,31.26502478,0.0,0.09487582,12-30-17,0.9751351,-0.5451149,-0.6709776,103.0,-3.4301965,-14.983087,-0.020187378,-0.1867218,-0.31596375,-2.6215968,0.25498286,9.4463005
34.80519721,31.26502478,0.0,0.09487582,12-30-17,0.9751351,-0.5451149,-0.6709776,103.0,-3.4301965,-14.983087,-0.020187378,-0.1867218,-0.31596375,-2.6215968,0.25498286,9.4463005
34.80519721,31.26502478,0.0,0.09487582,12-30-17,0.9751351,-0.5451149,-0.6709776,104.0,-3.8309996,-14.932414,0.38038635,-0.039611816,-0.52441406,-2.6215968,0.25498286,9.4463005
34.80519721,31.26502478,0.0,0.09487582,12-30-17,0.9751351,-0.5451149,-0.6709776,104.0,-3.8309996,-14.932414,0.38038635,-0.039611816,-0.52441406,-2.6215968,0.25498286,9.4463005
34.80519721,31.26502478,0.0,0.09487582,12-30-17,0.9751351,-0.5451149,-0.6709776,104.0,-3.8309996,-14.932414,0.38038635,-0.039611816,-0.52441406,-2.6215968,0.25498286,9.4463005
34.80519721,31.26502478,0.0,0.09487582,12-30-17,0.9751351,-0.5451149,-0.6709776,104.0,-4.098565,-15.026168,0.38038635,-0.039611816,-0.52441406,-2.6215968,0.25498286,9.4463005
34.80519721,31.26502478,0.0,0.09487582,12-30-17,0.9751351,-0.5451149,-0.6709776,104.0,-4.098565,-15.026168,0.38038635,-0.039611816,-0.52441406,-2.6215968,0.25498286,9.4463005
34.80519721,31.26502478,0.0,0.09487582,12-30-17,0.9751351,-0.5451149,-0.6709776,104.0,-4.3206496,-15.204691,0.38038635,-0.039611816,-0.52441406,-2.6215968,0.25498286,9.4463005
34.80519721,31.26502478,0.0,0.09487582,12-30-17,0.2462902,0.49915612,-1.0415144,104.0,-4.4700594,-15.218612,0.38038635,-0.039611816,-0.52441406,-2.5196545,0.5219031,9.463052
34.80519721,31.26502478,0.0,0.09487582,12-30-17,0.2462902,0.49915612,-1.0415144,104.0,-4.4700594,-15.218612,0.38038635,-0.039611816,-0.52441406,-2.5196545,0.5219031,9.463052
34.80519721,31.26502478,0.0,0.09487582,12-30-17,0.2462902,0.49915612,-1.0415144,104.0,-4.5304794,-15.172565,0.38038635,-0.039611816,-0.52441406,-2.5196545,0.5219031,9.463052
34.80519721,31.26502478,0.0,0.09487582,12-30-17,0.2462902,0.49915612,-1.0415144,104.0,-4.5304794,-15.172565,0.38038635,-0.039611816,-0.52441406,-2.5196545,0.5219031,9.463052
34.80519721,31.26502478,0.0,0.09487582,12-30-17,0.2462902,0.49915612,-1.0415144,104.0,-4.5304794,-15.172565,0.38038635,-0.039611816,-0.52441406,-2.5196545,0.5219031,9.463052
34.80519721,31.26502478,0.0,0.09487582,12-30-17,0.2462902,0.49915612,-1.0415144,105.0,-4.5949903,-15.090102,0.38038635,-0.039611816,-0.52441406,-2.5196545,0.5219031,9.463052
34.80519721,31.26502478,0.0,0.09487582,12-30-17,0.2462902,0.49915612,-1.0415144,105.0,-4.5949903,-15.090102,0.38038635,-0.039611816,-0.52441406,-2.5196545,0.5219031,9.463052
34.80519721,31.26502478,0.0,0.09487582,12-30-17,0.2462902,0.49915612,-1.0415144,105.0,-4.6060033,-15.157369,0.38038635,-0.039611816,-0.52441406,-2.5196545,0.5219031,9.463052
34.80519721,31.26502478,0.0,0.09487582,12-30-17,0.2462902,0.49915612,-1.0415144,105.0,-4.6060033,-15.157369,0.38038635,-0.039611816,-0.52441406,-2.5196545,0.5219031,9.463052
34.80519721,31.26502478,0.0,0.09487582,12-30-17,0.2462902,0.49915612,-1.0415144,105.0,-4.5635886,-15.286862,0.38038635,-0.039611816,-0.52441406,-2.5196545,0.5219031,9.463052
34.80519721,31.26502478,0.0,0.09487582,12-30-17,0.2462902,0.49915612,-1.0415144,105.0,-4.5282955,-15.19034,0.38038635,-0.039611816,-0.52441406,-2.5196545,0.5219031,9.463052
34.80519721,31.26502478,0.0,0.09487582,12-30-17,0.2462902,0.49915612,-1.0415144,105.0,-4.5282955,-15.19034,0.38038635,-0.039611816,-0.52441406,-2.5196545,0.5219031,9.463052
34.80519721,31.26502478,0.0,0.09487582,12-30-17,0.2462902,0.49915612,-1.0415144,105.0,-4.4791503,-15.098154,0.38038635,-0.039611816,-0.52441406,-2.5196545,0.5219031,9.463052
34.80519721,31.26502478,0.0,0.09487582,12-30-17,0.2462902,0.49915612,-1.0415144,105.0,-4.4791503,-15.098154,0.38038635,-0.039611816,-0.52441406,-2.5196545,0.5219031,9.463052
34.80519721,31.26502478,0.0,0.09487582,12-30-18,0.2462902,0.49915612,-1.0415144,105.0,-4.4448705,-15.071447,0.07284546,0.0116119385,-0.14237976,-2.5196545,0.5219031,9.463052
34.80519721,31.26502478,0.0,0.09487582,12-30-18,0.2462902,0.49915612,-1.0415144,105.0,-4.4448705,-15.071447,0.07284546,0.0116119385,-0.14237976,-2.5196545,0.5219031,9.463052
34.80519721,31.26502478,0.0,0.09487582,12-30-18,0.2462902,0.49915612,-1.0415144,105.0,-4.4448705,-15.071447,0.07284546,0.0116119385,-0.14237976,-2.5196545,0.5219031,9.463052
34.80519721,31.26502478,0.0,0.09487582,12-30-18,0.2462902,0.49915612,-1.0415144,105.0,-4.4193997,-14.961436,0.07284546,0.0116119385,-0.14237976,-2.5196545,0.5219031,9.463052
34.80519721,31.26502478,0.0,0.09487582,12-30-18,0.2462902,0.49915612,-1.0415144,105.0,-4.4193997,-14.961436,0.07284546,0.0116119385,-0.14237976,-2.5196545,0.5219031,9.463052
34.80519721,31.26502478,0.0,0.09487582,12-30-18,0.2462902,0.49915612,-1.0415144,105.0,-4.3789425,-14.854225,0.07284546,0.0116119385,-0.14237976,-2.5196545,0.5219031,9.463052
34.80519721,31.26502478,0.0,0.09487582,12-30-18,0.66354346,0.27935356,0.034116745,105.0,-4.313128,-14.770292,0.07284546,0.0116119385,-0.14237976,-2.5203862,0.73099744,9.449004
34.80519721,31.26502478,0.0,0.09487582,12-30-18,0.66354346,0.27935356,0.034116745,105.0,-4.313128,-14.770292,0.07284546,0.0116119385,-0.14237976,-2.5203862,0.73099744,9.449004
34.80519721,31.26502478,0.0,0.09487582,12-30-18,0.66354346,0.27935356,0.034116745,105.0,-4.1975603,-14.731012,0.07284546,0.0116119385,-0.14237976,-2.5203862,0.73099744,9.449004
34.80519721,31.26502478,0.0,0.09487582,12-30-18,0.66354346,0.27935356,0.034116745,105.0,-4.1975603,-14.731012,0.07284546,0.0116119385,-0.14237976,-2.5203862,0.73099744,9.449004
34.80519721,31.26502478,0.0,0.09487582,12-30-18,0.66354346,0.27935356,0.034116745,105.0,-4.0751677,-14.7000265,0.07284546,0.0116119385,-0.14237976,-2.5203862,0.73099744,9.449004
34.80519721,31.26502478,0.0,0.09487582,12-30-18,0.66354346,0.27935356,0.034116745,105.0,-4.0751677,-14.7000265,0.07284546,0.0116119385,-0.14237976,-2.5203862,0.73099744,9.449004
34.80519721,31.26502478,0.0,0.09487582,12-30-18,0.66354346,0.27935356,0.034116745,105.0,-4.0751677,-14.7000265,0.07284546,0.0116119385,-0.14237976,-2.5203862,0.73099744,9.449004
34.80519721,31.26502478,0.0,0.09487582,12-30-18,0.66354346,0.27935356,0.034116745,105.0,-3.9898167,-14.943097,0.07284546,0.0116119385,-0.14237976,-2.5203862,0.73099744,9.449004
34.80519721,31.26502478,0.0,0.09487582,12-30-18,0.66354346,0.27935356,0.034116745,105.0,-3.9898167,-14.943097,0.07284546,0.0116119385,-0.14237976,-2.5203862,0.73099744,9.449004
34.80519721,31.26502478,0.0,0.09487582,12-30-18,0.66354346,0.27935356,0.034116745,105.0,-3.9898167,-14.943097,0.07284546,0.0116119385,-0.14237976,-2.5203862,0.73099744,9.449004
34.80519721,31.26502478,0.0,0.09487582,12-30-18,0.66354346,0.27935356,0.034116745,105.0,-3.9562945,-15.034217,0.07284546,0.0116119385,-0.14237976,-2.5203862,0.73099744,9.449004
34.80519721,31.26502478,0.0,0.09487582,12-30-18,0.66354346,0.27935356,0.034116745,105.0,-3.9562945,-15.034217,0.07284546,0.0116119385,-0.14237976,-2.5203862,0.73099744,9.449004
34.80519721,31.26502478,0.0,0.09487582,12-30-18,0.66354346,0.27935356,0.034116745,105.0,-3.9440765,-15.084918,0.07284546,0.0116119385,-0.14237976,-2.5203862,0.73099744,9.449004
34.80519721,31.26502478,0.0,0.09487582,12-30-18,0.66354346,0.27935356,0.034116745,105.0,-3.9440765,-15.084918,0.07284546,0.0116119385,-0.14237976,-2.5203862,0.73099744,9.449004
34.80519721,31.26502478,0.0,0.09487582,12-30-18,0.66354346,0.27935356,0.034116745,105.0,-3.981631,-15.094224,-0.0448761,0.016601563,0.07028198,-2.5203862,0.73099744,9.449004
34.80519721,31.26502478,0.0,0.09487582,12-30-18,0.66354346,0.27935356,0.034116745,105.0,-3.981631,-15.094224,-0.0448761,0.016601563,0.07028198,-2.5203862,0.73099744,9.449004
34.80519721,31.26502478,0.0,0.09487582,12-30-18,0.66354346,0.27935356,0.034116745,105.0,-3.981631,-15.094224,-0.0448761,0.016601563,0.07028198,-2.5203862,0.73099744,9.449004
34.80519721,31.26502478,0.0,0.09487582,12-30-18,0.66354346,0.27935356,0.034116745,105.0,-4.2107534,-15.00716,-0.0448761,0.016601563,0.07028198,-2.5203862,0.73099744,9.449004
34.80519721,31.26502478,0.0,0.09487582,12-30-18,0.66354346,0.27935356,0.034116745,105.0,-4.2107534,-15.00716,-0.0448761,0.016601563,0.07028198,-2.5203862,0.73099744,9.449004
34.80519721,31.26502478,0.0,0.09487582,12-30-18,0.66354346,0.27935356,0.034116745,105.0,-4.2107534,-15.00716,-0.0448761,0.016601563,0.07028198,-2.5203862,0.73099744,9.449004
34.80519721,31.26502478,0.0,0.09487582,12-30-18,0.21260452,-0.6488707,-0.17457867,105.0,-4.3657002,-14.933451,-0.0448761,0.016601563,0.07028198,-2.5074935,0.70406663,9.454478
34.80519721,31.26502478,0.0,0.09487582,12-30-18,0.21260452,-0.6488707,-0.17457867,105.0,-4.3657002,-14.933451,-0.0448761,0.016601563,0.07028198,-2.5074935,0.70406663,9.454478
34.80519721,31.26502478,0.0,0.09487582,12-30-18,0.21260452,-0.6488707,-0.17457867,105.0,-4.4978824,-14.818677,-0.0448761,0.016601563,0.07028198,-2.5074935,0.70406663,9.454478
34.80519721,31.26502478,0.0,0.09487582,12-30-18,0.21260452,-0.6488707,-0.17457867,105.0,-4.4978824,-14.818677,-0.0448761,0.016601563,0.07028198,-2.5074935,0.70406663,9.454478
34.80519721,31.26502478,0.0,0.09487582,12-30-18,0.21260452,-0.6488707,-0.17457867,105.0,-4.648211,-14.717469,-0.0448761,0.016601563,0.07028198,-2.5074935,0.70406663,9.454478
34.80519721,31.26502478,0.0,0.09487582,12-30-18,0.21260452,-0.6488707,-0.17457867,105.0,-4.648211,-14.717469,-0.0448761,0.016601563,0.07028198,-2.5074935,0.70406663,9.454478
34.80519721,31.26502478,0.0,0.09487582,12-30-18,0.21260452,-0.6488707,-0.17457867,105.0,-4.648211,-14.717469,-0.0448761,0.016601563,0.07028198,-2.5074935,0.70406663,9.454478
34.80519721,31.26502478,0.0,0.09487582,12-30-18,0.21260452,-0.6488707,-0.17457867,105.0,-5.0243216,-14.648272,-0.0448761,0.016601563,0.07028198,-2.5074935,0.70406663,9.454478
34.80519721,31.26502478,0.0,0.09487582,12-30-18,0.21260452,-0.6488707,-0.17457867,105.0,-5.0243216,-14.648272,-0.0448761,0.016601563,0.07028198,-2.5074935,0.70406663,9.454478
34.80519721,31.26502478,0.0,0.09487582,12-30-18,0.21260452,-0.6488707,-0.17457867,105.0,-5.0243216,-14.648272,-0.0448761,0.016601563,0.07028198,-2.5074935,0.70406663,9.454478
34.80519721,31.26502478,0.0,0.09487582,12-30-18,0.21260452,-0.6488707,-0.17457867,105.0,-5.1700134,-14.648278,-0.0448761,0.016601563,0.07028198,-2.5074935,0.70406663,9.454478
34.80519721,31.26502478,0.0,0.09487582,12-30-18,0.21260452,-0.6488707,-0.17457867,105.0,-5.1700134,-14.648278,-0.0448761,0.016601563,0.07028198,-2.5074935,0.70406663,9.454478
34.80519721,31.26502478,0.0,0.09487582,12-30-18,0.21260452,-0.6488707,-0.17457867,105.0,-5.2912965,-14.6240425,-0.0448761,0.016601563,0.07028198,-2.5074935,0.70406663,9.454478
34.80519721,31.26502478,0.0,0.09487582,12-30-18,0.21260452,-0.6488707,-0.17457867,105.0,-5.2912965,-14.6240425,-0.0448761,0.016601563,0.07028198,-2.5074935,0.70406663,9.454478
34.80519721,31.26502478,0.0,0.09487582,12-30-18,0.21260452,-0.6488707,-0.17457867,105.0,-5.425329,-14.575118,0.1388092,-0.0362854,0.012207031,-2.5074935,0.70406663,9.454478
34.80519721,31.26502478,0.0,0.09487582,12-30-18,0.21260452,-0.6488707,-0.17457867,105.0,-5.425329,-14.575118,0.1388092,-0.0362854,0.012207031,-2.5074935,0.70406663,9.454478
34.80519721,31.26502478,0.0,0.09487582,12-30-18,0.21260452,-0.6488707,-0.17457867,105.0,-5.425329,-14.575118,0.1388092,-0.0362854,0.012207031,-2.5074935,0.70406663,9.454478
34.80519721,31.26502478,0.0,0.09487582,12-30-18,0.21260452,-0.6488707,-0.17457867,104.0,-5.7372494,-14.3152895,0.1388092,-0.0362854,0.012207031,-2.5074935,0.70406663,9.454478
34.80519721,31.26502478,0.0,0.09487582,12-30-18,0.21260452,-0.6488707,-0.17457867,104.0,-5.7372494,-14.3152895,0.1388092,-0.0362854,0.012207031,-2.5074935,0.70406663,9.454478
34.80519721,31.26502478,0.0,0.09487582,12-30-18,0.6482439,-0.22663826,-0.3287716,104.0,-5.7372494,-14.3152895,0.1388092,-0.0362854,0.012207031,-2.454174,0.84410924,9.457003
34.80519721,31.26502478,0.0,0.09487582,12-30-18,0.6482439,-0.22663826,-0.3287716,104.0,-5.8335767,-14.222191,0.1388092,-0.0362854,0.012207031,-2.454174,0.84410924,9.457003
34.80519721,31.26502478,0.0,0.09487582,12-30-18,0.6482439,-0.22663826,-0.3287716,104.0,-5.872176,-14.12284,0.1388092,-0.0362854,0.012207031,-2.454174,0.84410924,9.457003
34.80519721,31.26502478,0.0,0.09487582,12-30-18,0.6482439,-0.22663826,-0.3287716,104.0,-5.872176,-14.12284,0.1388092,-0.0362854,0.012207031,-2.454174,0.84410924,9.457003
34.80519721,31.26502478,0.0,0.09487582,12-30-18,0.6482439,-0.22663826,-0.3287716,104.0,-5.872176,-14.12284,0.1388092,-0.0362854,0.012207031,-2.454174,0.84410924,9.457003
34.80519721,31.26502478,0.0,0.09487582,12-30-18,0.6482439,-0.22663826,-0.3287716,104.0,-5.9154525,-14.017058,0.1388092,-0.0362854,0.012207031,-2.454174,0.84410924,9.457003
34.80519721,31.26502478,0.0,0.09487582,12-30-18,0.6482439,-0.22663826,-0.3287716,104.0,-5.9154525,-14.017058,0.1388092,-0.0362854,0.012207031,-2.454174,0.84410924,9.457003
34.80519721,31.26502478,0.0,0.09487582,12-30-18,0.6482439,-0.22663826,-0.3287716,104.0,-5.9154525,-14.017058,0.1388092,-0.0362854,0.012207031,-2.454174,0.84410924,9.457003
34.80519721,31.26502478,0.0,0.09487582,12-30-18,0.6482439,-0.22663826,-0.3287716,104.0,-6.0262403,-13.81275,0.1388092,-0.0362854,0.012207031,-2.454174,0.84410924,9.457003
34.80519721,31.26502478,0.0,0.09487582,12-30-18,0.6482439,-0.22663826,-0.3287716,104.0,-6.0262403,-13.81275,0.1388092,-0.0362854,0.012207031,-2.454174,0.84410924,9.457003
34.80519721,31.26502478,0.0,0.09487582,12-30-18,0.6482439,-0.22663826,-0.3287716,103.0,-6.0203395,-13.659546,0.1388092,-0.0362854,0.012207031,-2.454174,0.84410924,9.457003
34.80519721,31.26502478,0.0,0.09487582,12-30-18,0.6482439,-0.22663826,-0.3287716,103.0,-6.0203395,-13.659546,0.1388092,-0.0362854,0.012207031,-2.454174,0.84410924,9.457003
34.80519721,31.26502478,0.0,0.09487582,12-30-18,0.6482439,-0.22663826,-0.3287716,103.0,-6.004713,-13.541052,0.1388092,-0.0362854,0.012207031,-2.454174,0.84410924,9.457003
34.80519721,31.26502478,0.0,0.09487582,12-30-18,0.6482439,-0.22663826,-0.3287716,103.0,-6.004713,-13.541052,0.1388092,-0.0362854,0.012207031,-2.454174,0.84410924,9.457003
34.80519721,31.26502478,0.0,0.09487582,12-30-18,0.6482439,-0.22663826,-0.3287716,103.0,-6.0007563,-13.438028,0.1388092,-0.0362854,0.012207031,-2.454174,0.84410924,9.457003
34.80519721,31.26502478,0.0,0.09487582,12-30-18,0.6482439,-0.22663826,-0.3287716,103.0,-6.0007563,-13.438028,0.015899658,-0.07885742,0.10020447,-2.454174,0.84410924,9.457003
34.80519721,31.26502478,0.0,0.09487582,12-30-18,0.6482439,-0.22663826,-0.3287716,103.0,-6.0007563,-13.438028,0.015899658,-0.07885742,0.10020447,-2.454174,0.84410924,9.457003
34.80519721,31.26502478,0.0,0.09487582,12-30-18,0.6482439,-0.22663826,-0.3287716,103.0,-5.979305,-13.328028,0.015899658,-0.07885742,0.10020447,-2.454174,0.84410924,9.457003
34.80519721,31.26502478,0.0,0.09487582,12-30-18,0.6482439,-0.22663826,-0.3287716,103.0,-5.900506,-13.18725,0.015899658,-0.07885742,0.10020447,-2.454174,0.84410924,9.457003
34.80519721,31.26502478,0.0,0.09487582,12-30-18,0.6482439,-0.22663826,-0.3287716,103.0,-5.900506,-13.18725,0.015899658,-0.07885742,0.10020447,-2.454174,0.84410924,9.457003
34.80519721,31.26502478,0.0,0.09487582,12-30-18,0.27267003,-0.031452715,0.44774723,103.0,-5.756273,-13.028034,0.015899658,-0.07885742,0.10020447,-2.2991886,0.9611641,9.484739
34.80519721,31.26502478,0.0,0.09487582,12-30-18,0.27267003,-0.031452715,0.44774723,103.0,-5.5898657,-12.902686,0.015899658,-0.07885742,0.10020447,-2.2991886,0.9611641,9.484739
34.80519721,31.26502478,0.0,0.09487582,12-30-18,0.27267003,-0.031452715,0.44774723,103.0,-5.5898657,-12.902686,0.015899658,-0.07885742,0.10020447,-2.2991886,0.9611641,9.484739
34.80519721,31.26502478,0.0,0.09487582,12-30-18,0.27267003,-0.031452715,0.44774723,102.0,-5.4719677,-12.787709,0.015899658,-0.07885742,0.10020447,-2.2991886,0.9611641,9.484739
34.80519721,31.26502478,0.0,0.09487582,12-30-18,0.27267003,-0.031452715,0.44774723,102.0,-5.4719677,-12.787709,0.015899658,-0.07885742,0.10020447,-2.2991886,0.9611641,9.484739
34.80519721,31.26502478,0.0,0.09487582,12-30-18,0.27267003,-0.031452715,0.44774723,102.0,-5.4719677,-12.787709,0.015899658,-0.07885742,0.10020447,-2.2991886,0.9611641,9.484739
34.80519721,31.26502478,0.0,0.09487582,12-30-18,0.27267003,-0.031452715,0.44774723,102.0,-5.4719677,-12.787709,0.015899658,-0.07885742,0.10020447,-2.2991886,0.9611641,9.484739
34.80519947,31.26502377,0.59464276,0.19804396,12-30-18,0.27267003,-0.031452715,0.44774723,102.0,-5.4218926,-12.626066,0.015899658,-0.07885742,0.10020447,-2.2991886,0.9611641,9.484739
34.80519947,31.26502377,0.59464276,0.19804396,12-30-18,0.27267003,-0.031452715,0.44774723,102.0,-5.393078,-12.417452,0.015899658,-0.07885742,0.10020447,-2.2991886,0.9611641,9.484739
34.80519947,31.26502377,0.59464276,0.19804396,12-30-18,0.27267003,-0.031452715,0.44774723,102.0,-5.393078,-12.417452,0.015899658,-0.07885742,0.10020447,-2.2991886,0.9611641,9.484739
34.80519947,31.26502377,0.59464276,0.19804396,12-30-18,0.27267003,-0.031452715,0.44774723,102.0,-5.340734,-12.219528,0.015899658,-0.07885742,0.10020447,-2.2991886,0.9611641,9.484739
34.80519947,31.26502377,0.59464276,0.19804396,12-30-18,0.27267003,-0.031452715,0.44774723,102.0,-5.3144813,-12.007886,0.015899658,-0.07885742,0.10020447,-2.2991886,0.9611641,9.484739
34.80519947,31.26502377,0.59464276,0.19804396,12-30-18,0.27267003,-0.031452715,0.44774723,102.0,-5.3144813,-12.007886,0.015899658,-0.07885742,0.10020447,-2.2991886,0.9611641,9.484739
34.80519947,31.26502377,0.59464276,0.19804396,12-30-18,0.27267003,-0.031452715,0.44774723,102.0,-5.3776455,-11.8047695,0.015899658,-0.07885742,0.10020447,-2.2991886,0.9611641,9.484739
34.80519947,31.26502377,0.59464276,0.19804396,12-30-18,0.27267003,-0.031452715,0.44774723,102.0,-5.3776455,-11.8047695,0.015899658,-0.07885742,0.10020447,-2.2991886,0.9611641,9.484739
34.80519947,31.26502377,0.59464276,0.19804396,12-30-18,0.27267003,-0.031452715,0.44774723,102.0,-5.3776455,-11.8047695,-0.054367065,-0.14712524,0.109069824,-2.2991886,0.9611641,9.484739
34.80519947,31.26502377,0.59464276,0.19804396,12-30-18,0.27267003,-0.031452715,0.44774723,102.0,-5.3776455,-11.8047695,-0.054367065,-0.14712524,0.109069824,-2.2991886,0.9611641,9.484739
34.80519947,31.26502377,0.59464276,0.19804396,12-30-18,0.27267003,-0.031452715,0.44774723,102.0,-5.3776455,-11.8047695,-0.054367065,-0.14712524,0.109069824,-2.2991886,0.9611641,9.484739
34.80519947,31.26502377,0.59464276,0.19804396,12-30-18,0.27267003,-0.031452715,0.44774723,102.0,-5.6196303,-11.309115,-0.054367065,-0.14712524,0.109069824,-2.2991886,0.9611641,9.484739
34.80519947,31.26502377,0.59464276,0.19804396,12-30-18,-0.026481152,-0.19199485,0.3143835,102.0,-5.6196303,-11.309115,-0.054367065,-0.14712524,0.109069824,-2.0412915,0.9525316,9.544433
34.80519947,31.26502377,0.59464276,0.19804396,12-30-18,-0.026481152,-0.19199485,0.3143835,102.0,-5.7034726,-11.064866,-0.054367065,-0.14712524,0.109069824,-2.0412915,0.9525316,9.544433
34.80519947,31.26502377,0.59464276,0.19804396,12-30-18,-0.026481152,-0.19199485,0.3143835,102.0,-5.8001604,-10.967792,-0.054367065,-0.14712524,0.109069824,-2.0412915,0.9525316,9.544433
34.80519947,31.26502377,0.59464276,0.19804396,12-30-18,-0.026481152,-0.19199485,0.3143835,102.0,-5.8001604,-10.967792,-0.054367065,-0.14712524,0.109069824,-2.0412915,0.9525316,9.544433
34.80519947,31.26502377,0.59464276,0.19804396,12-30-18,-0.026481152,-0.19199485,0.3143835,102.0,-5.9466352,-10.948624,-0.054367065,-0.14712524,0.109069824,-2.0412915,0.9525316,9.544433
34.80519947,31.26502377,0.59464276,0.19804396,12-30-18,-0.026481152,-0.19199485,0.3143835,102.0,-5.9466352,-10.948624,-0.054367065,-0.14712524,0.109069824,-2.0412915,0.9525316,9.544433
34.80519947,31.26502377,0.59464276,0.19804396,12-30-18,-0.026481152,-0.19199485,0.3143835,102.0,-6.141234,-10.948242,-0.054367065,-0.14712524,0.109069824,-2.0412915,0.9525316,9.544433
34.80519947,31.26502377,0.59464276,0.19804396,12-30-18,-0.026481152,-0.19199485,0.3143835,102.0,-6.141234,-10.948242,-0.054367065,-0.14712524,0.109069824,-2.0412915,0.9525316,9.544433
34.80519947,31.26502377,0.59464276,0.19804396,12-30-18,-0.026481152,-0.19199485,0.3143835,102.0,-6.141234,-10.948242,-0.054367065,-0.14712524,0.109069824,-2.0412915,0.9525316,9.544433
34.80519947,31.26502377,0.59464276,0.19804396,12-30-18,-0.026481152,-0.19199485,0.3143835,102.0,-6.334043,-10.961693,-0.054367065,-0.14712524,0.109069824,-2.0412915,0.9525316,9.544433
34.80519947,31.26502377,0.59464276,0.19804396,12-30-18,-0.026481152,-0.19199485,0.3143835,102.0,-6.334043,-10.961693,-0.054367065,-0.14712524,0.109069824,-2.0412915,0.9525316,9.544433
34.80519947,31.26502377,0.59464276,0.19804396,12-30-18,-0.026481152,-0.19199485,0.3143835,102.0,-6.492397,-11.002656,-0.054367065,-0.14712524,0.109069824,-2.0412915,0.9525316,9.544433
34.80519947,31.26502377,0.59464276,0.19804396,12-30-18,-0.026481152,-0.19199485,0.3143835,102.0,-6.6532907,-11.05135,-0.054367065,-0.14712524,0.109069824,-2.0412915,0.9525316,9.544433
34.80519947,31.26502377,0.59464276,0.19804396,12-30-18,-0.026481152,-0.19199485,0.3143835,102.0,-6.6532907,-11.05135,-0.054367065,-0.14712524,0.109069824,-2.0412915,0.9525316,9.544433
34.80519947,31.26502377,0.59464276,0.19804396,12-30-18,-0.026481152,-0.19199485,0.3143835,102.0,-6.8585043,-11.125976,-0.054367065,-0.14712524,0.109069824,-2.0412915,0.9525316,9.544433
34.80519947,31.26502377,0.59464276,0.19804396,12-30-19,-0.026481152,-0.19199485,0.3143835,102.0,-7.104362,-11.244433,0.13981628,-0.0026245117,0.034118652,-2.0412915,0.9525316,9.544433
34.80519947,31.26502377,0.59464276,0.19804396,12-30-19,-0.026481152,-0.19199485,0.3143835,102.0,-7.104362,-11.244433,0.13981628,-0.0026245117,0.034118652,-2.0412915,0.9525316,9.544433
34.80519947,31.26502377,0.59464276,0.19804396,12-30-19,-0.026481152,-0.19199485,0.3143835,102.0,-7.104362,-11.244433,0.13981628,-0.0026245117,0.034118652,-2.0412915,0.9525316,9.544433
34.80519947,31.26502377,0.59464276,0.19804396,12-30-19,-0.026481152,-0.19199485,0.3143835,102.0,-7.104362,-11.244433,0.13981628,-0.0026245117,0.034118652,-2.0412915,0.9525316,9.544433
34.80519947,31.26502377,0.59464276,0.19804396,12-30-19,-0.026481152,-0.19199485,0.3143835,102.0,-7.3394556,-11.327036,0.13981628,-0.0026245117,0.034118652,-2.0412915,0.9525316,9.544433
34.80519947,31.26502377,0.59464276,0.19804396,12-30-19,-0.026481152,-0.19199485,0.3143835,102.0,-7.3394556,-11.327036,0.13981628,-0.0026245117,0.034118652,-2.0412915,0.9525316,9.544433
34.80519947,31.26502377,0.59464276,0.19804396,12-30-19,0.3715484,-0.1142081,-0.20546341,102.0,-7.5149612,-11.364872,0.13981628,-0.0026245117,0.034118652,-1.8997302,1.1095768,9.556686
34.80519947,31.26502377,0.59464276,0.19804396,12-30-19,0.3715484,-0.1142081,-0.20546341,101.0,-7.645855,-11.3512125,0.13981628,-0.0026245117,0.034118652,-1.8997302,1.1095768,9.556686
34.80519947,31.26502377,0.59464276,0.19804396,12-30-19,0.3715484,-0.1142081,-0.20546341,101.0,-7.645855,-11.3512125,0.13981628,-0.0026245117,0.034118652,-1.8997302,1.1095768,9.556686
34.80519947,31.26502377,0.59464276,0.19804396,12-30-19,0.3715484,-0.1142081,-0.20546341,101.0,-7.7824287,-11.287487,0.13981628,-0.0026245117,0.034118652,-1.8997302,1.1095768,9.556686
34.80519947,31.26502377,0.59464276,0.19804396,12-30-19,0.3715484,-0.1142081,-0.20546341,101.0,-7.962094,-11.236176,0.13981628,-0.0026245117,0.034118652,-1.8997302,1.1095768,9.556686
34.80519947,31.26502377,0.59464276,0.19804396,12-30-19,0.3715484,-0.1142081,-0.20546341,101.0,-7.962094,-11.236176,0.13981628,-0.0026245117,0.034118652,-1.8997302,1.1095768,9.556686
34.80519947,31.26502377,0.59464276,0.19804396,12-30-19,0.3715484,-0.1142081,-0.20546341,101.0,-7.962094,-11.236176,0.13981628,-0.0026245117,0.034118652,-1.8997302,1.1095768,9.556686
34.80519947,31.26502377,0.59464276,0.19804396,12-30-19,0.3715484,-0.1142081,-0.20546341,101.0,-7.962094,-11.236176,0.13981628,-0.0026245117,0.034118652,-1.8997302,1.1095768,9.556686
34.80519947,31.26502377,0.59464276,0.19804396,12-30-19,0.3715484,-0.1142081,-0.20546341,101.0,-8.192538,-11.202167,0.13981628,-0.0026245117,0.034118652,-1.8997302,1.1095768,9.556686
34.80519947,31.26502377,0.59464276,0.19804396,12-30-19,0.3715484,-0.1142081,-0.20546341,101.0,-8.192538,-11.202167,0.13981628,-0.0026245117,0.034118652,-1.8997302,1.1095768,9.556686
34.80519947,31.26502377,0.59464276,0.19804396,12-30-19,0.3715484,-0.1142081,-0.20546341,101.0,-8.367596,-11.234746,0.13981628,-0.0026245117,0.034118652,-1.8997302,1.1095768,9.556686
34.80519947,31.26502377,0.59464276,0.19804396,12-30-19,0.3715484,-0.1142081,-0.20546341,101.0,-8.394754,-11.322595,0.13981628,-0.0026245117,0.034118652,-1.8997302,1.1095768,9.556686
34.80519947,31.26502377,0.59464276,0.19804396,12-30-19,0.3715484,-0.1142081,-0.20546341,101.0,-8.394754,-11.322595,0.13981628,-0.0026245117,0.034118652,-1.8997302,1.1095768,9.556686
34.80519947,31.26502377,0.59464276,0.19804396,12-30-19,0.3715484,-0.1142081,-0.20546341,100.0,-8.339799,-11.380427,0.13981628,-0.0026245117,0.034118652,-1.8997302,1.1095768,9.556686
34.80519947,31.26502377,0.59464276,0.19804396,12-30-19,0.3715484,-0.1142081,-0.20546341,100.0,-8.325972,-11.400418,0.057876587,0.021453857,0.14529419,-1.8997302,1.1095768,9.556686
34.80519947,31.26502377,0.59464276,0.19804396,12-30-19,0.3715484,-0.1142081,-0.20546341,100.0,-8.325972,-11.400418,0.057876587,0.021453857,0.14529419,-1.8997302,1.1095768,9.556686
34.80519947,31.26502377,0.59464276,0.19804396,12-30-19,0.3715484,-0.1142081,-0.20546341,100.0,-8.325972,-11.400418,0.057876587,0.021453857,0.14529419,-1.8997302,1.1095768,9.556686
34.80519947,31.26502377,0.59464276,0.19804396,12-30-19,0.3715484,-0.1142081,-0.20546341,100.0,-8.325972,-11.400418,0.057876587,0.021453857,0.14529419,-1.8997302,1.1095768,9.556686
34.80519947,31.26502377,0.59464276,0.19804396,12-30-19,-0.19446611,0.5370176,-0.07670975,100.0,-8.329743,-11.3825445,0.057876587,0.021453857,0.14529419,-1.9354752,1.3353392,9.520567
34.80519947,31.26502377,0.59464276,0.19804396,12-30-19,-0.19446611,0.5370176,-0.07670975,100.0,-8.267093,-11.292268,0.057876587,0.021453857,0.14529419,-1.9354752,1.3353392,9.520567
34.80519947,31.26502377,0.59464276,0.19804396,12-30-19,-0.19446611,0.5370176,-0.07670975,100.0,-8.267093,-11.292268,0.057876587,0.021453857,0.14529419,-1.9354752,1.3353392,9.520567
34.80519947,31.26502377,0.59464276,0.19804396,12-30-19,-0.19446611,0.5370176,-0.07670975,100.0,-8.166369,-11.168232,0.057876587,0.021453857,0.14529419,-1.9354752,1.3353392,9.520567
34.80519947,31.26502377,0.59464276,0.19804396,12-30-19,-0.19446611,0.5370176,-0.07670975,100.0,-8.166369,-11.168232,0.057876587,0.021453857,0.14529419,-1.9354752,1.3353392,9.520567
34.80519947,31.26502377,0.59464276,0.19804396,12-30-19,-0.19446611,0.5370176,-0.07670975,100.0,-8.06516,-11.076472,0.057876587,0.021453857,0.14529419,-1.9354752,1.3353392,9.520567
34.80519947,31.26502377,0.59464276,0.19804396,12-30-19,-0.19446611,0.5370176,-0.07670975,99.0,-7.965807,-10.992113,0.057876587,0.021453857,0.14529419,-1.9354752,1.3353392,9.520567
34.80519947,31.26502377,0.59464276,0.19804396,12-30-19,-0.19446611,0.5370176,-0.07670975,99.0,-7.965807,-10.992113,0.057876587,0.021453857,0.14529419,-1.9354752,1.3353392,9.520567
34.80519947,31.26502377,0.59464276,0.19804396,12-30-19,-0.19446611,0.5370176,-0.07670975,99.0,-7.965807,-10.992113,0.057876587,0.021453857,0.14529419,-1.9354752,1.3353392,9.520567
34.80519947,31.26502377,0.59464276,0.19804396,12-30-19,-0.19446611,0.5370176,-0.07670975,99.0,-7.965807,-10.992113,0.057876587,0.021453857,0.14529419,-1.9354752,1.3353392,9.520567
34.80519947,31.26502377,0.59464276,0.19804396,12-30-19,-0.19446611,0.5370176,-0.07670975,99.0,-7.712082,-10.833746,0.057876587,0.021453857,0.14529419,-1.9354752,1.3353392,9.520567
34.80519947,31.26502377,0.59464276,0.19804396,12-30-19,-0.19446611,0.5370176,-0.07670975,99.0,-7.712082,-10.833746,0.057876587,0.021453857,0.14529419,-1.9354752,1.3353392,9.520567
34.80519947,31.26502377,0.59464276,0.19804396,12-30-19,-0.19446611,0.5370176,-0.07670975,99.0,-7.712082,-10.833746,0.057876587,0.021453857,0.14529419,-1.9354752,1.3353392,9.520567
34.80519947,31.26502377,0.59464276,0.19804396,12-30-19,-0.19446611,0.5370176,-0.07670975,100.0,-7.5355954,-10.700659,0.057876587,0.021453857,0.14529419,-1.9354752,1.3353392,9.520567
34.80519947,31.26502377,0.59464276,0.19804396,12-30-19,-0.19446611,0.5370176,-0.07670975,100.0,-7.5355954,-10.700659,0.057876587,0.021453857,0.14529419,-1.9354752,1.3353392,9.520567
34.80519947,31.26502377,0.59464276,0.19804396,12-30-19,-0.19446611,0.5370176,-0.07670975,100.0,-7.377909,-10.574495,0.057876587,0.021453857,0.14529419,-1.9354752,1.3353392,9.520567
34.80519947,31.26502377,0.59464276,0.19804396,12-30-19,-0.19446611,0.5370176,-0.07670975,100.0,-7.2868004,-10.5434065,0.057876587,-0.0741272,0.037628174,-1.9354752,1.3353392,9.520567
34.80519947,31.26502377,0.59464276,0.19804396,12-30-19,-0.19446611,0.5370176,-0.07670975,100.0,-7.2868004,-10.5434065,-0.10269165,-0.0741272,0.037628174,-1.9354752,1.3353392,9.520567
34.80519947,31.26502377,0.59464276,0.19804396,12-30-19,-0.19446611,0.5370176,-0.07670975,100.0,-7.2868004,-10.5434065,-0.10269165,-0.0741272,0.037628174,-1.9354752,1.3353392,9.520567
