Longitude,Latitude,Speed,Distance,Time,Acc X,Acc Y,Acc Z,Heading,Pitch,Roll,gyro_x,gyro_y,gyro_z,gravity_x,gravity_y,gravity_z
34.80520544,31.26501556,0.0,5.867224,12-27-45,-0.15027833,-0.076189995,0.012783051,99.0,-6.5774856,-23.095646,-0.028945923,0.04534912,0.07467651,-3.830122,0.9849733,8.973872
34.80520544,31.26501556,0.0,5.867224,12-27-45,-0.15027833,-0.076189995,0.012783051,99.0,-6.6532044,-23.115417,-0.028945923,0.04534912,0.07467651,-3.830122,0.9849733,8.973872
34.80520544,31.26501556,0.0,5.867224,12-27-45,-0.15027833,-0.076189995,0.012783051,99.0,-6.6532044,-23.115417,-0.028945923,0.04534912,0.07467651,-3.830122,0.9849733,8.973872
34.80520544,31.26501556,0.0,5.867224,12-27-45,-0.15027833,-0.076189995,0.012783051,99.0,-6.669624,-23.094105,-0.028945923,0.04534912,0.07467651,-3.830122,0.9849733,8.973872
34.80520544,31.26501556,0.0,5.867224,12-27-45,-0.15027833,-0.076189995,0.012783051,99.0,-6.669624,-23.094105,-0.028945923,0.04534912,0.07467651,-3.830122,0.9849733,8.973872
34.80520544,31.26501556,0.0,5.867224,12-27-45,-0.15027833,-0.076189995,0.012783051,99.0,-6.669624,-23.094105,-0.028945923,0.04534912,0.07467651,-3.830122,0.9849733,8.973872
34.80520544,31.26501556,0.0,5.867224,12-27-45,-0.15027833,-0.076189995,0.012783051,99.0,-6.682422,-23.05677,-0.028945923,0.04534912,0.07467651,-3.830122,0.9849733,8.973872
34.80520544,31.26501556,0.0,5.867224,12-27-45,-0.15027833,-0.076189995,0.012783051,99.0,-6.7032914,-22.943485,0.0,-0.007461548,0.036331177,-3.830122,0.9849733,8.973872
34.80520544,31.26501556,0.0,5.867224,12-27-45,-0.15027833,-0.076189995,0.012783051,99.0,-6.7032914,-22.943485,0.0,-0.007461548,0.036331177,-3.830122,0.9849733,8.973872
34.80520544,31.26501556,0.0,5.867224,12-27-45,0.008343697,-0.03703296,-0.033759117,99.0,-6.7032914,-22.943485,0.0,-0.007461548,0.036331177,-3.8505702,0.9859158,8.9650135
34.80520544,31.26501556,0.0,5.867224,12-27-45,0.008343697,-0.03703296,-0.033759117,99.0,-6.7032914,-22.943485,0.0,-0.007461548,0.036331177,-3.8505702,0.9859158,8.9650135
34.80520544,31.26501556,0.0,5.867224,12-27-45,0.008343697,-0.03703296,-0.033759117,99.0,-6.672201,-22.940544,0.0,-0.007461548,0.036331177,-3.8505702,0.9859158,8.9650135
34.80520544,31.26501556,0.0,5.867224,12-27-45,0.008343697,-0.03703296,-0.033759117,99.0,-6.6182833,-23.029604,0.0,-0.007461548,0.036331177,-3.8505702,0.9859158,8.9650135
34.80520544,31.26501556,0.0,5.867224,12-27-45,0.008343697,-0.03703296,-0.033759117,99.0,-6.564232,-23.040886,0.0,-0.007461548,0.036331177,-3.8505702,0.9859158,8.9650135
34.80520544,31.26501556,0.0,5.867224,12-27-45,0.008343697,-0.03703296,-0.033759117,99.0,-6.564232,-23.040886,0.0,-0.007461548,0.036331177,-3.8505702,0.9859158,8.9650135
34.80520544,31.26501556,0.0,5.867224,12-27-45,0.008343697,-0.03703296,-0.033759117,99.0,-6.5515943,-22.961441,0.0,-0.007461548,0.036331177,-3.8505702,0.9859158,8.9650135
34.80520544,31.26501556,0.0,5.867224,12-27-45,0.008343697,-0.03703296,-0.033759117,99.0,-6.554499,-22.871082,0.0,-0.007461548,0.036331177,-3.8505702,0.9859158,8.9650135
34.80520544,31.26501556,0.0,5.867224,12-27-45,0.008343697,-0.03703296,-0.033759117,99.0,-6.554499,-22.871082,0.0,-0.007461548,0.036331177,-3.8505702,0.9859158,8.9650135
34.80520544,31.26501556,0.0,5.867224,12-27-45,0.008343697,-0.03703296,-0.033759117,99.0,-6.554499,-22.871082,0.0,-0.007461548,0.036331177,-3.8505702,0.9859158,8.9650135
34.80520544,31.26501556,0.0,5.867224,12-27-45,0.008343697,-0.03703296,-0.033759117,99.0,-6.5373855,-22.832335,0.0,-0.007461548,0.036331177,-3.8505702,0.9859158,8.9650135
34.80520544,31.26501556,0.0,5.867224,12-27-45,0.008343697,-0.03703296,-0.033759117,99.0,-6.5373855,-22.832335,0.0,-0.007461548,0.036331177,-3.8505702,0.9859158,8.9650135
34.80520544,31.26501556,0.0,5.867224,12-27-45,0.008343697,-0.03703296,-0.033759117,99.0,-6.4566393,-22.83051,0.0,-0.007461548,0.036331177,-3.8505702,0.9859158,8.9650135
34.80520544,31.26501556,0.0,5.867224,12-27-45,0.008343697,-0.03703296,-0.033759117,99.0,-6.340246,-22.86982,0.0,-0.007461548,0.036331177,-3.8505702,0.9859158,8.9650135
34.80520544,31.26501556,0.0,5.867224,12-27-45,0.008343697,-0.03703296,-0.033759117,99.0,-6.2821164,-22.883196,0.0,-0.007461548,0.036331177,-3.8505702,0.9859158,8.9650135
34.80520544,31.26501556,0.0,5.867224,12-27-45,0.008343697,-0.03703296,-0.033759117,99.0,-6.2821164,-22.883196,0.0,-0.007461548,0.036331177,-3.8505702,0.9859158,8.9650135
34.80520544,31.26501556,0.0,5.867224,12-27-45,0.008343697,-0.03703296,-0.033759117,99.0,-6.3235726,-22.863209,-0.021408081,-0.0121154785,0.010467529,-3.8505702,0.9859158,8.9650135
34.80520544,31.26501556,0.0,5.867224,12-27-45,0.008343697,-0.03703296,-0.033759117,99.0,-6.3235726,-22.863209,-0.021408081,-0.0121154785,0.010467529,-3.8505702,0.9859158,8.9650135
34.80520544,31.26501556,0.0,5.867224,12-27-45,-0.065521955,-5.0520897E-4,0.13675594,99.0,-6.357449,-22.843964,-0.021408081,-0.0121154785,0.010467529,-3.8315275,0.97442025,8.974423
34.80520544,31.26501556,0.0,5.867224,12-27-45,-0.065521955,-5.0520897E-4,0.13675594,99.0,-6.357449,-22.843964,-0.021408081,-0.0121154785,0.010467529,-3.8315275,0.97442025,8.974423
34.80520544,31.26501556,0.0,5.867224,12-27-45,-0.065521955,-5.0520897E-4,0.13675594,99.0,-6.357449,-22.843964,-0.021408081,-0.0121154785,0.010467529,-3.8315275,0.97442025,8.974423
34.80520544,31.26501556,0.0,5.867224,12-27-45,-0.065521955,-5.0520897E-4,0.13675594,99.0,-6.3597126,-23.026243,-0.021408081,-0.0121154785,0.010467529,-3.8315275,0.97442025,8.974423
34.80520544,31.26501556,0.0,5.867224,12-27-45,-0.065521955,-5.0520897E-4,0.13675594,100.0,-6.3428755,-23.217287,-0.021408081,-0.0121154785,0.010467529,-3.8315275,0.97442025,8.974423
34.80520544,31.26501556,0.0,5.867224,12-27-45,-0.065521955,-5.0520897E-4,0.13675594,100.0,-6.3471446,-23.243265,-0.021408081,-0.0121154785,0.010467529,-3.8315275,0.97442025,8.974423
34.80520544,31.26501556,0.0,5.867224,12-27-45,-0.065521955,-5.0520897E-4,0.13675594,100.0,-6.3471446,-23.243265,-0.021408081,-0.0121154785,0.010467529,-3.8315275,0.97442025,8.974423
34.80520544,31.26501556,0.0,5.867224,12-27-45,-0.065521955,-5.0520897E-4,0.13675594,100.0,-6.3774343,-23.215351,-0.021408081,-0.0121154785,0.010467529,-3.8315275,0.97442025,8.974423
34.80520544,31.26501556,0.0,5.867224,12-27-45,-0.065521955,-5.0520897E-4,0.13675594,100.0,-6.3774343,-23.215351,-0.021408081,-0.0121154785,0.010467529,-3.8315275,0.97442025,8.974423
34.80520544,31.26501556,0.0,5.867224,12-27-45,-0.065521955,-5.0520897E-4,0.13675594,100.0,-6.413888,-23.11066,-0.021408081,-0.0121154785,0.010467529,-3.8315275,0.97442025,8.974423
34.80520544,31.26501556,0.0,5.867224,12-27-45,-0.065521955,-5.0520897E-4,0.13675594,100.0,-6.413888,-23.11066,-0.021408081,-0.0121154785,0.010467529,-3.8315275,0.97442025,8.974423
34.80520544,31.26501556,0.0,5.867224,12-27-45,-0.065521955,-5.0520897E-4,0.13675594,100.0,-6.413888,-23.11066,-0.021408081,-0.0121154785,0.010467529,-3.8315275,0.97442025,8.974423
34.80520544,31.26501556,0.0,5.867224,12-27-45,-0.065521955,-5.0520897E-4,0.13675594,100.0,-6.4810004,-22.965614,-0.021408081,-0.0121154785,0.010467529,-3.8315275,0.97442025,8.974423
34.8052054,31.2650155,0.0,0.0076660137,12-27-45,-0.065521955,-5.0520897E-4,0.13675594,100.0,-6.5991073,-22.752935,-0.021408081,-0.0121154785,0.010467529,-3.8315275,0.97442025,8.974423
34.8052054,31.2650155,0.0,0.0076660137,12-27-45,-0.065521955,-5.0520897E-4,0.13675594,100.0,-6.5991073,-22.752935,-0.021408081,-0.0121154785,0.010467529,-3.8315275,0.97442025,8.974423
34.8052054,31.2650155,0.0,0.0076660137,12-27-45,-0.065521955,-5.0520897E-4,0.13675594,100.0,-6.5991073,-22.752935,-0.021408081,-0.0121154785,0.010467529,-3.8315275,0.97442025,8.974423
34.8052054,31.2650155,0.0,0.0076660137,12-27-45,-0.065521955,-5.0520897E-4,0.13675594,100.0,-6.5991073,-22.752935,-0.021408081,-0.0121154785,0.010467529,-3.8315275,0.97442025,8.974423
34.8052054,31.2650155,0.0,0.0076660137,12-27-45,-0.065521955,-5.0520897E-4,0.13675594,100.0,-6.5991073,-22.752935,-0.021408081,-0.0121154785,0.010467529,-3.8315275,0.97442025,8.974423
34.8052054,31.2650155,0.0,0.0076660137,12-27-45,-0.065521955,-5.0520897E-4,0.13675594,100.0,-6.5991073,-22.752935,-0.021408081,-0.0121154785,0.010467529,-3.8315275,0.97442025,8.974423
34.8052054,31.2650155,0.0,0.0076660137,12-27-45,-0.065521955,-5.0520897E-4,0.13675594,100.0,-6.5991073,-22.752935,-0.021408081,-0.0121154785,0.010467529,-3.8315275,0.97442025,8.974423
34.8052054,31.2650155,0.0,0.0076660137,12-27-45,-0.065521955,-5.0520897E-4,0.13675594,100.0,-6.5991073,-22.752935,-0.021408081,-0.0121154785,0.010467529,-3.8315275,0.97442025,8.974423
34.8052054,31.2650155,0.0,0.0076660137,12-27-45,-0.065521955,-5.0520897E-4,0.13675594,100.0,-6.5991073,-22.752935,-0.021408081,-0.0121154785,0.010467529,-3.8315275,0.97442025,8.974423
34.8052054,31.2650155,0.0,0.0076660137,12-27-45,-0.065521955,-5.0520897E-4,0.13675594,100.0,-6.5991073,-22.752935,-0.021408081,-0.0121154785,0.010467529,-3.8315275,0.97442025,8.974423
34.8052054,31.2650155,0.0,0.0076660137,12-27-45,-0.065521955,-5.0520897E-4,0.13675594,100.0,-6.5991073,-22.752935,-0.021408081,-0.0121154785,0.010467529,-3.8315275,0.97442025,8.974423
34.8052054,31.2650155,0.0,0.0076660137,12-27-45,-0.065521955,-5.0520897E-4,0.13675594,100.0,-6.5991073,-22.752935,-0.021408081,-0.0121154785,0.010467529,-3.8315275,0.97442025,8.974423
34.8052054,31.2650155,0.0,0.0076660137,12-27-45,-0.065521955,-5.0520897E-4,0.13675594,100.0,-6.5991073,-22.752935,-0.021408081,-0.0121154785,0.010467529,-3.8315275,0.97442025,8.974423
34.8052054,31.2650155,0.0,0.0076660137,12-27-45,-0.065521955,-5.0520897E-4,0.13675594,100.0,-6.5991073,-22.752935,-0.021408081,-0.0121154785,0.010467529,-3.8315275,0.97442025,8.974423
34.8052054,31.2650155,0.0,0.0076660137,12-27-45,-0.065521955,-5.0520897E-4,0.13675594,100.0,-6.5991073,-22.752935,-0.021408081,-0.0121154785,0.010467529,-3.8315275,0.97442025,8.974423
34.8052054,31.2650155,0.0,0.0076660137,12-27-45,-0.065521955,-5.0520897E-4,0.13675594,100.0,-6.5991073,-22.752935,-0.021408081,-0.0121154785,0.010467529,-3.8315275,0.97442025,8.974423
34.8052054,31.2650155,0.0,0.0076660137,12-27-45,-0.065521955,-5.0520897E-4,0.13675594,100.0,-6.5991073,-22.752935,-0.021408081,-0.0121154785,0.010467529,-3.8315275,0.97442025,8.974423
34.8052054,31.2650155,0.0,0.0076660137,12-27-45,-0.065521955,-5.0520897E-4,0.13675594,100.0,-6.5991073,-22.752935,-0.021408081,-0.0121154785,0.010467529,-3.8315275,0.97442025,8.974423
34.8052054,31.2650155,0.0,0.0076660137,12-27-45,-0.065521955,-5.0520897E-4,0.13675594,100.0,-6.5991073,-22.752935,-0.021408081,-0.0121154785,0.010467529,-3.8315275,0.97442025,8.974423
34.8052054,31.2650155,0.0,0.0076660137,12-27-45,-0.065521955,-5.0520897E-4,0.13675594,100.0,-6.5991073,-22.752935,-0.021408081,-0.0121154785,0.010467529,-3.8315275,0.97442025,8.974423
34.8052054,31.2650155,0.0,0.0076660137,12-27-45,-0.065521955,-5.0520897E-4,0.13675594,100.0,-6.5991073,-22.752935,-0.021408081,-0.0121154785,0.010467529,-3.8315275,0.97442025,8.974423
34.8052054,31.2650155,0.0,0.0076660137,12-27-45,-1.7893653,0.3334762,1.7617092,97.0,-5.1944466,-21.015085,0.015182495,-0.090148926,0.10418701,-3.7678447,1.0208985,8.996194
34.8052054,31.2650155,0.0,0.0076660137,12-27-45,-0.7775121,0.36153787,1.4213562,96.0,-4.668513,-21.090431,-0.28160095,-0.07872009,0.20854187,-3.5900939,0.90053535,9.081335
34.8052054,31.2650155,0.0,0.0076660137,12-27-45,-0.7775121,0.36153787,1.4213562,96.0,-4.668513,-21.090431,-0.28160095,-0.07872009,0.20854187,-3.5900939,0.90053535,9.081335
34.8052054,31.2650155,0.0,0.0076660137,12-27-45,-0.7775121,0.36153787,1.4213562,96.0,-4.668513,-21.090431,-0.28160095,-0.07872009,0.20854187,-3.5900939,0.90053535,9.081335
34.8052054,31.2650155,0.0,0.0076660137,12-27-45,-0.7775121,0.36153787,1.4213562,96.0,-4.177286,-21.039236,-0.28160095,-0.07872009,0.20854187,-3.5900939,0.90053535,9.081335
34.8052054,31.2650155,0.0,0.0076660137,12-27-45,-0.7775121,0.36153787,1.4213562,96.0,-4.177286,-21.039236,-0.28160095,-0.07872009,0.20854187,-3.5900939,0.90053535,9.081335
34.8052054,31.2650155,0.0,0.0076660137,12-27-45,-0.7775121,0.36153787,1.4213562,95.0,-3.2990215,-20.862219,-0.28160095,-0.07872009,0.20854187,-3.5900939,0.90053535,9.081335
34.8052054,31.2650155,0.0,0.0076660137,12-27-46,-0.7775121,0.36153787,1.4213562,95.0,-3.2990215,-20.862219,-0.28160095,-0.07872009,0.20854187,-3.5900939,0.90053535,9.081335
34.8052054,31.2650155,0.0,0.0076660137,12-27-46,-0.7775121,0.36153787,1.4213562,95.0,-3.2990215,-20.862219,-0.28160095,-0.07872009,0.20854187,-3.5900939,0.90053535,9.081335
34.8052054,31.2650155,0.0,0.0076660137,12-27-46,-0.7775121,0.36153787,1.4213562,95.0,-2.8656101,-21.122602,-0.28160095,-0.07872009,0.20854187,-3.5900939,0.90053535,9.081335
34.8052054,31.2650155,0.0,0.0076660137,12-27-46,-0.7775121,0.36153787,1.4213562,94.0,-2.4574223,-21.279186,-0.28160095,-0.07872009,0.20854187,-3.5900939,0.90053535,9.081335
34.8052054,31.2650155,0.0,0.0076660137,12-27-46,-0.7775121,0.36153787,1.4213562,94.0,-2.4574223,-21.279186,-0.28160095,-0.07872009,0.20854187,-3.5900939,0.90053535,9.081335
34.8052054,31.2650155,0.0,0.0076660137,12-27-46,-0.7775121,0.36153787,1.4213562,94.0,-2.4574223,-21.279186,-0.28160095,-0.07872009,0.20854187,-3.5900939,0.90053535,9.081335
34.8052054,31.2650155,0.0,0.0076660137,12-27-46,-0.7775121,0.36153787,1.4213562,94.0,-2.1292024,-21.324345,-0.28160095,-0.07872009,0.20854187,-3.5900939,0.90053535,9.081335
34.8052054,31.2650155,0.0,0.0076660137,12-27-46,-0.7775121,0.36153787,1.4213562,94.0,-1.924891,-21.310947,-0.28160095,-0.07872009,0.20854187,-3.5900939,0.90053535,9.081335
34.8052054,31.2650155,0.0,0.0076660137,12-27-46,-0.7775121,0.36153787,1.4213562,93.0,-1.7344476,-21.521605,-0.28160095,-0.07872009,0.20854187,-3.5900939,0.90053535,9.081335
34.8052054,31.2650155,0.0,0.0076660137,12-27-46,-0.7775121,0.36153787,1.4213562,93.0,-1.7344476,-21.521605,-0.28160095,-0.07872009,0.20854187,-3.5900939,0.90053535,9.081335
34.8052054,31.2650155,0.0,0.0076660137,12-27-46,-0.7775121,0.36153787,1.4213562,93.0,-1.7344476,-21.521605,-0.28160095,-0.07872009,0.20854187,-3.5900939,0.90053535,9.081335
34.8052054,31.2650155,0.0,0.0076660137,12-27-46,1.0192885,-1.0040655,-1.0743198,93.0,-1.6163386,-21.917797,-0.28160095,-0.07872009,0.20854187,-3.5489137,0.4471065,9.131029
34.8052054,31.2650155,0.0,0.0076660137,12-27-46,1.0192885,-1.0040655,-1.0743198,93.0,-1.5750071,-22.012384,-0.33570862,0.10296631,0.24209595,-3.5489137,0.4471065,9.131029
34.8052054,31.2650155,0.0,0.0076660137,12-27-46,1.0192885,-1.0040655,-1.0743198,93.0,-1.5750071,-22.012384,-0.33570862,0.10296631,0.24209595,-3.5489137,0.4471065,9.131029
34.8052054,31.2650155,0.0,0.0076660137,12-27-46,1.0192885,-1.0040655,-1.0743198,93.0,-1.5750071,-22.012384,-0.33570862,0.10296631,0.24209595,-3.5489137,0.4471065,9.131029
34.8052054,31.2650155,0.0,0.0076660137,12-27-46,1.0192885,-1.0040655,-1.0743198,93.0,-1.6126182,-21.835758,-0.33570862,0.10296631,0.24209595,-3.5489137,0.4471065,9.131029
34.8052054,31.2650155,0.0,0.0076660137,12-27-46,1.0192885,-1.0040655,-1.0743198,93.0,-1.7963059,-21.589796,-0.33570862,0.10296631,0.24209595,-3.5489137,0.4471065,9.131029
34.8052054,31.2650155,0.0,0.0076660137,12-27-46,1.0192885,-1.0040655,-1.0743198,92.0,-2.0456884,-21.180614,-0.33570862,0.10296631,0.24209595,-3.5489137,0.4471065,9.131029
34.8052054,31.2650155,0.0,0.0076660137,12-27-46,1.0192885,-1.0040655,-1.0743198,92.0,-2.0456884,-21.180614,-0.33570862,0.10296631,0.24209595,-3.5489137,0.4471065,9.131029
34.8052054,31.2650155,0.0,0.0076660137,12-27-46,1.0192885,-1.0040655,-1.0743198,92.0,-2.0456884,-21.180614,-0.33570862,0.10296631,0.24209595,-3.5489137,0.4471065,9.131029
34.8052054,31.2650155,0.0,0.0076660137,12-27-46,1.0192885,-1.0040655,-1.0743198,91.0,-2.251739,-20.67486,-0.33570862,0.10296631,0.24209595,-3.5489137,0.4471065,9.131029
34.8052054,31.2650155,0.0,0.0076660137,12-27-46,1.0192885,-1.0040655,-1.0743198,89.0,-2.353398,-20.163929,-0.33570862,0.10296631,0.24209595,-3.5489137,0.4471065,9.131029
34.8052054,31.2650155,0.0,0.0076660137,12-27-46,1.0192885,-1.0040655,-1.0743198,89.0,-2.353398,-20.163929,-0.33570862,0.10296631,0.24209595,-3.5489137,0.4471065,9.131029
34.8052054,31.2650155,0.0,0.0076660137,12-27-46,1.0192885,-1.0040655,-1.0743198,89.0,-2.353398,-20.163929,-0.33570862,0.10296631,0.24209595,-3.5489137,0.4471065,9.131029
34.8052054,31.2650155,0.0,0.0076660137,12-27-46,1.0192885,-1.0040655,-1.0743198,88.0,-2.4927387,-19.779514,-0.33570862,0.10296631,0.24209595,-3.5489137,0.4471065,9.131029
34.8052054,31.2650155,0.0,0.0076660137,12-27-46,1.0192885,-1.0040655,-1.0743198,86.0,-2.6567822,-19.367563,-0.33570862,0.10296631,0.24209595,-3.5489137,0.4471065,9.131029
34.8052054,31.2650155,0.0,0.0076660137,12-27-46,1.0192885,-1.0040655,-1.0743198,84.0,-2.6939664,-19.032948,-0.33570862,0.10296631,0.24209595,-3.5489137,0.4471065,9.131029
34.8052054,31.2650155,0.0,0.0076660137,12-27-46,1.0192885,-1.0040655,-1.0743198,84.0,-2.6939664,-19.032948,-0.33570862,0.10296631,0.24209595,-3.5489137,0.4471065,9.131029
34.8052054,31.2650155,0.0,0.0076660137,12-27-46,1.0192885,-1.0040655,-1.0743198,84.0,-2.6939664,-19.032948,-0.33570862,0.10296631,0.24209595,-3.5489137,0.4471065,9.131029
34.8052054,31.2650155,0.0,0.0076660137,12-27-46,1.5265737,-0.04504454,-1.1340361,81.0,-2.5660024,-18.998129,-0.33570862,0.10296631,0.24209595,-3.340444,0.32894707,9.214315
34.8052054,31.2650155,0.0,0.0076660137,12-27-46,1.5265737,-0.04504454,-1.1340361,81.0,-2.5660024,-18.998129,-0.27812195,-0.1761322,0.99028015,-3.340444,0.32894707,9.214315
34.8052054,31.2650155,0.0,0.0076660137,12-27-46,1.5265737,-0.04504454,-1.1340361,81.0,-2.5660024,-18.998129,-0.27812195,-0.1761322,0.99028015,-3.340444,0.32894707,9.214315
34.8052054,31.2650155,0.0,0.0076660137,12-27-46,1.5265737,-0.04504454,-1.1340361,81.0,-2.546161,-19.272306,-0.27812195,-0.1761322,0.99028015,-3.340444,0.32894707,9.214315
34.8052054,31.2650155,0.0,0.0076660137,12-27-46,1.5265737,-0.04504454,-1.1340361,81.0,-2.546161,-19.272306,-0.27812195,-0.1761322,0.99028015,-3.340444,0.32894707,9.214315
34.8052054,31.2650155,0.0,0.0076660137,12-27-46,1.5265737,-0.04504454,-1.1340361,81.0,-2.7557828,-19.617361,-0.27812195,-0.1761322,0.99028015,-3.340444,0.32894707,9.214315
34.8052054,31.2650155,0.0,0.0076660137,12-27-46,1.5265737,-0.04504454,-1.1340361,81.0,-2.8711455,-19.686571,-0.27812195,-0.1761322,0.99028015,-3.340444,0.32894707,9.214315
34.8052054,31.2650155,0.0,0.0076660137,12-27-46,1.5265737,-0.04504454,-1.1340361,81.0,-2.8336904,-19.586332,-0.27812195,-0.1761322,0.99028015,-3.340444,0.32894707,9.214315
34.8052054,31.2650155,0.0,0.0076660137,12-27-46,1.5265737,-0.04504454,-1.1340361,81.0,-2.8336904,-19.586332,-0.27812195,-0.1761322,0.99028015,-3.340444,0.32894707,9.214315
34.8052054,31.2650155,0.0,0.0076660137,12-27-46,1.5265737,-0.04504454,-1.1340361,81.0,-2.9230638,-19.659777,-0.27812195,-0.1761322,0.99028015,-3.340444,0.32894707,9.214315
34.8052054,31.2650155,0.0,0.0076660137,12-27-46,1.5265737,-0.04504454,-1.1340361,81.0,-2.9230638,-19.659777,-0.27812195,-0.1761322,0.99028015,-3.340444,0.32894707,9.214315
34.8052054,31.2650155,0.0,0.0076660137,12-27-46,1.5265737,-0.04504454,-1.1340361,81.0,-2.9230638,-19.659777,-0.27812195,-0.1761322,0.99028015,-3.340444,0.32894707,9.214315
34.8052054,31.2650155,0.0,0.0076660137,12-27-46,1.5265737,-0.04504454,-1.1340361,81.0,-2.9230638,-19.659777,-0.27812195,-0.1761322,0.99028015,-3.340444,0.32894707,9.214315
34.8052054,31.2650155,0.0,0.0076660137,12-27-46,1.5265737,-0.04504454,-1.1340361,81.0,-3.0605886,-19.938358,-0.27812195,-0.1761322,0.99028015,-3.340444,0.32894707,9.214315
34.8052054,31.2650155,0.0,0.0076660137,12-27-46,1.5265737,-0.04504454,-1.1340361,82.0,-3.2901442,-20.428041,-0.27812195,-0.1761322,0.99028015,-3.340444,0.32894707,9.214315
34.8052054,31.2650155,0.0,0.0076660137,12-27-46,1.5265737,-0.04504454,-1.1340361,82.0,-3.6305716,-20.967731,-0.27812195,-0.1761322,0.99028015,-3.340444,0.32894707,9.214315
34.8052054,31.2650155,0.0,0.0076660137,12-27-46,1.5265737,-0.04504454,-1.1340361,83.0,-3.8636525,-21.29809,-0.27812195,-0.1761322,0.99028015,-3.340444,0.32894707,9.214315
34.8052054,31.2650155,0.0,0.0076660137,12-27-46,1.5265737,-0.04504454,-1.1340361,83.0,-3.8636525,-21.29809,-0.27812195,-0.1761322,0.99028015,-3.340444,0.32894707,9.214315
34.8052054,31.2650155,0.0,0.0076660137,12-27-46,-0.8528104,0.17648059,-0.43128586,83.0,-3.8616135,-21.148787,-0.27812195,-0.1761322,0.99028015,-3.312093,0.50940007,9.216341
34.8052054,31.2650155,0.0,0.0076660137,12-27-46,-0.8528104,0.17648059,-0.43128586,83.0,-3.8616135,-21.148787,-0.27812195,-0.1761322,0.99028015,-3.312093,0.50940007,9.216341
34.8052054,31.2650155,0.0,0.0076660137,12-27-46,-0.8528104,0.17648059,-0.43128586,82.0,-3.687837,-20.81655,0.15032959,0.1244812,-0.12710571,-3.312093,0.50940007,9.216341
34.8052054,31.2650155,0.0,0.0076660137,12-27-46,-0.8528104,0.17648059,-0.43128586,82.0,-3.687837,-20.81655,0.15032959,0.1244812,-0.12710571,-3.312093,0.50940007,9.216341
34.8052054,31.2650155,0.0,0.0076660137,12-27-46,-0.8528104,0.17648059,-0.43128586,82.0,-3.687837,-20.81655,0.15032959,0.1244812,-0.12710571,-3.312093,0.50940007,9.216341
34.8052054,31.2650155,0.0,0.0076660137,12-27-46,-0.8528104,0.17648059,-0.43128586,82.0,-3.579524,-20.463146,0.15032959,0.1244812,-0.12710571,-3.312093,0.50940007,9.216341
34.8052054,31.2650155,0.0,0.0076660137,12-27-46,-0.8528104,0.17648059,-0.43128586,83.0,-3.45917,-19.764248,0.15032959,0.1244812,-0.12710571,-3.312093,0.50940007,9.216341
34.8052054,31.2650155,0.0,0.0076660137,12-27-46,-0.8528104,0.17648059,-0.43128586,82.0,-3.564446,-20.124474,0.15032959,0.1244812,-0.12710571,-3.312093,0.50940007,9.216341
34.8052054,31.2650155,0.0,0.0076660137,12-27-46,-0.8528104,0.17648059,-0.43128586,83.0,-3.45917,-19.764248,0.15032959,0.1244812,-0.12710571,-3.312093,0.50940007,9.216341
34.8052054,31.2650155,0.0,0.0076660137,12-27-46,-0.8528104,0.17648059,-0.43128586,84.0,-3.3030374,-19.410774,0.15032959,0.1244812,-0.12710571,-3.312093,0.50940007,9.216341
34.8052054,31.2650155,0.0,0.0076660137,12-27-46,-0.8528104,0.17648059,-0.43128586,84.0,-3.3030374,-19.410774,0.15032959,0.1244812,-0.12710571,-3.312093,0.50940007,9.216341
34.8052054,31.2650155,0.0,0.0076660137,12-27-46,-0.8528104,0.17648059,-0.43128586,85.0,-3.1747794,-19.136608,0.15032959,0.1244812,-0.12710571,-3.312093,0.50940007,9.216341
34.8052054,31.2650155,0.0,0.0076660137,12-27-46,-0.8528104,0.17648059,-0.43128586,85.0,-3.1747794,-19.136608,0.15032959,0.1244812,-0.12710571,-3.312093,0.50940007,9.216341
34.8052054,31.2650155,0.0,0.0076660137,12-27-46,-0.8528104,0.17648059,-0.43128586,85.0,-3.1747794,-19.136608,0.15032959,0.1244812,-0.12710571,-3.312093,0.50940007,9.216341
34.8052054,31.2650155,0.0,0.0076660137,12-27-46,-0.8528104,0.17648059,-0.43128586,85.0,-3.1507463,-18.792675,0.15032959,0.1244812,-0.12710571,-3.312093,0.50940007,9.216341
34.80520544,31.26501535,0.0,0.023283547,12-27-46,-0.8528104,0.17648059,-0.43128586,86.0,-3.3589566,-17.95404,0.15032959,0.1244812,-0.12710571,-3.312093,0.50940007,9.216341
34.80520544,31.26501535,0.0,0.023283547,12-27-46,-0.8528104,0.17648059,-0.43128586,86.0,-3.3589566,-17.95404,0.15032959,0.1244812,-0.12710571,-3.312093,0.50940007,9.216341
34.80520544,31.26501535,0.0,0.023283547,12-27-46,-0.8528104,0.17648059,-0.43128586,86.0,-3.3589566,-17.95404,0.15032959,0.1244812,-0.12710571,-3.312093,0.50940007,9.216341
34.80520544,31.26501535,0.0,0.023283547,12-27-46,0.8314197,-0.8670197,0.114317894,87.0,-3.4898438,-17.647757,0.15032959,0.1244812,-0.12710571,-3.1514347,0.55959094,9.269612
34.80520544,31.26501535,0.0,0.023283547,12-27-46,0.8314197,-0.8670197,0.114317894,87.0,-3.4898438,-17.647757,0.15032959,0.1244812,-0.12710571,-3.1514347,0.55959094,9.269612
34.80520544,31.26501535,0.0,0.023283547,12-27-46,0.8314197,-0.8670197,0.114317894,88.0,-3.6435287,-17.466822,0.17907715,-0.29896545,-0.4671936,-3.1514347,0.55959094,9.269612
34.80520544,31.26501535,0.0,0.023283547,12-27-46,0.8314197,-0.8670197,0.114317894,88.0,-3.6435287,-17.466822,0.17907715,-0.29896545,-0.4671936,-3.1514347,0.55959094,9.269612
34.80520544,31.26501535,0.0,0.023283547,12-27-46,0.8314197,-0.8670197,0.114317894,88.0,-3.6435287,-17.466822,0.17907715,-0.29896545,-0.4671936,-3.1514347,0.55959094,9.269612
34.80520544,31.26501535,0.0,0.023283547,12-27-46,0.8314197,-0.8670197,0.114317894,89.0,-3.8305078,-17.372375,0.17907715,-0.29896545,-0.4671936,-3.1514347,0.55959094,9.269612
34.80520544,31.26501535,0.0,0.023283547,12-27-46,0.8314197,-0.8670197,0.114317894,90.0,-4.202715,-17.246508,0.17907715,-0.29896545,-0.4671936,-3.1514347,0.55959094,9.269612
34.80520544,31.26501535,0.0,0.023283547,12-27-46,0.8314197,-0.8670197,0.114317894,90.0,-4.202715,-17.246508,0.17907715,-0.29896545,-0.4671936,-3.1514347,0.55959094,9.269612
34.80520544,31.26501535,0.0,0.023283547,12-27-46,0.8314197,-0.8670197,0.114317894,90.0,-4.202715,-17.246508,0.17907715,-0.29896545,-0.4671936,-3.1514347,0.55959094,9.269612
34.80520544,31.26501535,0.0,0.023283547,12-27-46,0.8314197,-0.8670197,0.114317894,91.0,-4.425014,-17.296288,0.17907715,-0.29896545,-0.4671936,-3.1514347,0.55959094,9.269612
34.80520544,31.26501535,0.0,0.023283547,12-27-46,0.8314197,-0.8670197,0.114317894,91.0,-4.425014,-17.296288,0.17907715,-0.29896545,-0.4671936,-3.1514347,0.55959094,9.269612
34.80520544,31.26501535,0.0,0.023283547,12-27-46,0.8314197,-0.8670197,0.114317894,91.0,-4.7239027,-17.26815,0.17907715,-0.29896545,-0.4671936,-3.1514347,0.55959094,9.269612
34.80520544,31.26501535,0.0,0.023283547,12-27-46,0.8314197,-0.8670197,0.114317894,91.0,-4.7239027,-17.26815,0.17907715,-0.29896545,-0.4671936,-3.1514347,0.55959094,9.269612
34.80520544,31.26501535,0.0,0.023283547,12-27-46,0.8314197,-0.8670197,0.114317894,91.0,-4.7239027,-17.26815,0.17907715,-0.29896545,-0.4671936,-3.1514347,0.55959094,9.269612
34.80520544,31.26501535,0.0,0.023283547,12-27-46,0.8314197,-0.8670197,0.114317894,92.0,-4.977624,-17.21315,0.17907715,-0.29896545,-0.4671936,-3.1514347,0.55959094,9.269612
34.80520544,31.26501535,0.0,0.023283547,12-27-46,0.8314197,-0.8670197,0.114317894,93.0,-5.465581,-17.379335,0.17907715,-0.29896545,-0.4671936,-3.1514347,0.55959094,9.269612
34.80520544,31.26501535,0.0,0.023283547,12-27-46,0.8314197,-0.8670197,0.114317894,93.0,-5.465581,-17.379335,0.17907715,-0.29896545,-0.4671936,-3.1514347,0.55959094,9.269612
34.80520544,31.26501535,0.0,0.023283547,12-27-46,0.8314197,-0.8670197,0.114317894,93.0,-5.465581,-17.379335,0.17907715,-0.29896545,-0.4671936,-3.1514347,0.55959094,9.269612
34.80520544,31.26501535,0.0,0.023283547,12-27-46,1.1237881,-0.41287696,-0.46517944,95.0,-5.8075633,-17.509052,0.17907715,-0.29896545,-0.4671936,-2.8418572,0.7317009,9.357288
34.80520544,31.26501535,0.0,0.023283547,12-27-46,1.1237881,-0.41287696,-0.46517944,95.0,-5.8075633,-17.509052,0.17907715,-0.29896545,-0.4671936,-2.8418572,0.7317009,9.357288
34.80520544,31.26501535,0.0,0.023283547,12-27-46,1.1237881,-0.41287696,-0.46517944,96.0,-6.0767894,-17.813892,0.41990662,0.0027618408,-0.6303253,-2.8418572,0.7317009,9.357288
34.80520544,31.26501535,0.0,0.023283547,12-27-46,1.1237881,-0.41287696,-0.46517944,96.0,-6.0767894,-17.813892,0.41990662,0.0027618408,-0.6303253,-2.8418572,0.7317009,9.357288
34.80520544,31.26501535,0.0,0.023283547,12-27-46,1.1237881,-0.41287696,-0.46517944,96.0,-6.0767894,-17.813892,0.41990662,0.0027618408,-0.6303253,-2.8418572,0.7317009,9.357288
34.80520544,31.26501535,0.0,0.023283547,12-27-46,1.1237881,-0.41287696,-0.46517944,97.0,-6.236446,-18.271677,0.41990662,0.0027618408,-0.6303253,-2.8418572,0.7317009,9.357288
34.80520544,31.26501535,0.0,0.023283547,12-27-47,1.1237881,-0.41287696,-0.46517944,98.0,-6.81988,-18.281252,0.41990662,0.0027618408,-0.6303253,-2.8418572,0.7317009,9.357288
34.80520544,31.26501535,0.0,0.023283547,12-27-47,1.1237881,-0.41287696,-0.46517944,98.0,-6.81988,-18.281252,0.41990662,0.0027618408,-0.6303253,-2.8418572,0.7317009,9.357288
34.80520544,31.26501535,0.0,0.023283547,12-27-47,1.1237881,-0.41287696,-0.46517944,98.0,-6.81988,-18.281252,0.41990662,0.0027618408,-0.6303253,-2.8418572,0.7317009,9.357288
34.80520544,31.26501535,0.0,0.023283547,12-27-47,1.1237881,-0.41287696,-0.46517944,99.0,-7.005217,-18.505749,0.41990662,0.0027618408,-0.6303253,-2.8418572,0.7317009,9.357288
34.80520544,31.26501535,0.0,0.023283547,12-27-47,1.1237881,-0.41287696,-0.46517944,99.0,-7.005217,-18.505749,0.41990662,0.0027618408,-0.6303253,-2.8418572,0.7317009,9.357288
34.80520544,31.26501535,0.0,0.023283547,12-27-47,1.1237881,-0.41287696,-0.46517944,99.0,-7.094852,-18.57373,0.41990662,0.0027618408,-0.6303253,-2.8418572,0.7317009,9.357288
34.80520544,31.26501535,0.0,0.023283547,12-27-47,1.1237881,-0.41287696,-0.46517944,99.0,-7.094852,-18.57373,0.41990662,0.0027618408,-0.6303253,-2.8418572,0.7317009,9.357288
34.80520544,31.26501535,0.0,0.023283547,12-27-47,1.1237881,-0.41287696,-0.46517944,100.0,-7.12832,-18.4051,0.41990662,0.0027618408,-0.6303253,-2.8418572,0.7317009,9.357288
34.80520544,31.26501535,0.0,0.023283547,12-27-47,1.1237881,-0.41287696,-0.46517944,100.0,-7.119235,-18.307846,0.41990662,0.0027618408,-0.6303253,-2.8418572,0.7317009,9.357288
34.80520544,31.26501535,0.0,0.023283547,12-27-47,1.1237881,-0.41287696,-0.46517944,101.0,-7.1073546,-18.24424,0.41990662,0.0027618408,-0.6303253,-2.8418572,0.7317009,9.357288
34.80520544,31.26501535,0.0,0.023283547,12-27-47,1.1237881,-0.41287696,-0.46517944,101.0,-7.1073546,-18.24424,0.41990662,0.0027618408,-0.6303253,-2.8418572,0.7317009,9.357288
34.80520544,31.26501535,0.0,0.023283547,12-27-47,1.1237881,-0.41287696,-0.46517944,101.0,-7.1073546,-18.24424,0.41990662,0.0027618408,-0.6303253,-2.9111793,1.0654154,9.30378
34.80520544,31.26501535,0.0,0.023283547,12-27-47,-0.85377145,0.6782156,-0.3972807,102.0,-7.1256595,-18.166903,0.22831726,-0.056655884,-0.49336243,-2.9111793,1.0654154,9.30378
34.80520544,31.26501535,0.0,0.023283547,12-27-47,-0.85377145,0.6782156,-0.3972807,102.0,-7.1256595,-18.166903,0.22831726,-0.056655884,-0.49336243,-2.9111793,1.0654154,9.30378
34.80520544,31.26501535,0.0,0.023283547,12-27-47,-0.85377145,0.6782156,-0.3972807,102.0,-7.1256595,-18.166903,0.22831726,-0.056655884,-0.49336243,-2.9111793,1.0654154,9.30378
34.80520544,31.26501535,0.0,0.023283547,12-27-47,-0.85377145,0.6782156,-0.3972807,102.0,-7.1256595,-18.166903,0.22831726,-0.056655884,-0.49336243,-2.9111793,1.0654154,9.30378
34.80520544,31.26501535,0.0,0.023283547,12-27-47,-0.85377145,0.6782156,-0.3972807,102.0,-7.1256595,-18.166903,0.22831726,-0.056655884,-0.49336243,-2.9111793,1.0654154,9.30378
34.80520544,31.26501535,0.0,0.023283547,12-27-47,-0.85377145,0.6782156,-0.3972807,103.0,-7.0069537,-17.841341,0.22831726,-0.056655884,-0.49336243,-2.9111793,1.0654154,9.30378
34.80520544,31.26501535,0.0,0.023283547,12-27-47,-0.85377145,0.6782156,-0.3972807,104.0,-6.8888435,-17.672964,0.22831726,-0.056655884,-0.49336243,-2.9111793,1.0654154,9.30378
34.80520544,31.26501535,0.0,0.023283547,12-27-47,-0.85377145,0.6782156,-0.3972807,104.0,-6.8888435,-17.672964,0.22831726,-0.056655884,-0.49336243,-2.9111793,1.0654154,9.30378
34.80520544,31.26501535,0.0,0.023283547,12-27-47,-0.85377145,0.6782156,-0.3972807,104.0,-6.8888435,-17.672964,0.22831726,-0.056655884,-0.49336243,-2.9111793,1.0654154,9.30378
34.80520544,31.26501535,0.0,0.023283547,12-27-47,-0.85377145,0.6782156,-0.3972807,104.0,-6.553688,-17.356432,0.22831726,-0.056655884,-0.49336243,-2.9111793,1.0654154,9.30378
34.80520544,31.26501535,0.0,0.023283547,12-27-47,-0.85377145,0.6782156,-0.3972807,104.0,-6.553688,-17.356432,0.22831726,-0.056655884,-0.49336243,-2.9111793,1.0654154,9.30378
34.80520544,31.26501535,0.0,0.023283547,12-27-47,-0.85377145,0.6782156,-0.3972807,104.0,-6.553688,-17.356432,0.22831726,-0.056655884,-0.49336243,-2.9111793,1.0654154,9.30378
34.80520544,31.26501535,0.0,0.023283547,12-27-47,-0.85377145,0.6782156,-0.3972807,105.0,-6.31955,-17.232107,0.22831726,-0.056655884,-0.49336243,-2.9111793,1.0654154,9.30378
34.80520544,31.26501535,0.0,0.023283547,12-27-47,-0.85377145,0.6782156,-0.3972807,105.0,-6.31955,-17.232107,0.22831726,-0.056655884,-0.49336243,-2.9111793,1.0654154,9.30378
34.80520544,31.26501535,0.0,0.023283547,12-27-47,-0.85377145,0.6782156,-0.3972807,105.0,-6.1048326,-17.086433,0.22831726,-0.056655884,-0.49336243,-2.9111793,1.0654154,9.30378
34.80520544,31.26501535,0.0,0.023283547,12-27-47,-0.85377145,0.6782156,-0.3972807,105.0,-5.9012485,-16.91758,0.22831726,-0.056655884,-0.49336243,-2.9111793,1.0654154,9.30378
34.80520544,31.26501535,0.0,0.023283547,12-27-47,0.3261633,0.67527556,-0.17599964,105.0,-5.9012485,-16.91758,0.22831726,-0.056655884,-0.49336243,-2.8117332,1.0558016,9.335407
34.80520544,31.26501535,0.0,0.023283547,12-27-47,0.3261633,0.67527556,-0.17599964,105.0,-5.9012485,-16.91758,0.22831726,-0.056655884,-0.49336243,-2.8117332,1.0558016,9.335407
34.80520544,31.26501535,0.0,0.023283547,12-27-47,0.3261633,0.67527556,-0.17599964,105.0,-5.673984,-16.746214,0.22831726,-0.056655884,-0.49336243,-2.8117332,1.0558016,9.335407
34.80520544,31.26501535,0.0,0.023283547,12-27-47,0.3261633,0.67527556,-0.17599964,105.0,-5.4504704,-16.577019,-0.114852905,-0.15081787,-0.17332458,-2.8117332,1.0558016,9.335407
34.80520544,31.26501535,0.0,0.023283547,12-27-47,0.3261633,0.67527556,-0.17599964,105.0,-5.4504704,-16.577019,-0.114852905,-0.15081787,-0.17332458,-2.8117332,1.0558016,9.335407
34.80520544,31.26501535,0.0,0.023283547,12-27-47,0.3261633,0.67527556,-0.17599964,105.0,-5.4504704,-16.577019,-0.114852905,-0.15081787,-0.17332458,-2.8117332,1.0558016,9.335407
34.80520544,31.26501535,0.0,0.023283547,12-27-47,0.3261633,0.67527556,-0.17599964,105.0,-5.224361,-16.393597,-0.114852905,-0.15081787,-0.17332458,-2.8117332,1.0558016,9.335407
34.80520544,31.26501535,0.0,0.023283547,12-27-47,0.3261633,0.67527556,-0.17599964,105.0,-4.9917226,-16.228504,-0.114852905,-0.15081787,-0.17332458,-2.8117332,1.0558016,9.335407
34.80520544,31.26501535,0.0,0.023283547,12-27-47,0.3261633,0.67527556,-0.17599964,105.0,-4.800193,-16.01844,-0.114852905,-0.15081787,-0.17332458,-2.8117332,1.0558016,9.335407
34.80520544,31.26501535,0.0,0.023283547,12-27-47,0.3261633,0.67527556,-0.17599964,105.0,-4.6112957,-15.829742,-0.114852905,-0.15081787,-0.17332458,-2.8117332,1.0558016,9.335407
34.80520544,31.26501535,0.0,0.023283547,12-27-47,0.3261633,0.67527556,-0.17599964,105.0,-4.6112957,-15.829742,-0.114852905,-0.15081787,-0.17332458,-2.8117332,1.0558016,9.335407
34.80520544,31.26501535,0.0,0.023283547,12-27-47,0.3261633,0.67527556,-0.17599964,105.0,-4.355651,-15.684073,-0.114852905,-0.15081787,-0.17332458,-2.8117332,1.0558016,9.335407
34.80520544,31.26501535,0.0,0.023283547,12-27-47,0.3261633,0.67527556,-0.17599964,105.0,-4.355651,-15.684073,-0.114852905,-0.15081787,-0.17332458,-2.8117332,1.0558016,9.335407
34.80520544,31.26501535,0.0,0.023283547,12-27-47,0.3261633,0.67527556,-0.17599964,105.0,-4.06926,-15.514126,-0.114852905,-0.15081787,-0.17332458,-2.8117332,1.0558016,9.335407
34.80520544,31.26501535,0.0,0.023283547,12-27-47,0.3261633,0.67527556,-0.17599964,105.0,-4.06926,-15.514126,-0.114852905,-0.15081787,-0.17332458,-2.8117332,1.0558016,9.335407
34.80520544,31.26501535,0.0,0.023283547,12-27-47,0.3261633,0.67527556,-0.17599964,105.0,-4.06926,-15.514126,-0.114852905,-0.15081787,-0.17332458,-2.8117332,1.0558016,9.335407
34.80520544,31.26501535,0.0,0.023283547,12-27-47,0.3261633,0.67527556,-0.17599964,105.0,-3.8160284,-15.428577,-0.114852905,-0.15081787,-0.17332458,-2.8117332,1.0558016,9.335407
34.80520544,31.26501535,0.0,0.023283547,12-27-47,0.7125497,-0.2389037,0.43910027,105.0,-3.5856376,-15.333665,-0.114852905,-0.15081787,-0.17332458,-2.8117332,1.0558016,9.335407
34.80520544,31.26501535,0.0,0.023283547,12-27-47,0.7125497,-0.2389037,0.43910027,105.0,-3.5856376,-15.333665,-0.114852905,-0.15081787,-0.17332458,-2.5474808,0.736958,9.441273
34.80520544,31.26501535,0.0,0.023283547,12-27-47,0.7125497,-0.2389037,0.43910027,104.0,-3.3771381,-15.21201,-0.114852905,-0.15081787,-0.17332458,-2.5474808,0.736958,9.441273
34.80520544,31.26501535,0.0,0.023283547,12-27-47,0.7125497,-0.2389037,0.43910027,104.0,-3.2387242,-15.142661,-0.114852905,-0.15081787,-0.17332458,-2.5474808,0.736958,9.441273
34.80520544,31.26501535,0.0,0.023283547,12-27-47,0.7125497,-0.2389037,0.43910027,104.0,-3.2387242,-15.142661,-0.114852905,-0.15081787,-0.17332458,-2.5474808,0.736958,9.441273
34.80520544,31.26501535,0.0,0.023283547,12-27-47,0.7125497,-0.2389037,0.43910027,104.0,-3.190025,-15.114642,-0.18087769,-0.081451416,0.059677124,-2.5474808,0.736958,9.441273
34.80520544,31.26501535,0.0,0.023283547,12-27-47,0.7125497,-0.2389037,0.43910027,104.0,-3.190025,-15.114642,-0.18087769,-0.081451416,0.059677124,-2.5474808,0.736958,9.441273
34.80520544,31.26501535,0.0,0.023283547,12-27-47,0.7125497,-0.2389037,0.43910027,104.0,-3.190025,-15.114642,-0.18087769,-0.081451416,0.059677124,-2.5474808,0.736958,9.441273
34.80520544,31.26501535,0.0,0.023283547,12-27-47,0.7125497,-0.2389037,0.43910027,104.0,-3.2073445,-15.15578,-0.18087769,-0.081451416,0.059677124,-2.5474808,0.736958,9.441273
34.80520544,31.26501535,0.0,0.023283547,12-27-47,0.7125497,-0.2389037,0.43910027,105.0,-3.4426918,-15.397017,-0.18087769,-0.081451416,0.059677124,-2.5474808,0.736958,9.441273
34.80520544,31.26501535,0.0,0.023283547,12-27-47,0.7125497,-0.2389037,0.43910027,105.0,-3.4426918,-15.397017,-0.18087769,-0.081451416,0.059677124,-2.5474808,0.736958,9.441273
34.80520544,31.26501535,0.0,0.023283547,12-27-47,0.7125497,-0.2389037,0.43910027,105.0,-3.4426918,-15.397017,-0.18087769,-0.081451416,0.059677124,-2.5474808,0.736958,9.441273
34.80520544,31.26501535,0.0,0.023283547,12-27-47,0.7125497,-0.2389037,0.43910027,104.0,-3.611113,-15.527472,-0.18087769,-0.081451416,0.059677124,-2.5474808,0.736958,9.441273
34.80520544,31.26501535,0.0,0.023283547,12-27-47,0.7125497,-0.2389037,0.43910027,104.0,-3.611113,-15.527472,-0.18087769,-0.081451416,0.059677124,-2.5474808,0.736958,9.441273
34.80520544,31.26501535,0.0,0.023283547,12-27-47,0.7125497,-0.2389037,0.43910027,104.0,-3.773811,-15.612071,-0.18087769,-0.081451416,0.059677124,-2.5474808,0.736958,9.441273
34.80520544,31.26501535,0.0,0.023283547,12-27-47,0.7125497,-0.2389037,0.43910027,104.0,-3.773811,-15.612071,-0.18087769,-0.081451416,0.059677124,-2.5474808,0.736958,9.441273
34.80520544,31.26501535,0.0,0.023283547,12-27-47,0.7125497,-0.2389037,0.43910027,104.0,-3.773811,-15.612071,-0.18087769,-0.081451416,0.059677124,-2.5474808,0.736958,9.441273
34.80520544,31.26501535,0.0,0.023283547,12-27-47,0.7125497,-0.2389037,0.43910027,104.0,-3.89851,-15.684212,-0.18087769,-0.081451416,0.059677124,-2.5474808,0.736958,9.441273
34.80520704,31.26501499,0.2823119,0.16496807,12-27-47,0.10894847,-0.56772137,-0.07025719,104.0,-4.101503,-15.996761,-0.18087769,-0.081451416,0.059677124,-2.5103781,0.6075818,9.460403
34.80520704,31.26501499,0.2823119,0.16496807,12-27-47,0.10894847,-0.56772137,-0.07025719,104.0,-4.101503,-15.996761,-0.18087769,-0.081451416,0.059677124,-2.5103781,0.6075818,9.460403
34.80520704,31.26501499,0.2823119,0.16496807,12-27-47,0.10894847,-0.56772137,-0.07025719,104.0,-4.101503,-15.996761,-0.18087769,-0.081451416,0.059677124,-2.5103781,0.6075818,9.460403
34.80520704,31.26501499,0.2823119,0.16496807,12-27-47,0.10894847,-0.56772137,-0.07025719,104.0,-4.1624007,-16.072924,-0.18087769,-0.081451416,0.059677124,-2.5103781,0.6075818,9.460403
34.80520704,31.26501499,0.2823119,0.16496807,12-27-47,0.10894847,-0.56772137,-0.07025719,104.0,-4.1624007,-16.072924,-0.18087769,-0.081451416,0.059677124,-2.5103781,0.6075818,9.460403
34.80520704,31.26501499,0.2823119,0.16496807,12-27-47,0.10894847,-0.56772137,-0.07025719,104.0,-4.2032943,-16.144238,0.087875366,0.09083557,0.021316528,-2.5103781,0.6075818,9.460403
34.80520704,31.26501499,0.2823119,0.16496807,12-27-47,0.10894847,-0.56772137,-0.07025719,104.0,-4.2032943,-16.144238,0.087875366,0.09083557,0.021316528,-2.5103781,0.6075818,9.460403
34.80520704,31.26501499,0.2823119,0.16496807,12-27-47,0.10894847,-0.56772137,-0.07025719,104.0,-4.2032943,-16.144238,0.087875366,0.09083557,0.021316528,-2.5103781,0.6075818,9.460403
34.80520704,31.26501499,0.2823119,0.16496807,12-27-47,0.10894847,-0.56772137,-0.07025719,104.0,-4.218593,-16.210075,0.087875366,0.09083557,0.021316528,-2.5103781,0.6075818,9.460403
34.80520704,31.26501499,0.2823119,0.16496807,12-27-47,0.10894847,-0.56772137,-0.07025719,105.0,-4.323443,-16.216139,0.087875366,0.09083557,0.021316528,-2.5103781,0.6075818,9.460403
34.80520704,31.26501499,0.2823119,0.16496807,12-27-47,0.10894847,-0.56772137,-0.07025719,105.0,-4.323443,-16.216139,0.087875366,0.09083557,0.021316528,-2.5103781,0.6075818,9.460403
34.80520704,31.26501499,0.2823119,0.16496807,12-27-47,0.10894847,-0.56772137,-0.07025719,105.0,-4.323443,-16.216139,0.087875366,0.09083557,0.021316528,-2.5103781,0.6075818,9.460403
34.80520704,31.26501499,0.2823119,0.16496807,12-27-47,0.10894847,-0.56772137,-0.07025719,104.0,-4.4179955,-16.193148,0.087875366,0.09083557,0.021316528,-2.5103781,0.6075818,9.460403
34.80520704,31.26501499,0.2823119,0.16496807,12-27-47,0.10894847,-0.56772137,-0.07025719,104.0,-4.4179955,-16.193148,0.087875366,0.09083557,0.021316528,-2.5103781,0.6075818,9.460403
34.80520704,31.26501499,0.2823119,0.16496807,12-27-47,0.10894847,-0.56772137,-0.07025719,104.0,-4.501942,-16.184343,0.087875366,0.09083557,0.021316528,-2.5103781,0.6075818,9.460403
34.80520704,31.26501499,0.2823119,0.16496807,12-27-47,0.10894847,-0.56772137,-0.07025719,104.0,-4.501942,-16.184343,0.087875366,0.09083557,0.021316528,-2.5103781,0.6075818,9.460403
34.80520704,31.26501499,0.2823119,0.16496807,12-27-47,0.10894847,-0.56772137,-0.07025719,104.0,-4.501942,-16.184343,0.087875366,0.09083557,0.021316528,-2.5103781,0.6075818,9.460403
34.80520704,31.26501499,0.2823119,0.16496807,12-27-47,0.10894847,-0.56772137,-0.07025719,104.0,-4.5897665,-16.145908,0.087875366,0.09083557,0.021316528,-2.5103781,0.6075818,9.460403
34.80520704,31.26501499,0.2823119,0.16496807,12-27-47,-0.25356507,-0.5393092,-0.4550295,104.0,-4.8329325,-16.005363,0.087875366,0.09083557,0.021316528,-2.5945766,0.73182464,9.428839
34.80520704,31.26501499,0.2823119,0.16496807,12-27-47,-0.25356507,-0.5393092,-0.4550295,104.0,-4.8329325,-16.005363,0.087875366,0.09083557,0.021316528,-2.5945766,0.73182464,9.428839
34.80520704,31.26501499,0.2823119,0.16496807,12-27-47,-0.25356507,-0.5393092,-0.4550295,104.0,-4.8329325,-16.005363,0.087875366,0.09083557,0.021316528,-2.5945766,0.73182464,9.428839
34.80520704,31.26501499,0.2823119,0.16496807,12-27-47,-0.25356507,-0.5393092,-0.4550295,104.0,-5.0146823,-15.979586,0.087875366,0.09083557,0.021316528,-2.5945766,0.73182464,9.428839
34.80520704,31.26501499,0.2823119,0.16496807,12-27-47,-0.25356507,-0.5393092,-0.4550295,104.0,-5.0146823,-15.979586,0.087875366,0.09083557,0.021316528,-2.5945766,0.73182464,9.428839
34.80520704,31.26501499,0.2823119,0.16496807,12-27-47,-0.25356507,-0.5393092,-0.4550295,104.0,-5.197887,-15.977765,0.09655762,-0.018554688,0.03062439,-2.5945766,0.73182464,9.428839
34.80520704,31.26501499,0.2823119,0.16496807,12-27-47,-0.25356507,-0.5393092,-0.4550295,104.0,-5.197887,-15.977765,0.09655762,-0.018554688,0.03062439,-2.5945766,0.73182464,9.428839
34.80520704,31.26501499,0.2823119,0.16496807,12-27-47,-0.25356507,-0.5393092,-0.4550295,104.0,-5.197887,-15.977765,0.09655762,-0.018554688,0.03062439,-2.5945766,0.73182464,9.428839
34.80520704,31.26501499,0.2823119,0.16496807,12-27-47,-0.25356507,-0.5393092,-0.4550295,104.0,-5.386116,-15.954372,0.09655762,-0.018554688,0.03062439,-2.5945766,0.73182464,9.428839
34.80520704,31.26501499,0.2823119,0.16496807,12-27-48,-0.25356507,-0.5393092,-0.4550295,104.0,-5.491058,-15.966984,0.09655762,-0.018554688,0.03062439,-2.5945766,0.73182464,9.428839
34.80520704,31.26501499,0.2823119,0.16496807,12-27-48,-0.25356507,-0.5393092,-0.4550295,104.0,-5.491058,-15.966984,0.09655762,-0.018554688,0.03062439,-2.5945766,0.73182464,9.428839
34.80520704,31.26501499,0.2823119,0.16496807,12-27-48,-0.25356507,-0.5393092,-0.4550295,104.0,-5.491058,-15.966984,0.09655762,-0.018554688,0.03062439,-2.5945766,0.73182464,9.428839
34.80520704,31.26501499,0.2823119,0.16496807,12-27-48,-0.25356507,-0.5393092,-0.4550295,104.0,-5.6442003,-15.946734,0.09655762,-0.018554688,0.03062439,-2.5945766,0.73182464,9.428839
34.80520704,31.26501499,0.2823119,0.16496807,12-27-48,-0.25356507,-0.5393092,-0.4550295,104.0,-5.8152227,-15.9087305,0.09655762,-0.018554688,0.03062439,-2.5945766,0.73182464,9.428839
34.80520704,31.26501499,0.2823119,0.16496807,12-27-48,-0.25356507,-0.5393092,-0.4550295,104.0,-5.8152227,-15.9087305,0.09655762,-0.018554688,0.03062439,-2.5945766,0.73182464,9.428839
34.80520704,31.26501499,0.2823119,0.16496807,12-27-48,-0.25356507,-0.5393092,-0.4550295,104.0,-5.8152227,-15.9087305,0.09655762,-0.018554688,0.03062439,-2.5945766,0.73182464,9.428839
34.80520704,31.26501499,0.2823119,0.16496807,12-27-48,-0.25356507,-0.5393092,-0.4550295,104.0,-5.9133797,-15.862588,0.09655762,-0.018554688,0.03062439,-2.5945766,0.73182464,9.428839
34.80520704,31.26501499,0.2823119,0.16496807,12-27-48,-0.25356507,-0.5393092,-0.4550295,104.0,-5.92371,-15.805127,0.09655762,-0.018554688,0.03062439,-2.5945766,0.73182464,9.428839
34.80520704,31.26501499,0.2823119,0.16496807,12-27-48,-0.10011721,0.18353659,-0.11654663,104.0,-5.9157443,-15.74302,0.09655762,-0.018554688,0.03062439,-2.5735319,0.8958754,9.420443
34.80520704,31.26501499,0.2823119,0.16496807,12-27-48,-0.10011721,0.18353659,-0.11654663,104.0,-5.9157443,-15.74302,0.09655762,-0.018554688,0.03062439,-2.5735319,0.8958754,9.420443
34.80520704,31.26501499,0.2823119,0.16496807,12-27-48,-0.10011721,0.18353659,-0.11654663,104.0,-5.9157443,-15.74302,0.09655762,-0.018554688,0.03062439,-2.5735319,0.8958754,9.420443
34.80520704,31.26501499,0.2823119,0.16496807,12-27-48,-0.10011721,0.18353659,-0.11654663,104.0,-5.922296,-15.647908,0.09655762,-0.018554688,0.03062439,-2.5735319,0.8958754,9.420443
34.80520704,31.26501499,0.2823119,0.16496807,12-27-48,-0.10011721,0.18353659,-0.11654663,104.0,-5.8895483,-15.479726,0.030593872,-0.049926758,0.03843689,-2.5735319,0.8958754,9.420443
34.80520704,31.26501499,0.2823119,0.16496807,12-27-48,-0.10011721,0.18353659,-0.11654663,104.0,-5.8895483,-15.479726,0.030593872,-0.049926758,0.03843689,-2.5735319,0.8958754,9.420443
34.80520704,31.26501499,0.2823119,0.16496807,12-27-48,-0.10011721,0.18353659,-0.11654663,104.0,-5.8895483,-15.479726,0.030593872,-0.049926758,0.03843689,-2.5735319,0.8958754,9.420443
34.80520704,31.26501499,0.2823119,0.16496807,12-27-48,-0.10011721,0.18353659,-0.11654663,104.0,-5.8103733,-15.312715,0.030593872,-0.049926758,0.03843689,-2.5735319,0.8958754,9.420443
34.80520704,31.26501499,0.2823119,0.16496807,12-27-48,-0.10011721,0.18353659,-0.11654663,104.0,-5.7169285,-15.20189,0.030593872,-0.049926758,0.03843689,-2.5735319,0.8958754,9.420443
34.80520704,31.26501499,0.2823119,0.16496807,12-27-48,-0.10011721,0.18353659,-0.11654663,104.0,-5.5863686,-15.133888,0.030593872,-0.049926758,0.03843689,-2.5735319,0.8958754,9.420443
34.80520704,31.26501499,0.2823119,0.16496807,12-27-48,-0.10011721,0.18353659,-0.11654663,104.0,-5.5863686,-15.133888,0.030593872,-0.049926758,0.03843689,-2.5735319,0.8958754,9.420443
34.80520704,31.26501499,0.2823119,0.16496807,12-27-48,-0.10011721,0.18353659,-0.11654663,104.0,-5.5863686,-15.133888,0.030593872,-0.049926758,0.03843689,-2.5735319,0.8958754,9.420443
34.80520704,31.26501499,0.2823119,0.16496807,12-27-48,-0.10011721,0.18353659,-0.11654663,104.0,-5.44246,-15.0057955,0.030593872,-0.049926758,0.03843689,-2.5735319,0.8958754,9.420443
34.80520704,31.26501499,0.2823119,0.16496807,12-27-48,-0.10011721,0.18353659,-0.11654663,104.0,-5.3230124,-14.812372,0.030593872,-0.049926758,0.03843689,-2.5735319,0.8958754,9.420443
34.80520704,31.26501499,0.2823119,0.16496807,12-27-48,-0.10011721,0.18353659,-0.11654663,104.0,-5.3230124,-14.812372,0.030593872,-0.049926758,0.03843689,-2.5735319,0.8958754,9.420443
34.80520704,31.26501499,0.2823119,0.16496807,12-27-48,-0.10011721,0.18353659,-0.11654663,104.0,-5.2357025,-14.579103,0.030593872,-0.049926758,0.03843689,-2.5735319,0.8958754,9.420443
34.80520704,31.26501499,0.2823119,0.16496807,12-27-48,-0.10011721,0.18353659,-0.11654663,104.0,-5.2357025,-14.579103,0.030593872,-0.049926758,0.03843689,-2.5735319,0.8958754,9.420443
34.80520704,31.26501499,0.2823119,0.16496807,12-27-48,-0.10011721,0.18353659,-0.11654663,104.0,-5.190915,-14.337074,0.030593872,-0.049926758,0.03843689,-2.5735319,0.8958754,9.420443
34.80520704,31.26501499,0.2823119,0.16496807,12-27-48,-0.47437596,-0.03156686,0.18239212,104.0,-5.1849203,-14.132489,0.030593872,-0.049926758,0.03843689,-2.4295714,0.9188834,9.456386
34.80520704,31.26501499,0.2823119,0.16496807,12-27-48,-0.47437596,-0.03156686,0.18239212,104.0,-5.219873,-13.930118,0.030593872,-0.049926758,0.03843689,-2.4295714,0.9188834,9.456386
34.80520704,31.26501499,0.2823119,0.16496807,12-27-48,-0.47437596,-0.03156686,0.18239212,104.0,-5.219873,-13.930118,0.030593872,-0.049926758,0.03843689,-2.4295714,0.9188834,9.456386
34.80520704,31.26501499,0.2823119,0.16496807,12-27-48,-0.47437596,-0.03156686,0.18239212,104.0,-5.2761035,-13.734817,0.030593872,-0.049926758,0.03843689,-2.4295714,0.9188834,9.456386
34.80520704,31.26501499,0.2823119,0.16496807,12-27-48,-0.47437596,-0.03156686,0.18239212,104.0,-5.2761035,-13.734817,0.030593872,-0.049926758,0.03843689,-2.4295714,0.9188834,9.456386
34.80520704,31.26501499,0.2823119,0.16496807,12-27-48,-0.47437596,-0.03156686,0.18239212,104.0,-5.2761035,-13.734817,-0.035354614,-0.15449524,-0.020996094,-2.4295714,0.9188834,9.456386
34.80520704,31.26501499,0.2823119,0.16496807,12-27-48,-0.47437596,-0.03156686,0.18239212,104.0,-5.317112,-13.608925,-0.035354614,-0.15449524,-0.020996094,-2.4295714,0.9188834,9.456386
34.80520704,31.26501499,0.2823119,0.16496807,12-27-48,-0.47437596,-0.03156686,0.18239212,104.0,-5.317112,-13.608925,-0.035354614,-0.15449524,-0.020996094,-2.4295714,0.9188834,9.456386
34.80520704,31.26501499,0.2823119,0.16496807,12-27-48,-0.47437596,-0.03156686,0.18239212,105.0,-5.331205,-13.5187235,-0.035354614,-0.15449524,-0.020996094,-2.4295714,0.9188834,9.456386
34.80520704,31.26501499,0.2823119,0.16496807,12-27-48,-0.47437596,-0.03156686,0.18239212,105.0,-5.343571,-13.470395,-0.035354614,-0.15449524,-0.020996094,-2.4295714,0.9188834,9.456386
34.80520704,31.26501499,0.2823119,0.16496807,12-27-48,-0.47437596,-0.03156686,0.18239212,105.0,-5.343571,-13.470395,-0.035354614,-0.15449524,-0.020996094,-2.4295714,0.9188834,9.456386
34.80520704,31.26501499,0.2823119,0.16496807,12-27-48,-0.47437596,-0.03156686,0.18239212,105.0,-5.3464365,-13.423208,-0.035354614,-0.15449524,-0.020996094,-2.4295714,0.9188834,9.456386
34.80520704,31.26501499,0.2823119,0.16496807,12-27-48,-0.47437596,-0.03156686,0.18239212,105.0,-5.322425,-13.361189,-0.035354614,-0.15449524,-0.020996094,-2.4295714,0.9188834,9.456386
34.80520704,31.26501499,0.2823119,0.16496807,12-27-48,-0.47437596,-0.03156686,0.18239212,105.0,-5.322425,-13.361189,-0.035354614,-0.15449524,-0.020996094,-2.4295714,0.9188834,9.456386
34.80520704,31.26501499,0.2823119,0.16496807,12-27-48,-0.47437596,-0.03156686,0.18239212,105.0,-5.31161,-13.3839,-0.035354614,-0.15449524,-0.020996094,-2.4295714,0.9188834,9.456386
34.80520704,31.26501499,0.2823119,0.16496807,12-27-48,-0.47437596,-0.03156686,0.18239212,105.0,-5.31161,-13.3839,-0.035354614,-0.15449524,-0.020996094,-2.4295714,0.9188834,9.456386
34.80520704,31.26501499,0.2823119,0.16496807,12-27-48,-0.47437596,-0.03156686,0.18239212,105.0,-5.31161,-13.3839,-0.035354614,-0.15449524,-0.020996094,-2.4295714,0.9188834,9.456386
34.80520704,31.26501499,0.2823119,0.16496807,12-27-48,-0.47437596,-0.03156686,0.18239212,105.0,-5.3296156,-13.455417,-0.035354614,-0.15449524,-0.020996094,-2.4295714,0.9188834,9.456386
34.80520704,31.26501499,0.2823119,0.16496807,12-27-48,0.5789716,0.58341163,0.11503124,105.0,-5.3425026,-13.481416,-0.035354614,-0.15449524,-0.020996094,-2.2214067,0.8929867,9.509906
34.80520704,31.26501499,0.2823119,0.16496807,12-27-48,0.5789716,0.58341163,0.11503124,105.0,-5.3504386,-13.528044,-0.035354614,-0.15449524,-0.020996094,-2.2214067,0.8929867,9.509906
34.80520704,31.26501499,0.2823119,0.16496807,12-27-48,0.5789716,0.58341163,0.11503124,105.0,-5.3504386,-13.528044,-0.035354614,-0.15449524,-0.020996094,-2.2214067,0.8929867,9.509906
34.80520704,31.26501499,0.2823119,0.16496807,12-27-48,0.5789716,0.58341163,0.11503124,105.0,-5.3713655,-13.646507,-0.035354614,-0.15449524,-0.020996094,-2.2214067,0.8929867,9.509906
34.80520704,31.26501499,0.2823119,0.16496807,12-27-48,0.5789716,0.58341163,0.11503124,105.0,-5.3713655,-13.646507,-0.035354614,-0.15449524,-0.020996094,-2.2214067,0.8929867,9.509906
34.80520704,31.26501499,0.2823119,0.16496807,12-27-48,0.5789716,0.58341163,0.11503124,105.0,-5.3844056,-13.784161,0.012329102,0.025314331,-0.085128784,-2.2214067,0.8929867,9.509906
34.80520704,31.26501499,0.2823119,0.16496807,12-27-48,0.5789716,0.58341163,0.11503124,105.0,-5.3844056,-13.784161,0.012329102,0.025314331,-0.085128784,-2.2214067,0.8929867,9.509906
34.80520704,31.26501499,0.2823119,0.16496807,12-27-48,0.5789716,0.58341163,0.11503124,105.0,-5.3844056,-13.784161,0.012329102,0.025314331,-0.085128784,-2.2214067,0.8929867,9.509906
34.80520704,31.26501499,0.2823119,0.16496807,12-27-48,0.5789716,0.58341163,0.11503124,105.0,-5.358475,-13.89548,0.012329102,0.025314331,-0.085128784,-2.2214067,0.8929867,9.509906
34.80520704,31.26501499,0.2823119,0.16496807,12-27-48,0.5789716,0.58341163,0.11503124,105.0,-5.2300715,-14.150745,0.012329102,0.025314331,-0.085128784,-2.2214067,0.8929867,9.509906
34.80520704,31.26501499,0.2823119,0.16496807,12-27-48,0.5789716,0.58341163,0.11503124,105.0,-5.2300715,-14.150745,0.012329102,0.025314331,-0.085128784,-2.2214067,0.8929867,9.509906
34.80520704,31.26501499,0.2823119,0.16496807,12-27-48,0.5789716,0.58341163,0.11503124,105.0,-5.2300715,-14.150745,0.012329102,0.025314331,-0.085128784,-2.2214067,0.8929867,9.509906
34.80520704,31.26501499,0.2823119,0.16496807,12-27-48,0.5789716,0.58341163,0.11503124,105.0,-5.1643624,-14.284713,0.012329102,0.025314331,-0.085128784,-2.2214067,0.8929867,9.509906
34.80520704,31.26501499,0.2823119,0.16496807,12-27-48,0.5789716,0.58341163,0.11503124,105.0,-5.1643624,-14.284713,0.012329102,0.025314331,-0.085128784,-2.2214067,0.8929867,9.509906
34.80520704,31.26501499,0.2823119,0.16496807,12-27-48,0.5789716,0.58341163,0.11503124,105.0,-5.102597,-14.411782,0.012329102,0.025314331,-0.085128784,-2.2214067,0.8929867,9.509906
34.80520704,31.26501499,0.2823119,0.16496807,12-27-48,0.5789716,0.58341163,0.11503124,105.0,-5.102597,-14.411782,0.012329102,0.025314331,-0.085128784,-2.2214067,0.8929867,9.509906
34.80520704,31.26501499,0.2823119,0.16496807,12-27-48,0.5789716,0.58341163,0.11503124,105.0,-5.102597,-14.411782,0.012329102,0.025314331,-0.085128784,-2.2214067,0.8929867,9.509906
34.80521309,31.26501015,0.6307139,0.94372773,12-27-48,0.11639094,0.20087981,0.09285545,105.0,-4.959008,-14.584075,0.012329102,0.025314331,-0.085128784,-2.2795732,0.86314017,9.498891
34.80521309,31.26501015,0.6307139,0.94372773,12-27-48,0.11639094,0.20087981,0.09285545,105.0,-4.959008,-14.584075,0.012329102,0.025314331,-0.085128784,-2.2795732,0.86314017,9.498891
34.80521309,31.26501015,0.6307139,0.94372773,12-27-48,0.11639094,0.20087981,0.09285545,105.0,-4.959008,-14.584075,0.012329102,0.025314331,-0.085128784,-2.2795732,0.86314017,9.498891
34.80521309,31.26501015,0.6307139,0.94372773,12-27-48,0.11639094,0.20087981,0.09285545,105.0,-4.959008,-14.584075,0.012329102,0.025314331,-0.085128784,-2.2795732,0.86314017,9.498891
34.80521309,31.26501015,0.6307139,0.94372773,12-27-48,0.11639094,0.20087981,0.09285545,105.0,-4.845618,-14.602361,0.012329102,0.025314331,-0.085128784,-2.2795732,0.86314017,9.498891
34.80521309,31.26501015,0.6307139,0.94372773,12-27-48,0.11639094,0.20087981,0.09285545,105.0,-4.845618,-14.602361,0.012329102,0.025314331,-0.085128784,-2.2795732,0.86314017,9.498891
34.80521309,31.26501015,0.6307139,0.94372773,12-27-48,0.11639094,0.20087981,0.09285545,106.0,-4.7927117,-14.632809,-0.052734375,0.07203674,-0.010070801,-2.2795732,0.86314017,9.498891
34.80521309,31.26501015,0.6307139,0.94372773,12-27-48,0.11639094,0.20087981,0.09285545,106.0,-4.7927117,-14.632809,-0.052734375,0.07203674,-0.010070801,-2.2795732,0.86314017,9.498891
34.80521309,31.26501015,0.6307139,0.94372773,12-27-48,0.11639094,0.20087981,0.09285545,106.0,-4.7927117,-14.632809,-0.052734375,0.07203674,-0.010070801,-2.2795732,0.86314017,9.498891
34.80521309,31.26501015,0.6307139,0.94372773,12-27-48,0.11639094,0.20087981,0.09285545,105.0,-4.5875373,-14.697384,-0.052734375,0.07203674,-0.010070801,-2.2795732,0.86314017,9.498891
34.80521309,31.26501015,0.6307139,0.94372773,12-27-48,0.11639094,0.20087981,0.09285545,105.0,-4.5519867,-14.746213,-0.052734375,0.07203674,-0.010070801,-2.2795732,0.86314017,9.498891
34.80521309,31.26501015,0.6307139,0.94372773,12-27-48,0.11639094,0.20087981,0.09285545,105.0,-4.5519867,-14.746213,-0.052734375,0.07203674,-0.010070801,-2.2795732,0.86314017,9.498891
34.80521309,31.26501015,0.6307139,0.94372773,12-27-48,0.11639094,0.20087981,0.09285545,105.0,-4.5519867,-14.746213,-0.052734375,0.07203674,-0.010070801,-2.2795732,0.86314017,9.498891
34.80521309,31.26501015,0.6307139,0.94372773,12-27-48,0.11639094,0.20087981,0.09285545,105.0,-4.569369,-14.797943,-0.052734375,0.07203674,-0.010070801,-2.2795732,0.86314017,9.498891
34.80521309,31.26501015,0.6307139,0.94372773,12-27-48,0.11639094,0.20087981,0.09285545,105.0,-4.569369,-14.797943,-0.052734375,0.07203674,-0.010070801,-2.2795732,0.86314017,9.498891
34.80521309,31.26501015,0.6307139,0.94372773,12-27-48,0.11639094,0.20087981,0.09285545,105.0,-4.554714,-14.857774,-0.052734375,0.07203674,-0.010070801,-2.2795732,0.86314017,9.498891
34.80521309,31.26501015,0.6307139,0.94372773,12-27-48,0.11639094,0.20087981,0.09285545,105.0,-4.554714,-14.857774,-0.052734375,0.07203674,-0.010070801,-2.2795732,0.86314017,9.498891
34.80521309,31.26501015,0.6307139,0.94372773,12-27-48,0.11639094,0.20087981,0.09285545,105.0,-4.554714,-14.857774,-0.052734375,0.07203674,-0.010070801,-2.2795732,0.86314017,9.498891
34.80521309,31.26501015,0.6307139,0.94372773,12-27-48,-0.16534138,-0.60689855,0.21308422,105.0,-4.5185137,-15.021567,-0.052734375,0.07203674,-0.010070801,-2.4345405,0.768562,9.468512
34.80521309,31.26501015,0.6307139,0.94372773,12-27-48,-0.16534138,-0.60689855,0.21308422,105.0,-4.54441,-15.290977,-0.052734375,0.07203674,-0.010070801,-2.4345405,0.768562,9.468512
34.80521309,31.26501015,0.6307139,0.94372773,12-27-48,-0.16534138,-0.60689855,0.21308422,105.0,-4.54441,-15.290977,-0.052734375,0.07203674,-0.010070801,-2.4345405,0.768562,9.468512
34.80521309,31.26501015,0.6307139,0.94372773,12-27-48,-0.16534138,-0.60689855,0.21308422,105.0,-4.54441,-15.290977,-0.052734375,0.07203674,-0.010070801,-2.4345405,0.768562,9.468512
34.80521309,31.26501015,0.6307139,0.94372773,12-27-48,-0.16534138,-0.60689855,0.21308422,104.0,-4.5702853,-15.298281,-0.052734375,0.07203674,-0.010070801,-2.4345405,0.768562,9.468512
34.80521309,31.26501015,0.6307139,0.94372773,12-27-48,-0.16534138,-0.60689855,0.21308422,104.0,-4.5702853,-15.298281,-0.052734375,0.07203674,-0.010070801,-2.4345405,0.768562,9.468512
34.80521309,31.26501015,0.6307139,0.94372773,12-27-48,-0.16534138,-0.60689855,0.21308422,104.0,-4.615976,-15.299323,-0.015808105,0.05873108,0.12057495,-2.4345405,0.768562,9.468512
34.80521309,31.26501015,0.6307139,0.94372773,12-27-48,-0.16534138,-0.60689855,0.21308422,104.0,-4.615976,-15.299323,-0.015808105,0.05873108,0.12057495,-2.4345405,0.768562,9.468512
34.80521309,31.26501015,0.6307139,0.94372773,12-27-48,-0.16534138,-0.60689855,0.21308422,104.0,-4.615976,-15.299323,-0.015808105,0.05873108,0.12057495,-2.4345405,0.768562,9.468512
34.80521309,31.26501015,0.6307139,0.94372773,12-27-48,-0.16534138,-0.60689855,0.21308422,104.0,-4.8601165,-15.228115,-0.015808105,0.05873108,0.12057495,-2.4345405,0.768562,9.468512
34.80521309,31.26501015,0.6307139,0.94372773,12-27-49,-0.16534138,-0.60689855,0.21308422,104.0,-4.993827,-15.184501,-0.015808105,0.05873108,0.12057495,-2.4345405,0.768562,9.468512
