Longitude,Latitude,Speed,Distance,Time,Acc X,Acc Y,Acc Z,Heading,Pitch,Roll,gyro_x,gyro_y,gyro_z,gravity_x,gravity_y,gravity_z
34.80521637,31.26506885,0.0,1.451521,12-17-40,0.16755104,0.016641974,-0.3687954,111.0,-4.7716155,-16.323805,0.022994995,-0.0052490234,0.015838623,-2.7739031,0.7854615,9.373307
34.80521637,31.26506885,0.0,1.451521,12-17-40,0.14266443,0.026449561,0.22118759,110.0,-4.316165,-17.798222,-0.044158936,0.11300659,0.04322815,-2.6885223,0.7898501,9.397785
34.80521637,31.26506885,0.0,1.451521,12-17-40,-0.06930399,0.008540869,-0.0051498413,109.0,-4.213282,-18.027903,-0.044158936,0.11300659,0.04322815,-2.8754818,0.73167354,9.3470125
34.80521637,31.26506885,0.0,1.451521,12-17-40,-0.06930399,0.008540869,-0.0051498413,109.0,-4.213282,-18.027903,-0.044158936,0.11300659,0.04322815,-2.8754818,0.73167354,9.3470125
34.80521637,31.26506885,0.0,1.451521,12-17-40,-0.06930399,0.008540869,-0.0051498413,109.0,-4.213282,-18.027903,-0.044158936,0.11300659,0.04322815,-2.8754818,0.73167354,9.3470125
34.80521637,31.26506885,0.0,1.451521,12-17-40,-0.06930399,0.008540869,-0.0051498413,109.0,-4.213282,-18.027903,-0.044158936,0.11300659,0.04322815,-2.8754818,0.73167354,9.3470125
34.80521631,31.26506886,0.0,0.005820913,12-17-40,-0.008079767,-0.03125,0.04707241,109.0,-4.1441083,-18.03851,-0.040374756,0.046554565,0.06613159,-3.001153,0.6707056,9.312015
34.80521631,31.26506886,0.0,0.005820913,12-17-40,-0.008079767,-0.03125,0.04707241,109.0,-4.1441083,-18.03851,-0.040374756,0.046554565,0.06613159,-3.001153,0.6707056,9.312015
34.80521631,31.26506886,0.0,0.005820913,12-17-40,-0.008079767,-0.03125,0.04707241,109.0,-4.1441083,-18.03851,-0.040374756,0.046554565,0.06613159,-3.001153,0.6707056,9.312015
34.80521631,31.26506886,0.0,0.005820913,12-17-40,-0.008079767,-0.03125,0.04707241,109.0,-4.1520348,-18.111425,-0.040374756,0.046554565,0.06613159,-3.001153,0.6707056,9.312015
34.80521631,31.26506886,0.0,0.005820913,12-17-40,-0.008079767,-0.03125,0.04707241,109.0,-4.0851707,-18.159462,-0.040374756,0.046554565,0.06613159,-3.001153,0.6707056,9.312015
34.80521631,31.26506886,0.0,0.005820913,12-17-40,-0.008079767,-0.03125,0.04707241,109.0,-4.0844803,-18.094099,-0.040374756,0.046554565,0.06613159,-3.001153,0.6707056,9.312015
34.80521631,31.26506886,0.0,0.005820913,12-17-40,-0.008079767,-0.03125,0.04707241,109.0,-4.0844803,-18.094099,-0.040374756,0.046554565,0.06613159,-3.001153,0.6707056,9.312015
34.80521631,31.26506886,0.0,0.005820913,12-17-40,-0.008079767,-0.03125,0.04707241,109.0,-4.0844803,-18.094099,-0.040374756,0.046554565,0.06613159,-3.001153,0.6707056,9.312015
34.80521631,31.26506886,0.0,0.005820913,12-17-40,-0.103992224,-0.026438177,-0.022679329,109.0,-4.0883617,-17.90814,-0.0026397705,-0.0060424805,0.012023926,-3.0616148,0.6437621,9.294217
34.80521631,31.26506886,0.0,0.005820913,12-17-40,-0.103992224,-0.026438177,-0.022679329,109.0,-4.20651,-17.695839,-0.0026397705,-0.0060424805,0.012023926,-3.0616148,0.6437621,9.294217
34.80521631,31.26506886,0.0,0.005820913,12-17-40,-0.103992224,-0.026438177,-0.022679329,109.0,-4.20651,-17.695839,-0.0026397705,-0.0060424805,0.012023926,-3.0616148,0.6437621,9.294217
34.80521631,31.26506886,0.0,0.005820913,12-17-40,-0.103992224,-0.026438177,-0.022679329,109.0,-4.20651,-17.695839,-0.0026397705,-0.0060424805,0.012023926,-3.0616148,0.6437621,9.294217
34.80521631,31.26506886,0.0,0.005820913,12-17-41,-0.103992224,-0.026438177,-0.022679329,110.0,-4.398696,-17.068386,-0.0026397705,-0.0060424805,0.012023926,-3.0616148,0.6437621,9.294217
34.80521631,31.26506886,0.0,0.005820913,12-17-41,-0.103992224,-0.026438177,-0.022679329,110.0,-4.396657,-16.86088,-0.0026397705,-0.0060424805,0.012023926,-3.0616148,0.6437621,9.294217
34.80521631,31.26506886,0.0,0.005820913,12-17-41,-0.103992224,-0.026438177,-0.022679329,110.0,-4.396657,-16.86088,-0.0026397705,-0.0060424805,0.012023926,-3.0616148,0.6437621,9.294217
34.80521631,31.26506886,0.0,0.005820913,12-17-41,-0.103992224,-0.026438177,-0.022679329,110.0,-4.396657,-16.86088,-0.0026397705,-0.0060424805,0.012023926,-3.0616148,0.6437621,9.294217
34.80521631,31.26506886,0.0,0.005820913,12-17-41,-0.78990364,0.19778496,1.2254782,110.0,-4.700015,-15.747534,0.018417358,-0.15818787,-0.0137786865,-2.9001896,0.6720182,9.343858
34.80521631,31.26506886,0.0,0.005820913,12-17-41,-0.78990364,0.19778496,1.2254782,111.0,-4.8872895,-15.535934,0.018417358,-0.15818787,-0.0137786865,-2.9001896,0.6720182,9.343858
34.80521631,31.26506886,0.0,0.005820913,12-17-41,-0.78990364,0.19778496,1.2254782,111.0,-4.8872895,-15.535934,0.018417358,-0.15818787,-0.0137786865,-2.9001896,0.6720182,9.343858
34.80521631,31.26506886,0.0,0.005820913,12-17-41,-0.78990364,0.19778496,1.2254782,111.0,-4.8872895,-15.535934,0.018417358,-0.15818787,-0.0137786865,-2.9001896,0.6720182,9.343858
34.80521631,31.26506886,0.0,0.005820913,12-17-41,-0.78990364,0.19778496,1.2254782,112.0,-5.5910263,-14.829534,0.018417358,-0.15818787,-0.0137786865,-2.9001896,0.6720182,9.343858
34.80521631,31.26506886,0.0,0.005820913,12-17-41,-0.78990364,0.19778496,1.2254782,112.0,-5.5910263,-14.829534,0.018417358,-0.15818787,-0.0137786865,-2.9001896,0.6720182,9.343858
34.80521631,31.26506886,0.0,0.005820913,12-17-41,-0.78990364,0.19778496,1.2254782,112.0,-5.5910263,-14.829534,0.018417358,-0.15818787,-0.0137786865,-2.9001896,0.6720182,9.343858
34.80521631,31.26506886,0.0,0.005820913,12-17-41,-0.78990364,0.19778496,1.2254782,112.0,-5.5910263,-14.829534,0.018417358,-0.15818787,-0.0137786865,-2.9001896,0.6720182,9.343858
34.80521631,31.26506886,0.0,0.005820913,12-17-41,-0.008756638,-0.05384803,0.97160435,111.0,-5.095754,-15.177425,0.12915039,-0.119262695,-0.11480713,-2.6516454,0.7582856,9.410853
34.80521631,31.26506886,0.0,0.005820913,12-17-41,-0.008756638,-0.05384803,0.97160435,111.0,-5.095754,-15.177425,0.12915039,-0.119262695,-0.11480713,-2.6516454,0.7582856,9.410853
34.80521631,31.26506886,0.0,0.005820913,12-17-41,-0.008756638,-0.05384803,0.97160435,111.0,-5.095754,-15.177425,0.12915039,-0.119262695,-0.11480713,-2.6516454,0.7582856,9.410853
34.80521631,31.26506886,0.0,0.005820913,12-17-41,-0.008756638,-0.05384803,0.97160435,111.0,-4.940371,-15.384298,0.12915039,-0.119262695,-0.11480713,-2.6516454,0.7582856,9.410853
34.80521631,31.26506886,0.0,0.005820913,12-17-41,-0.008756638,-0.05384803,0.97160435,110.0,-4.169994,-16.195427,0.12915039,-0.119262695,-0.11480713,-2.6516454,0.7582856,9.410853
34.80521631,31.26506886,0.0,0.005820913,12-17-41,-0.008756638,-0.05384803,0.97160435,110.0,-4.169994,-16.195427,0.12915039,-0.119262695,-0.11480713,-2.6516454,0.7582856,9.410853
34.80521631,31.26506886,0.0,0.005820913,12-17-41,-0.008756638,-0.05384803,0.97160435,111.0,-4.0705748,-16.353342,0.12915039,-0.119262695,-0.11480713,-2.6516454,0.7582856,9.410853
34.80521631,31.26506886,0.0,0.005820913,12-17-41,-0.008756638,-0.05384803,0.97160435,111.0,-4.0705748,-16.353342,0.12915039,-0.119262695,-0.11480713,-2.6516454,0.7582856,9.410853
34.80521631,31.26506886,0.0,0.005820913,12-17-41,-0.065522194,-0.22041786,0.53518677,110.0,-3.7704976,-16.75185,-0.16416931,0.16030884,0.09863281,-2.7202685,0.69565177,9.396094
34.80521631,31.26506886,0.0,0.005820913,12-17-41,-0.065522194,-0.22041786,0.53518677,110.0,-3.7704976,-16.75185,-0.16416931,0.16030884,0.09863281,-2.7202685,0.69565177,9.396094
34.80521631,31.26506886,0.0,0.005820913,12-17-41,-0.065522194,-0.22041786,0.53518677,111.0,-3.8205752,-16.614496,-0.16416931,0.16030884,0.09863281,-2.7202685,0.69565177,9.396094
34.80521631,31.26506886,0.0,0.005820913,12-17-41,-0.065522194,-0.22041786,0.53518677,111.0,-3.8205752,-16.614496,-0.16416931,0.16030884,0.09863281,-2.7202685,0.69565177,9.396094
34.80521631,31.26506886,0.0,0.005820913,12-17-41,-0.065522194,-0.22041786,0.53518677,112.0,-3.9712412,-16.529327,-0.16416931,0.16030884,0.09863281,-2.7202685,0.69565177,9.396094
34.80521631,31.26506886,0.0,0.005820913,12-17-41,-0.065522194,-0.22041786,0.53518677,112.0,-3.9654856,-16.38039,-0.16416931,0.16030884,0.09863281,-2.7202685,0.69565177,9.396094
34.80521631,31.26506886,0.0,0.005820913,12-17-41,-0.065522194,-0.22041786,0.53518677,112.0,-3.9654856,-16.38039,-0.16416931,0.16030884,0.09863281,-2.7202685,0.69565177,9.396094
34.80521631,31.26506886,0.0,0.005820913,12-17-41,-0.065522194,-0.22041786,0.53518677,112.0,-3.9654856,-16.38039,-0.16416931,0.16030884,0.09863281,-2.7202685,0.69565177,9.396094
34.80521631,31.26506885,0.0,0.0057143434,12-17-41,0.31982994,-0.35037184,-0.054893494,110.0,-3.3946488,-15.990329,0.01234436,-0.046569824,-0.041122437,-2.8061173,0.5549367,9.380199
34.80521631,31.26506885,0.0,0.0057143434,12-17-41,0.31982994,-0.35037184,-0.054893494,110.0,-3.5808673,-15.821983,0.01234436,-0.046569824,-0.041122437,-2.8061173,0.5549367,9.380199
34.80521631,31.26506885,0.0,0.0057143434,12-17-41,0.31982994,-0.35037184,-0.054893494,110.0,-3.5808673,-15.821983,0.01234436,-0.046569824,-0.041122437,-2.8061173,0.5549367,9.380199
34.80521631,31.26506885,0.0,0.0057143434,12-17-41,0.31982994,-0.35037184,-0.054893494,110.0,-3.5808673,-15.821983,0.01234436,-0.046569824,-0.041122437,-2.8061173,0.5549367,9.380199
34.80521631,31.26506885,0.0,0.0057143434,12-17-41,0.31982994,-0.35037184,-0.054893494,111.0,-4.3228974,-16.538193,0.01234436,-0.046569824,-0.041122437,-2.8061173,0.5549367,9.380199
34.80521631,31.26506885,0.0,0.0057143434,12-17-41,0.31982994,-0.35037184,-0.054893494,110.0,-4.4146314,-16.633757,0.01234436,-0.046569824,-0.041122437,-2.8061173,0.5549367,9.380199
34.80521631,31.26506885,0.0,0.0057143434,12-17-41,0.31982994,-0.35037184,-0.054893494,110.0,-4.4146314,-16.633757,0.01234436,-0.046569824,-0.041122437,-2.8061173,0.5549367,9.380199
34.80521631,31.26506885,0.0,0.0057143434,12-17-41,0.31982994,-0.35037184,-0.054893494,110.0,-4.4146314,-16.633757,0.01234436,-0.046569824,-0.041122437,-2.8061173,0.5549367,9.380199
34.80521631,31.26506885,0.0,0.0057143434,12-17-41,0.7293153,0.0953629,-0.14962292,109.0,-4.9341283,-16.615116,0.038375854,0.07647705,0.113723755,-2.787937,0.6314255,9.380783
34.80521631,31.26506885,0.0,0.0057143434,12-17-41,0.7293153,0.0953629,-0.14962292,109.0,-4.930177,-16.6368,0.038375854,0.07647705,0.113723755,-2.787937,0.6314255,9.380783
34.80521631,31.26506885,0.0,0.0057143434,12-17-41,0.7293153,0.0953629,-0.14962292,109.0,-4.930177,-16.6368,0.038375854,0.07647705,0.113723755,-2.787937,0.6314255,9.380783
34.80521631,31.26506885,0.0,0.0057143434,12-17-41,0.7293153,0.0953629,-0.14962292,108.0,-4.564905,-16.473207,0.038375854,0.07647705,0.113723755,-2.787937,0.6314255,9.380783
34.80521631,31.26506885,0.0,0.0057143434,12-17-42,0.7293153,0.0953629,-0.14962292,109.0,-4.064671,-16.408804,0.038375854,0.07647705,0.113723755,-2.787937,0.6314255,9.380783
34.80521631,31.26506885,0.0,0.0057143434,12-17-42,0.7293153,0.0953629,-0.14962292,110.0,-4.10023,-16.479174,0.038375854,0.07647705,0.113723755,-2.787937,0.6314255,9.380783
34.80521631,31.26506885,0.0,0.0057143434,12-17-42,0.7293153,0.0953629,-0.14962292,110.0,-4.10023,-16.479174,0.038375854,0.07647705,0.113723755,-2.787937,0.6314255,9.380783
34.80521631,31.26506885,0.0,0.0057143434,12-17-42,0.7293153,0.0953629,-0.14962292,110.0,-4.1304502,-16.609867,0.038375854,0.07647705,0.113723755,-2.787937,0.6314255,9.380783
34.80521631,31.26506885,0.0,0.0057143434,12-17-42,0.57503676,0.47198284,-0.24959087,107.0,-3.906681,-17.131817,-0.013916016,0.034362793,-0.11663818,-2.856439,0.6820999,9.356595
34.80521631,31.26506885,0.0,0.0057143434,12-17-42,0.57503676,0.47198284,-0.24959087,107.0,-3.906681,-17.131817,-0.013916016,0.034362793,-0.11663818,-2.856439,0.6820999,9.356595
34.80521631,31.26506885,0.0,0.0057143434,12-17-42,0.57503676,0.47198284,-0.24959087,107.0,-3.906681,-17.131817,-0.013916016,0.034362793,-0.11663818,-2.856439,0.6820999,9.356595
34.80521631,31.26506885,0.0,0.0057143434,12-17-42,0.57503676,0.47198284,-0.24959087,107.0,-3.7095218,-16.824146,-0.013916016,0.034362793,-0.11663818,-2.856439,0.6820999,9.356595
34.80521631,31.26506885,0.0,0.0057143434,12-17-42,0.57503676,0.47198284,-0.24959087,109.0,-3.3319292,-17.045588,-0.013916016,0.034362793,-0.11663818,-2.856439,0.6820999,9.356595
34.80521631,31.26506885,0.0,0.0057143434,12-17-42,0.57503676,0.47198284,-0.24959087,109.0,-3.3319292,-17.045588,-0.013916016,0.034362793,-0.11663818,-2.856439,0.6820999,9.356595
34.80521631,31.26506885,0.0,0.0057143434,12-17-42,0.57503676,0.47198284,-0.24959087,109.0,-3.3319292,-17.045588,-0.013916016,0.034362793,-0.11663818,-2.856439,0.6820999,9.356595
34.80521631,31.26506885,0.0,0.0057143434,12-17-42,0.57503676,0.47198284,-0.24959087,109.0,-3.0837517,-17.235497,-0.013916016,0.034362793,-0.11663818,-2.856439,0.6820999,9.356595
34.80521631,31.26506885,0.0,0.0057143434,12-17-42,0.46391034,0.639836,-0.3859253,113.0,-2.3016148,-17.0458,-0.11253357,0.045013428,-0.08390808,-2.927965,0.54144526,9.343674
34.80521631,31.26506885,0.0,0.0057143434,12-17-42,0.46391034,0.639836,-0.3859253,113.0,-2.3016148,-17.0458,-0.11253357,0.045013428,-0.08390808,-2.927965,0.54144526,9.343674
34.80521631,31.26506885,0.0,0.0057143434,12-17-42,0.46391034,0.639836,-0.3859253,115.0,-2.035607,-16.77888,-0.11253357,0.045013428,-0.08390808,-2.927965,0.54144526,9.343674
34.80521631,31.26506885,0.0,0.0057143434,12-17-42,0.46391034,0.639836,-0.3859253,115.0,-2.035607,-16.77888,-0.11253357,0.045013428,-0.08390808,-2.927965,0.54144526,9.343674
34.80521631,31.26506885,0.0,0.0057143434,12-17-42,0.46391034,0.639836,-0.3859253,123.0,-2.2364447,-16.228935,-0.11253357,0.045013428,-0.08390808,-2.927965,0.54144526,9.343674
34.80521631,31.26506885,0.0,0.0057143434,12-17-42,0.46391034,0.639836,-0.3859253,123.0,-2.2364447,-16.228935,-0.11253357,0.045013428,-0.08390808,-2.927965,0.54144526,9.343674
34.80521631,31.26506885,0.0,0.0057143434,12-17-42,0.46391034,0.639836,-0.3859253,123.0,-2.2364447,-16.228935,-0.11253357,0.045013428,-0.08390808,-2.927965,0.54144526,9.343674
34.80521631,31.26506885,0.0,0.0057143434,12-17-42,0.46391034,0.639836,-0.3859253,123.0,-2.2672691,-15.817482,-0.11253357,0.045013428,-0.08390808,-2.927965,0.54144526,9.343674
34.80521631,31.26506885,0.0,0.0057143434,12-17-42,-0.4118731,-0.9335307,-1.2002764,120.0,-2.8338232,-15.405635,0.2535553,-0.20170593,-0.8203125,-2.8827822,0.34025314,9.367187
34.80521631,31.26506885,0.0,0.0057143434,12-17-42,-0.4118731,-0.9335307,-1.2002764,120.0,-3.0504985,-15.209968,0.2535553,-0.20170593,-0.8203125,-2.8827822,0.34025314,9.367187
34.80521631,31.26506885,0.0,0.0057143434,12-17-42,-0.4118731,-0.9335307,-1.2002764,120.0,-3.0504985,-15.209968,0.2535553,-0.20170593,-0.8203125,-2.8827822,0.34025314,9.367187
34.80521631,31.26506885,0.0,0.0057143434,12-17-42,-0.4118731,-0.9335307,-1.2002764,120.0,-3.0504985,-15.209968,0.2535553,-0.20170593,-0.8203125,-2.8827822,0.34025314,9.367187
34.80521631,31.26506885,0.0,0.0057143434,12-17-42,-0.4118731,-0.9335307,-1.2002764,120.0,-3.8236816,-14.618528,0.2535553,-0.20170593,-0.8203125,-2.8827822,0.34025314,9.367187
34.80521631,31.26506885,0.0,0.0057143434,12-17-42,-0.4118731,-0.9335307,-1.2002764,120.0,-3.9676394,-14.43807,0.2535553,-0.20170593,-0.8203125,-2.8827822,0.34025314,9.367187
34.80521631,31.26506885,0.0,0.0057143434,12-17-42,-0.4118731,-0.9335307,-1.2002764,120.0,-3.9676394,-14.43807,0.2535553,-0.20170593,-0.8203125,-2.8827822,0.34025314,9.367187
34.80521631,31.26506885,0.0,0.0057143434,12-17-42,-0.4118731,-0.9335307,-1.2002764,120.0,-3.9676394,-14.43807,0.2535553,-0.20170593,-0.8203125,-2.5963466,0.4757477,9.444736
34.80521643,31.26506863,0.3,0.025052693,12-17-42,-0.15881038,-0.21657753,0.107367516,118.0,-4.5327854,-13.609002,0.11869812,-0.12908936,0.18501282,-2.5963466,0.4757477,9.444736
34.80521643,31.26506863,0.3,0.025052693,12-17-42,-0.15881038,-0.21657753,0.107367516,118.0,-4.5327854,-13.609002,0.11869812,-0.12908936,0.18501282,-2.5963466,0.4757477,9.444736
34.80521643,31.26506863,0.3,0.025052693,12-17-42,-0.15881038,-0.21657753,0.107367516,118.0,-4.5327854,-13.609002,0.11869812,-0.12908936,0.18501282,-2.5963466,0.4757477,9.444736
34.80521643,31.26506863,0.3,0.025052693,12-17-42,-0.15881038,-0.21657753,0.107367516,118.0,-4.5327854,-13.609002,0.11869812,-0.12908936,0.18501282,-2.5963466,0.4757477,9.444736
34.80521643,31.26506863,0.3,0.025052693,12-17-42,-0.15881038,-0.21657753,0.107367516,115.0,-4.5752544,-12.80483,0.11869812,-0.12908936,0.18501282,-2.5963466,0.4757477,9.444736
34.80521643,31.26506863,0.3,0.025052693,12-17-42,-0.15881038,-0.21657753,0.107367516,115.0,-4.5752544,-12.80483,0.11869812,-0.12908936,0.18501282,-2.5963466,0.4757477,9.444736
34.80521643,31.26506863,0.3,0.025052693,12-17-42,-0.15881038,-0.21657753,0.107367516,115.0,-4.5752544,-12.80483,0.11869812,-0.12908936,0.18501282,-2.5963466,0.4757477,9.444736
34.80521643,31.26506863,0.3,0.025052693,12-17-42,0.76205325,0.33612508,-0.5009508,115.0,-4.5752544,-12.80483,0.11869812,-0.12908936,0.18501282,-2.3088853,0.70814174,9.504629
34.80521643,31.26506863,0.3,0.025052693,12-17-42,0.76205325,0.33612508,-0.5009508,114.0,-4.9797206,-12.432383,-0.052444458,-0.093170166,0.37989807,-2.3088853,0.70814174,9.504629
34.80521643,31.26506863,0.3,0.025052693,12-17-42,0.76205325,0.33612508,-0.5009508,114.0,-4.9797206,-12.432383,-0.052444458,-0.093170166,0.37989807,-2.3088853,0.70814174,9.504629
34.80521643,31.26506863,0.3,0.025052693,12-17-42,0.76205325,0.33612508,-0.5009508,114.0,-4.9797206,-12.432383,-0.052444458,-0.093170166,0.37989807,-2.3088853,0.70814174,9.504629
34.80521643,31.26506863,0.3,0.025052693,12-17-42,0.76205325,0.33612508,-0.5009508,114.0,-4.9979424,-12.48487,-0.052444458,-0.093170166,0.37989807,-2.3088853,0.70814174,9.504629
34.80521643,31.26506863,0.3,0.025052693,12-17-43,0.76205325,0.33612508,-0.5009508,113.0,-5.874462,-12.353641,-0.052444458,-0.093170166,0.37989807,-2.3088853,0.70814174,9.504629
34.80521643,31.26506863,0.3,0.025052693,12-17-43,0.76205325,0.33612508,-0.5009508,113.0,-5.874462,-12.353641,-0.052444458,-0.093170166,0.37989807,-2.3088853,0.70814174,9.504629
34.80521643,31.26506863,0.3,0.025052693,12-17-43,1.4230766,0.112567306,-0.25640774,113.0,-5.874462,-12.353641,-0.052444458,-0.093170166,0.37989807,-2.1502235,0.86312485,9.529005
34.80521643,31.26506863,0.3,0.025052693,12-17-43,1.4230766,0.112567306,-0.25640774,113.0,-5.874462,-12.353641,-0.052444458,-0.093170166,0.37989807,-2.1502235,0.86312485,9.529005
34.80521643,31.26506863,0.3,0.025052693,12-17-43,1.4230766,0.112567306,-0.25640774,111.0,-6.3378973,-12.849727,0.06744385,0.061920166,0.17222595,-2.1502235,0.86312485,9.529005
34.80521643,31.26506863,0.3,0.025052693,12-17-43,1.4230766,0.112567306,-0.25640774,111.0,-6.3378973,-12.849727,0.06744385,0.061920166,0.17222595,-2.1502235,0.86312485,9.529005
34.80521643,31.26506863,0.3,0.025052693,12-17-43,1.4230766,0.112567306,-0.25640774,111.0,-6.361736,-12.99333,0.06744385,0.061920166,0.17222595,-2.1502235,0.86312485,9.529005
34.80521643,31.26506863,0.3,0.025052693,12-17-43,1.4230766,0.112567306,-0.25640774,111.0,-6.361736,-12.99333,0.06744385,0.061920166,0.17222595,-2.1502235,0.86312485,9.529005
34.80521643,31.26506863,0.3,0.025052693,12-17-43,0.8788192,0.11030853,0.23311329,110.0,-6.6103,-13.632341,0.06744385,0.061920166,0.17222595,-2.2716286,1.0234927,9.484859
34.80521643,31.26506863,0.3,0.025052693,12-17-43,0.8788192,0.11030853,0.23311329,110.0,-6.620627,-13.874766,0.06744385,0.061920166,0.17222595,-2.2716286,1.0234927,9.484859
34.80521643,31.26506863,0.3,0.025052693,12-17-43,0.8788192,0.11030853,0.23311329,110.0,-6.620627,-13.874766,0.06744385,0.061920166,0.17222595,-2.2716286,1.0234927,9.484859
34.80521643,31.26506863,0.3,0.025052693,12-17-43,0.8788192,0.11030853,0.23311329,110.0,-6.620627,-13.874766,0.06744385,0.061920166,0.17222595,-2.2716286,1.0234927,9.484859
34.80521643,31.26506863,0.3,0.025052693,12-17-43,0.8788192,0.11030853,0.23311329,109.0,-6.898163,-14.774813,0.0052948,0.19108582,0.19067383,-2.2716286,1.0234927,9.484859
34.80521643,31.26506863,0.3,0.025052693,12-17-43,0.8788192,0.11030853,0.23311329,108.0,-6.9553695,-15.008958,0.0052948,0.19108582,0.19067383,-2.2716286,1.0234927,9.484859
34.80521643,31.26506863,0.3,0.025052693,12-17-43,0.8788192,0.11030853,0.23311329,108.0,-6.9553695,-15.008958,0.0052948,0.19108582,0.19067383,-2.2716286,1.0234927,9.484859
34.80521643,31.26506863,0.3,0.025052693,12-17-43,0.8788192,0.11030853,0.23311329,108.0,-6.9553695,-15.008958,0.0052948,0.19108582,0.19067383,-2.2716286,1.0234927,9.484859
34.80521643,31.26506863,0.3,0.025052693,12-17-43,-0.21476007,-0.3294958,-0.5387316,108.0,-7.230174,-15.292261,0.0052948,0.19108582,0.19067383,-2.5325258,1.1150463,9.4081545
34.80521643,31.26506863,0.3,0.025052693,12-17-43,-0.21476007,-0.3294958,-0.5387316,108.0,-7.268746,-15.29044,0.0052948,0.19108582,0.19067383,-2.5325258,1.1150463,9.4081545
34.80521643,31.26506863,0.3,0.025052693,12-17-43,-0.21476007,-0.3294958,-0.5387316,108.0,-7.268746,-15.29044,0.0052948,0.19108582,0.19067383,-2.5325258,1.1150463,9.4081545
34.80521643,31.26506863,0.3,0.025052693,12-17-43,-0.21476007,-0.3294958,-0.5387316,108.0,-7.268746,-15.29044,0.0052948,0.19108582,0.19067383,-2.5325258,1.1150463,9.4081545
34.80521643,31.26506863,0.3,0.025052693,12-17-43,-0.21476007,-0.3294958,-0.5387316,107.0,-7.2547655,-15.26631,0.024856567,0.093170166,0.09963989,-2.5325258,1.1150463,9.4081545
34.80521643,31.26506863,0.3,0.025052693,12-17-43,-0.21476007,-0.3294958,-0.5387316,107.0,-7.214072,-15.265093,0.024856567,0.093170166,0.09963989,-2.5325258,1.1150463,9.4081545
34.80521643,31.26506863,0.3,0.025052693,12-17-43,-0.21476007,-0.3294958,-0.5387316,107.0,-7.214072,-15.265093,0.024856567,0.093170166,0.09963989,-2.5325258,1.1150463,9.4081545
34.80521643,31.26506863,0.3,0.025052693,12-17-43,-0.21476007,-0.3294958,-0.5387316,107.0,-7.214072,-15.265093,0.024856567,0.093170166,0.09963989,-2.5325258,1.1150463,9.4081545
34.80521643,31.26506863,0.3,0.025052693,12-17-43,0.6153276,0.11657894,-0.2388916,107.0,-6.7573357,-15.316246,0.024856567,0.093170166,0.09963989,-2.626846,1.1342462,9.379955
34.80521643,31.26506863,0.3,0.025052693,12-17-43,0.6153276,0.11657894,-0.2388916,107.0,-6.7573357,-15.316246,0.024856567,0.093170166,0.09963989,-2.626846,1.1342462,9.379955
34.80521643,31.26506863,0.3,0.025052693,12-17-43,0.6153276,0.11657894,-0.2388916,107.0,-6.7573357,-15.316246,0.024856567,0.093170166,0.09963989,-2.626846,1.1342462,9.379955
34.80521643,31.26506863,0.3,0.025052693,12-17-43,0.6153276,0.11657894,-0.2388916,107.0,-6.7573357,-15.316246,0.024856567,0.093170166,0.09963989,-2.626846,1.1342462,9.379955
34.80521309,31.26506546,0.0,0.4887298,12-17-43,0.6153276,0.11657894,-0.2388916,107.0,-6.0213575,-14.824619,-0.08616638,0.0,0.0335083,-2.626846,1.1342462,9.379955
34.80521309,31.26506546,0.0,0.4887298,12-17-43,0.6153276,0.11657894,-0.2388916,107.0,-6.0213575,-14.824619,-0.08616638,0.0,0.0335083,-2.626846,1.1342462,9.379955
34.80521309,31.26506546,0.0,0.4887298,12-17-43,0.6153276,0.11657894,-0.2388916,107.0,-6.0213575,-14.824619,-0.08616638,0.0,0.0335083,-2.626846,1.1342462,9.379955
34.80521309,31.26506546,0.0,0.4887298,12-17-43,0.6153276,0.11657894,-0.2388916,107.0,-6.0213575,-14.824619,-0.08616638,0.0,0.0335083,-2.626846,1.1342462,9.379955
34.80521309,31.26506546,0.0,0.4887298,12-17-43,0.007437229,-0.25050747,0.48885155,107.0,-5.284478,-13.399713,-0.08616638,0.0,0.0335083,-2.475332,0.96250284,9.440165
34.80521309,31.26506546,0.0,0.4887298,12-17-43,0.007437229,-0.25050747,0.48885155,107.0,-5.284478,-13.399713,-0.08616638,0.0,0.0335083,-2.475332,0.96250284,9.440165
34.80521309,31.26506546,0.0,0.4887298,12-17-43,0.007437229,-0.25050747,0.48885155,107.0,-5.284478,-13.399713,-0.08616638,0.0,0.0335083,-2.475332,0.96250284,9.440165
34.80521309,31.26506546,0.0,0.4887298,12-17-43,0.007437229,-0.25050747,0.48885155,107.0,-5.284478,-13.399713,-0.08616638,0.0,0.0335083,-2.475332,0.96250284,9.440165
34.80521309,31.26506546,0.0,0.4887298,12-17-43,0.007437229,-0.25050747,0.48885155,106.0,-4.7875986,-12.43922,-0.13369751,-0.19664001,0.053131104,-2.475332,0.96250284,9.440165
34.80521309,31.26506546,0.0,0.4887298,12-17-43,0.007437229,-0.25050747,0.48885155,106.0,-4.7875986,-12.43922,-0.13369751,-0.19664001,0.053131104,-2.475332,0.96250284,9.440165
34.80521309,31.26506546,0.0,0.4887298,12-17-43,0.007437229,-0.25050747,0.48885155,106.0,-4.7875986,-12.43922,-0.13369751,-0.19664001,0.053131104,-2.475332,0.96250284,9.440165
34.80521309,31.26506546,0.0,0.4887298,12-17-43,0.007437229,-0.25050747,0.48885155,106.0,-4.79907,-12.342538,-0.13369751,-0.19664001,0.053131104,-2.475332,0.96250284,9.440165
34.80521309,31.26506546,0.0,0.4887298,12-17-44,0.007437229,-0.25050747,0.48885155,105.0,-4.874459,-12.407263,-0.13369751,-0.19664001,0.053131104,-2.475332,0.96250284,9.440165
34.80521309,31.26506546,0.0,0.4887298,12-17-44,0.96052647,-0.16148794,0.8388796,105.0,-4.9758353,-12.538295,-0.13369751,-0.19664001,0.053131104,-2.212258,0.8311154,9.517644
34.80521309,31.26506546,0.0,0.4887298,12-17-44,0.96052647,-0.16148794,0.8388796,105.0,-4.9758353,-12.538295,-0.13369751,-0.19664001,0.053131104,-2.212258,0.8311154,9.517644
34.80521309,31.26506546,0.0,0.4887298,12-17-44,0.96052647,-0.16148794,0.8388796,105.0,-5.0563703,-12.633278,-0.13369751,-0.19664001,0.053131104,-2.212258,0.8311154,9.517644
34.80521309,31.26506546,0.0,0.4887298,12-17-44,0.96052647,-0.16148794,0.8388796,105.0,-5.3649464,-13.066427,0.026443481,0.034835815,0.023223877,-2.212258,0.8311154,9.517644
34.80521309,31.26506546,0.0,0.4887298,12-17-44,0.96052647,-0.16148794,0.8388796,105.0,-5.404214,-13.059956,0.026443481,0.034835815,0.023223877,-2.212258,0.8311154,9.517644
34.80521309,31.26506546,0.0,0.4887298,12-17-44,0.96052647,-0.16148794,0.8388796,105.0,-5.404214,-13.059956,0.026443481,0.034835815,0.023223877,-2.212258,0.8311154,9.517644
34.80521309,31.26506546,0.0,0.4887298,12-17-44,0.96052647,-0.16148794,0.8388796,105.0,-5.404214,-13.059956,0.026443481,0.034835815,0.023223877,-2.212258,0.8311154,9.517644
34.80521309,31.26506546,0.0,0.4887298,12-17-44,-0.41033626,0.4649896,-0.2228365,105.0,-5.7471824,-13.02842,0.026443481,0.034835815,0.023223877,-2.2203262,0.8905244,9.510389
34.80521309,31.26506546,0.0,0.4887298,12-17-44,-0.41033626,0.4649896,-0.2228365,105.0,-5.8140645,-13.041217,0.026443481,0.034835815,0.023223877,-2.2203262,0.8905244,9.510389
34.80521309,31.26506546,0.0,0.4887298,12-17-44,-0.41033626,0.4649896,-0.2228365,105.0,-5.8140645,-13.041217,0.026443481,0.034835815,0.023223877,-2.2203262,0.8905244,9.510389
34.80521309,31.26506546,0.0,0.4887298,12-17-44,-0.41033626,0.4649896,-0.2228365,105.0,-5.8140645,-13.041217,0.026443481,0.034835815,0.023223877,-2.2203262,0.8905244,9.510389
34.80521309,31.26506546,0.0,0.4887298,12-17-44,-0.41033626,0.4649896,-0.2228365,105.0,-5.991027,-13.210306,0.044433594,0.014984131,0.023269653,-2.2203262,0.8905244,9.510389
34.80521309,31.26506546,0.0,0.4887298,12-17-44,-0.41033626,0.4649896,-0.2228365,105.0,-6.0053744,-13.233286,0.044433594,0.014984131,0.023269653,-2.2203262,0.8905244,9.510389
34.80521309,31.26506546,0.0,0.4887298,12-17-44,-0.41033626,0.4649896,-0.2228365,105.0,-6.0053744,-13.233286,0.044433594,0.014984131,0.023269653,-2.2203262,0.8905244,9.510389
34.80521309,31.26506546,0.0,0.4887298,12-17-44,-0.41033626,0.4649896,-0.2228365,105.0,-6.0053744,-13.233286,0.044433594,0.014984131,0.023269653,-2.2203262,0.8905244,9.510389
34.80521309,31.26506546,0.0,0.4887298,12-17-44,0.44472623,0.6400566,-0.2570362,105.0,-6.18766,-13.60904,0.044433594,0.014984131,0.023269653,-2.285519,0.9904296,9.485032
34.80521309,31.26506546,0.0,0.4887298,12-17-44,0.44472623,0.6400566,-0.2570362,105.0,-6.113033,-13.735921,0.044433594,0.014984131,0.023269653,-2.285519,0.9904296,9.485032
34.80521309,31.26506546,0.0,0.4887298,12-17-44,0.44472623,0.6400566,-0.2570362,105.0,-6.113033,-13.735921,0.044433594,0.014984131,0.023269653,-2.285519,0.9904296,9.485032
34.80521309,31.26506546,0.0,0.4887298,12-17-44,0.44472623,0.6400566,-0.2570362,105.0,-6.113033,-13.735921,0.044433594,0.014984131,0.023269653,-2.285519,0.9904296,9.485032
34.80521309,31.26506546,0.0,0.4887298,12-17-44,0.44472623,0.6400566,-0.2570362,105.0,-5.9480686,-14.4304495,-7.324219E-4,0.09500122,-0.04458618,-2.285519,0.9904296,9.485032
34.80521309,31.26506546,0.0,0.4887298,12-17-44,0.44472623,0.6400566,-0.2570362,105.0,-5.9480686,-14.4304495,-7.324219E-4,0.09500122,-0.04458618,-2.285519,0.9904296,9.485032
34.80521309,31.26506546,0.0,0.4887298,12-17-44,0.44472623,0.6400566,-0.2570362,105.0,-5.9480686,-14.4304495,-7.324219E-4,0.09500122,-0.04458618,-2.285519,0.9904296,9.485032
34.80521309,31.26506546,0.0,0.4887298,12-17-44,0.44472623,0.6400566,-0.2570362,105.0,-5.9480686,-14.4304495,-7.324219E-4,0.09500122,-0.04458618,-2.285519,0.9904296,9.485032
34.80521309,31.26506546,0.0,0.4887298,12-17-44,-0.09070945,0.4751566,-0.15012836,106.0,-5.5733733,-14.212813,-7.324219E-4,0.09500122,-0.04458618,-2.4083023,0.9785445,9.45584
34.80521309,31.26506546,0.0,0.4887298,12-17-44,-0.09070945,0.4751566,-0.15012836,106.0,-5.5733733,-14.212813,-7.324219E-4,0.09500122,-0.04458618,-2.4083023,0.9785445,9.45584
34.80521309,31.26506546,0.0,0.4887298,12-17-44,-0.09070945,0.4751566,-0.15012836,106.0,-5.5733733,-14.212813,-7.324219E-4,0.09500122,-0.04458618,-2.4083023,0.9785445,9.45584
34.80521309,31.26506546,0.0,0.4887298,12-17-44,-0.09070945,0.4751566,-0.15012836,106.0,-5.5733733,-14.212813,-7.324219E-4,0.09500122,-0.04458618,-2.4083023,0.9785445,9.45584
34.80521185,31.2650653,0.0,0.58329815,12-17-44,-0.09070945,0.4751566,-0.15012836,106.0,-5.1489153,-13.710726,-0.0541687,-0.03414917,-0.056518555,-2.4083023,0.9785445,9.45584
34.80521185,31.2650653,0.0,0.58329815,12-17-44,-0.09070945,0.4751566,-0.15012836,106.0,-5.1489153,-13.710726,-0.0541687,-0.03414917,-0.056518555,-2.4083023,0.9785445,9.45584
34.80521185,31.2650653,0.0,0.58329815,12-17-44,-0.09070945,0.4751566,-0.15012836,106.0,-5.1489153,-13.710726,-0.0541687,-0.03414917,-0.056518555,-2.4083023,0.9785445,9.45584
34.80521185,31.2650653,0.0,0.58329815,12-17-44,-0.09070945,0.4751566,-0.15012836,106.0,-5.1307764,-13.675315,-0.0541687,-0.03414917,-0.056518555,-2.4083023,0.9785445,9.45584
34.80521185,31.2650653,0.0,0.58329815,12-17-44,-0.08851361,-0.3486942,0.24395466,107.0,-4.8740444,-13.347283,-0.0541687,-0.03414917,-0.056518555,-2.39179,0.8522379,9.472244
34.80521185,31.2650653,0.0,0.58329815,12-17-44,-0.08851361,-0.3486942,0.24395466,107.0,-4.8740444,-13.347283,-0.0541687,-0.03414917,-0.056518555,-2.39179,0.8522379,9.472244
34.80521185,31.2650653,0.0,0.58329815,12-17-44,-0.08851361,-0.3486942,0.24395466,107.0,-4.906857,-13.219371,-0.0541687,-0.03414917,-0.056518555,-2.39179,0.8522379,9.472244
34.80521185,31.2650653,0.0,0.58329815,12-17-44,-0.08851361,-0.3486942,0.24395466,107.0,-4.906857,-13.219371,-0.0541687,-0.03414917,-0.056518555,-2.39179,0.8522379,9.472244
34.80521185,31.2650653,0.0,0.58329815,12-17-44,-0.08851361,-0.3486942,0.24395466,107.0,-5.2964025,-13.460416,0.05393982,-0.06770325,-0.19139099,-2.39179,0.8522379,9.472244
34.80521185,31.2650653,0.0,0.58329815,12-17-44,-0.08851361,-0.3486942,0.24395466,107.0,-5.2964025,-13.460416,0.05393982,-0.06770325,-0.19139099,-2.39179,0.8522379,9.472244
34.80521185,31.2650653,0.0,0.58329815,12-17-44,-0.08851361,-0.3486942,0.24395466,107.0,-5.2964025,-13.460416,0.05393982,-0.06770325,-0.19139099,-2.39179,0.8522379,9.472244
34.80521185,31.2650653,0.0,0.58329815,12-17-44,-0.08851361,-0.3486942,0.24395466,107.0,-5.274994,-13.680609,0.05393982,-0.06770325,-0.19139099,-2.39179,0.8522379,9.472244
34.80521185,31.2650653,0.0,0.58329815,12-17-45,0.5396075,-0.37394482,0.4731779,107.0,-5.3508506,-14.814547,0.05393982,-0.06770325,-0.19139099,-2.399012,0.8219251,9.473097
34.80521185,31.2650653,0.0,0.58329815,12-17-45,0.5396075,-0.37394482,0.4731779,107.0,-5.3908997,-14.977843,0.05393982,-0.06770325,-0.19139099,-2.399012,0.8219251,9.473097
34.80521185,31.2650653,0.0,0.58329815,12-17-45,0.5396075,-0.37394482,0.4731779,107.0,-5.3908997,-14.977843,0.05393982,-0.06770325,-0.19139099,-2.399012,0.8219251,9.473097
34.80521185,31.2650653,0.0,0.58329815,12-17-45,0.5396075,-0.37394482,0.4731779,107.0,-5.3908997,-14.977843,0.05393982,-0.06770325,-0.19139099,-2.399012,0.8219251,9.473097
34.80521185,31.2650653,0.0,0.58329815,12-17-45,0.5396075,-0.37394482,0.4731779,107.0,-5.4738903,-15.825206,0.019714355,0.20318604,0.018356323,-2.399012,0.8219251,9.473097
34.80521185,31.2650653,0.0,0.58329815,12-17-45,0.5396075,-0.37394482,0.4731779,107.0,-5.4205976,-15.797854,0.019714355,0.20318604,0.018356323,-2.399012,0.8219251,9.473097
34.80521185,31.2650653,0.0,0.58329815,12-17-45,0.5396075,-0.37394482,0.4731779,107.0,-5.4205976,-15.797854,0.019714355,0.20318604,0.018356323,-2.399012,0.8219251,9.473097
34.80521185,31.2650653,0.0,0.58329815,12-17-45,0.5396075,-0.37394482,0.4731779,107.0,-5.4205976,-15.797854,0.019714355,0.20318604,0.018356323,-2.399012,0.8219251,9.473097
34.80521185,31.2650653,0.0,0.58329815,12-17-45,-0.96684265,0.027550101,-0.21091938,107.0,-5.204395,-15.237442,0.019714355,0.20318604,0.018356323,-2.5998907,0.857744,9.416753
34.80521185,31.2650653,0.0,0.58329815,12-17-45,-0.96684265,0.027550101,-0.21091938,107.0,-5.097388,-15.029977,0.019714355,0.20318604,0.018356323,-2.5998907,0.857744,9.416753
34.80521185,31.2650653,0.0,0.58329815,12-17-45,-0.96684265,0.027550101,-0.21091938,107.0,-5.097388,-15.029977,0.019714355,0.20318604,0.018356323,-2.5998907,0.857744,9.416753
34.80521185,31.2650653,0.0,0.58329815,12-17-45,-0.96684265,0.027550101,-0.21091938,107.0,-5.097388,-15.029977,0.019714355,0.20318604,0.018356323,-2.5998907,0.857744,9.416753
34.80521185,31.2650653,0.0,0.58329815,12-17-45,-0.96684265,0.027550101,-0.21091938,107.0,-4.453035,-14.618614,-0.062286377,-0.08409119,0.0032043457,-2.5998907,0.857744,9.416753
34.80521185,31.2650653,0.0,0.58329815,12-17-45,-0.96684265,0.027550101,-0.21091938,107.0,-4.453035,-14.618614,-0.062286377,-0.08409119,0.0032043457,-2.5998907,0.857744,9.416753
34.80521185,31.2650653,0.0,0.58329815,12-17-45,-0.96684265,0.027550101,-0.21091938,107.0,-4.453035,-14.618614,-0.062286377,-0.08409119,0.0032043457,-2.5998907,0.857744,9.416753
34.80521185,31.2650653,0.0,0.58329815,12-17-45,-0.96684265,0.027550101,-0.21091938,107.0,-4.453035,-14.618614,-0.062286377,-0.08409119,0.0032043457,-2.5998907,0.857744,9.416753
34.80521185,31.2650653,0.0,0.58329815,12-17-45,-0.4189775,-0.014261782,0.53841114,107.0,-3.9960492,-13.716258,-0.062286377,-0.08409119,0.0032043457,-2.5392323,0.755347,9.442041
34.80521185,31.2650653,0.0,0.58329815,12-17-45,-0.4189775,-0.014261782,0.53841114,107.0,-3.9960492,-13.716258,-0.062286377,-0.08409119,0.0032043457,-2.5392323,0.755347,9.442041
34.80521185,31.2650653,0.0,0.58329815,12-17-45,-0.4189775,-0.014261782,0.53841114,107.0,-3.9960492,-13.716258,-0.062286377,-0.08409119,0.0032043457,-2.5392323,0.755347,9.442041
34.80521185,31.2650653,0.0,0.58329815,12-17-45,-0.4189775,-0.014261782,0.53841114,107.0,-3.9960492,-13.716258,-0.062286377,-0.08409119,0.0032043457,-2.5392323,0.755347,9.442041
34.80521185,31.2650653,0.0,0.58329815,12-17-45,-0.4189775,-0.014261782,0.53841114,107.0,-4.07925,-12.843328,-0.07356262,-0.1542511,0.05279541,-2.5392323,0.755347,9.442041
34.80521185,31.2650653,0.0,0.58329815,12-17-45,-0.4189775,-0.014261782,0.53841114,107.0,-4.07925,-12.843328,-0.07356262,-0.1542511,0.05279541,-2.5392323,0.755347,9.442041
34.80521185,31.2650653,0.0,0.58329815,12-17-45,-0.4189775,-0.014261782,0.53841114,107.0,-4.07925,-12.843328,-0.07356262,-0.1542511,0.05279541,-2.5392323,0.755347,9.442041
34.80521185,31.2650653,0.0,0.58329815,12-17-45,-0.4189775,-0.014261782,0.53841114,107.0,-4.07925,-12.843328,-0.07356262,-0.1542511,0.05279541,-2.5392323,0.755347,9.442041
34.80521185,31.2650653,0.0,0.58329815,12-17-45,0.7266364,0.07767022,0.34907532,106.0,-4.412015,-13.060194,-0.07356262,-0.1542511,0.05279541,-2.3074858,0.6869587,9.506523
34.80521185,31.2650653,0.0,0.58329815,12-17-45,0.7266364,0.07767022,0.34907532,106.0,-4.412015,-13.060194,-0.07356262,-0.1542511,0.05279541,-2.3074858,0.6869587,9.506523
34.80521185,31.2650653,0.0,0.58329815,12-17-45,0.7266364,0.07767022,0.34907532,106.0,-4.412015,-13.060194,-0.07356262,-0.1542511,0.05279541,-2.3074858,0.6869587,9.506523
34.80521185,31.2650653,0.0,0.58329815,12-17-45,0.7266364,0.07767022,0.34907532,106.0,-4.461767,-13.244394,-0.07356262,-0.1542511,0.05279541,-2.3074858,0.6869587,9.506523
34.80521108,31.26506519,0.0,0.64691734,12-17-45,0.7266364,0.07767022,0.34907532,105.0,-4.7347116,-14.096554,0.022521973,0.09666443,0.06300354,-2.3074858,0.6869587,9.506523
34.80521108,31.26506519,0.0,0.64691734,12-17-45,0.7266364,0.07767022,0.34907532,105.0,-4.7347116,-14.096554,0.022521973,0.09666443,0.06300354,-2.3074858,0.6869587,9.506523
34.80521108,31.26506519,0.0,0.64691734,12-17-45,0.7266364,0.07767022,0.34907532,105.0,-4.7347116,-14.096554,0.022521973,0.09666443,0.06300354,-2.3074858,0.6869587,9.506523
34.80521108,31.26506519,0.0,0.64691734,12-17-45,0.7266364,0.07767022,0.34907532,105.0,-4.826925,-14.369525,0.022521973,0.09666443,0.06300354,-2.3074858,0.6869587,9.506523
34.80521108,31.26506519,0.0,0.64691734,12-17-45,0.5282972,0.79397124,-0.21850204,105.0,-4.9058275,-15.054065,0.022521973,0.09666443,0.06300354,-2.3647974,0.7720888,9.485885
34.80521108,31.26506519,0.0,0.64691734,12-17-45,0.5282972,0.79397124,-0.21850204,105.0,-4.9058275,-15.054065,0.022521973,0.09666443,0.06300354,-2.3647974,0.7720888,9.485885
34.80521108,31.26506519,0.0,0.64691734,12-17-45,0.5282972,0.79397124,-0.21850204,105.0,-4.8843336,-15.152929,0.022521973,0.09666443,0.06300354,-2.3647974,0.7720888,9.485885
34.80521108,31.26506519,0.0,0.64691734,12-17-45,0.5282972,0.79397124,-0.21850204,105.0,-4.8843336,-15.152929,0.022521973,0.09666443,0.06300354,-2.3647974,0.7720888,9.485885
34.80521108,31.26506519,0.0,0.64691734,12-17-45,0.5282972,0.79397124,-0.21850204,105.0,-4.540406,-15.165251,-0.032562256,0.11416626,0.058746338,-2.3647974,0.7720888,9.485885
34.80521108,31.26506519,0.0,0.64691734,12-17-45,0.5282972,0.79397124,-0.21850204,105.0,-4.4144135,-15.227625,-0.032562256,0.11416626,0.058746338,-2.3647974,0.7720888,9.485885
34.80521108,31.26506519,0.0,0.64691734,12-17-45,0.5282972,0.79397124,-0.21850204,105.0,-4.4144135,-15.227625,-0.032562256,0.11416626,0.058746338,-2.3647974,0.7720888,9.485885
34.80521108,31.26506519,0.0,0.64691734,12-17-45,0.5282972,0.79397124,-0.21850204,105.0,-4.4144135,-15.227625,-0.032562256,0.11416626,0.058746338,-2.3647974,0.7720888,9.485885
34.80521108,31.26506519,0.0,0.64691734,12-17-46,-0.3280146,0.3555578,0.15246868,104.0,-3.730119,-15.651373,-0.032562256,0.11416626,0.058746338,-2.5830772,0.72959644,9.432167
34.80521108,31.26506519,0.0,0.64691734,12-17-46,-0.3280146,0.3555578,0.15246868,104.0,-3.5474436,-15.681638,-0.032562256,0.11416626,0.058746338,-2.5830772,0.72959644,9.432167
34.80521108,31.26506519,0.0,0.64691734,12-17-46,-0.3280146,0.3555578,0.15246868,104.0,-3.730119,-15.651373,-0.032562256,0.11416626,0.058746338,-2.5830772,0.72959644,9.432167
34.80521108,31.26506519,0.0,0.64691734,12-17-46,-0.3280146,0.3555578,0.15246868,104.0,-3.5474436,-15.681638,-0.032562256,0.11416626,0.058746338,-2.5830772,0.72959644,9.432167
34.80521108,31.26506519,0.0,0.64691734,12-17-46,-0.3280146,0.3555578,0.15246868,103.0,-2.8713896,-15.727906,-0.14816284,0.052627563,0.07223511,-2.5830772,0.72959644,9.432167
34.80521108,31.26506519,0.0,0.64691734,12-17-46,-0.3280146,0.3555578,0.15246868,103.0,-2.8713896,-15.727906,-0.14816284,0.052627563,0.07223511,-2.5830772,0.72959644,9.432167
34.80521108,31.26506519,0.0,0.64691734,12-17-46,-0.3280146,0.3555578,0.15246868,103.0,-2.8713896,-15.727906,-0.14816284,0.052627563,0.07223511,-2.5830772,0.72959644,9.432167
34.80521108,31.26506519,0.0,0.64691734,12-17-46,-0.3280146,0.3555578,0.15246868,103.0,-2.8713896,-15.727906,-0.14816284,0.052627563,0.07223511,-2.5830772,0.72959644,9.432167
34.80521108,31.26506519,0.0,0.64691734,12-17-46,-0.19962049,-0.35749757,0.071419716,104.0,-2.5273619,-15.911631,-0.14816284,0.052627563,0.07223511,-2.6623487,0.52975416,9.423463
34.80521108,31.26506519,0.0,0.64691734,12-17-46,-0.19962049,-0.35749757,0.071419716,104.0,-2.476139,-15.921586,-0.14816284,0.052627563,0.07223511,-2.6623487,0.52975416,9.423463
34.80521108,31.26506519,0.0,0.64691734,12-17-46,-0.19962049,-0.35749757,0.071419716,104.0,-2.476139,-15.921586,-0.14816284,0.052627563,0.07223511,-2.6623487,0.52975416,9.423463
34.80521108,31.26506519,0.0,0.64691734,12-17-46,-0.19962049,-0.35749757,0.071419716,104.0,-2.476139,-15.921586,-0.14816284,0.052627563,0.07223511,-2.6623487,0.52975416,9.423463
34.80521108,31.26506519,0.0,0.64691734,12-17-46,-0.19962049,-0.35749757,0.071419716,104.0,-2.5380318,-16.298048,-0.03390503,0.037765503,-0.016296387,-2.6623487,0.52975416,9.423463
34.80521108,31.26506519,0.0,0.64691734,12-17-46,-0.19962049,-0.35749757,0.071419716,104.0,-2.5380318,-16.298048,-0.03390503,0.037765503,-0.016296387,-2.6623487,0.52975416,9.423463
34.80521108,31.26506519,0.0,0.64691734,12-17-46,-0.19962049,-0.35749757,0.071419716,104.0,-2.5380318,-16.298048,-0.03390503,0.037765503,-0.016296387,-2.6623487,0.52975416,9.423463
34.80521108,31.26506519,0.0,0.64691734,12-17-46,-0.19962049,-0.35749757,0.071419716,104.0,-2.5380318,-16.298048,-0.03390503,0.037765503,-0.016296387,-2.6623487,0.52975416,9.423463
34.80521108,31.26506519,0.0,0.64691734,12-17-46,0.16002822,-0.93859357,-0.5272093,103.0,-3.0325644,-16.415314,-0.03390503,0.037765503,-0.016296387,-2.744482,0.40949744,9.405877
34.80521108,31.26506519,0.0,0.64691734,12-17-46,0.16002822,-0.93859357,-0.5272093,103.0,-3.0325644,-16.415314,-0.03390503,0.037765503,-0.016296387,-2.744482,0.40949744,9.405877
34.80521108,31.26506519,0.0,0.64691734,12-17-46,0.16002822,-0.93859357,-0.5272093,103.0,-3.0325644,-16.415314,-0.03390503,0.037765503,-0.016296387,-2.744482,0.40949744,9.405877
34.80521108,31.26506519,0.0,0.64691734,12-17-46,0.16002822,-0.93859357,-0.5272093,103.0,-3.0325644,-16.415314,-0.03390503,0.037765503,-0.016296387,-2.744482,0.40949744,9.405877
34.80521108,31.26506519,0.0,0.64691734,12-17-46,0.16002822,-0.93859357,-0.5272093,103.0,-3.8148813,-16.241146,0.10543823,0.006210327,0.0357666,-2.744482,0.40949744,9.405877
34.80521108,31.26506519,0.0,0.64691734,12-17-46,0.16002822,-0.93859357,-0.5272093,103.0,-3.8148813,-16.241146,0.10543823,0.006210327,0.0357666,-2.744482,0.40949744,9.405877
34.80521108,31.26506519,0.0,0.64691734,12-17-46,0.16002822,-0.93859357,-0.5272093,103.0,-3.8148813,-16.241146,0.10543823,0.006210327,0.0357666,-2.744482,0.40949744,9.405877
34.80521108,31.26506519,0.0,0.64691734,12-17-46,0.16002822,-0.93859357,-0.5272093,103.0,-3.8148813,-16.241146,0.10543823,0.006210327,0.0357666,-2.744482,0.40949744,9.405877
34.80521108,31.26506519,0.0,0.64691734,12-17-46,-0.24280477,0.005839467,-0.20159626,103.0,-4.244191,-15.77339,0.10543823,0.006210327,0.0357666,-2.7880838,0.5400758,9.386442
34.80521108,31.26506519,0.0,0.64691734,12-17-46,-0.24280477,0.005839467,-0.20159626,103.0,-4.244191,-15.77339,0.10543823,0.006210327,0.0357666,-2.7880838,0.5400758,9.386442
34.80521108,31.26506519,0.0,0.64691734,12-17-46,-0.24280477,0.005839467,-0.20159626,103.0,-4.244191,-15.77339,0.10543823,0.006210327,0.0357666,-2.7880838,0.5400758,9.386442
34.80521108,31.26506519,0.0,0.64691734,12-17-46,-0.24280477,0.005839467,-0.20159626,103.0,-4.2370214,-15.551819,0.10543823,0.006210327,0.0357666,-2.7880838,0.5400758,9.386442
34.80520929,31.2650652,0.0,0.78641254,12-17-46,-0.24280477,0.005839467,-0.20159626,103.0,-4.129822,-14.646415,0.019470215,-0.12936401,0.05239868,-2.7880838,0.5400758,9.386442
34.80520929,31.2650652,0.0,0.78641254,12-17-46,-0.24280477,0.005839467,-0.20159626,103.0,-4.129822,-14.646415,0.019470215,-0.12936401,0.05239868,-2.7880838,0.5400758,9.386442
34.80520929,31.2650652,0.0,0.78641254,12-17-46,-0.24280477,0.005839467,-0.20159626,103.0,-4.030572,-14.51009,0.019470215,-0.12936401,0.05239868,-2.7880838,0.5400758,9.386442
34.80520929,31.2650652,0.0,0.78641254,12-17-46,-0.24280477,0.005839467,-0.20159626,103.0,-4.030572,-14.51009,0.019470215,-0.12936401,0.05239868,-2.7880838,0.5400758,9.386442
34.80520929,31.2650652,0.0,0.78641254,12-17-46,-0.48590684,0.613874,0.4516964,104.0,-4.0307384,-13.894106,0.019470215,-0.12936401,0.05239868,-2.6154258,0.6606165,9.428336
34.80520929,31.2650652,0.0,0.78641254,12-17-46,-0.48590684,0.613874,0.4516964,104.0,-4.0307384,-13.894106,0.019470215,-0.12936401,0.05239868,-2.6154258,0.6606165,9.428336
34.80520929,31.2650652,0.0,0.78641254,12-17-46,-0.48590684,0.613874,0.4516964,104.0,-4.1483154,-13.81777,0.019470215,-0.12936401,0.05239868,-2.6154258,0.6606165,9.428336
34.80520929,31.2650652,0.0,0.78641254,12-17-46,-0.48590684,0.613874,0.4516964,104.0,-4.1483154,-13.81777,0.019470215,-0.12936401,0.05239868,-2.6154258,0.6606165,9.428336
34.80520929,31.2650652,0.0,0.78641254,12-17-46,-0.48590684,0.613874,0.4516964,104.0,-4.560519,-13.894327,0.036743164,-0.09692383,-0.09158325,-2.6154258,0.6606165,9.428336
34.80520929,31.2650652,0.0,0.78641254,12-17-46,-0.48590684,0.613874,0.4516964,104.0,-4.560519,-13.894327,0.036743164,-0.09692383,-0.09158325,-2.6154258,0.6606165,9.428336
34.80520929,31.2650652,0.0,0.78641254,12-17-46,-0.48590684,0.613874,0.4516964,104.0,-4.560519,-13.894327,0.036743164,-0.09692383,-0.09158325,-2.6154258,0.6606165,9.428336
34.80520929,31.2650652,0.0,0.78641254,12-17-46,-0.48590684,0.613874,0.4516964,104.0,-4.560519,-13.894327,0.036743164,-0.09692383,-0.09158325,-2.6154258,0.6606165,9.428336
34.80520929,31.2650652,0.0,0.78641254,12-17-47,0.49916172,-0.024856985,-0.088350296,103.0,-5.1227994,-13.916863,0.036743164,-0.09692383,-0.09158325,-2.3973582,0.7063988,9.48283
34.80520929,31.2650652,0.0,0.78641254,12-17-47,0.49916172,-0.024856985,-0.088350296,103.0,-5.1227994,-13.916863,0.036743164,-0.09692383,-0.09158325,-2.3973582,0.7063988,9.48283
34.80520929,31.2650652,0.0,0.78641254,12-17-47,0.49916172,-0.024856985,-0.088350296,103.0,-5.1227994,-13.916863,0.036743164,-0.09692383,-0.09158325,-2.3973582,0.7063988,9.48283
34.80520929,31.2650652,0.0,0.78641254,12-17-47,0.49916172,-0.024856985,-0.088350296,103.0,-5.1227994,-13.916863,0.036743164,-0.09692383,-0.09158325,-2.3973582,0.7063988,9.48283
34.80520929,31.2650652,0.0,0.78641254,12-17-47,0.49916172,-0.024856985,-0.088350296,103.0,-5.5530424,-13.215392,0.06765747,-0.020965576,0.072265625,-2.3973582,0.7063988,9.48283
34.80520929,31.2650652,0.0,0.78641254,12-17-47,0.49916172,-0.024856985,-0.088350296,103.0,-5.5530424,-13.215392,0.06765747,-0.020965576,0.072265625,-2.3973582,0.7063988,9.48283
34.80520929,31.2650652,0.0,0.78641254,12-17-47,0.49916172,-0.024856985,-0.088350296,103.0,-5.5530424,-13.215392,0.06765747,-0.020965576,0.072265625,-2.3973582,0.7063988,9.48283
34.80520929,31.2650652,0.0,0.78641254,12-17-47,0.49916172,-0.024856985,-0.088350296,103.0,-5.5530424,-13.215392,0.06765747,-0.020965576,0.072265625,-2.3973582,0.7063988,9.48283
34.80520929,31.2650652,0.0,0.78641254,12-17-47,-0.32124972,-0.050401747,0.16751671,103.0,-5.717591,-12.822027,0.06765747,-0.020965576,0.072265625,-2.295244,0.8482358,9.496459
34.80520929,31.2650652,0.0,0.78641254,12-17-47,-0.32124972,-0.050401747,0.16751671,103.0,-5.717591,-12.822027,0.06765747,-0.020965576,0.072265625,-2.295244,0.8482358,9.496459
34.80520929,31.2650652,0.0,0.78641254,12-17-47,-0.32124972,-0.050401747,0.16751671,103.0,-5.717591,-12.822027,0.06765747,-0.020965576,0.072265625,-2.295244,0.8482358,9.496459
34.80520929,31.2650652,0.0,0.78641254,12-17-47,-0.32124972,-0.050401747,0.16751671,103.0,-5.717591,-12.822027,0.06765747,-0.020965576,0.072265625,-2.295244,0.8482358,9.496459
34.80520929,31.2650652,0.0,0.78641254,12-17-47,-0.32124972,-0.050401747,0.16751671,103.0,-5.9080997,-13.023104,0.039474487,-0.032928467,0.055618286,-2.295244,0.8482358,9.496459
34.80520929,31.2650652,0.0,0.78641254,12-17-47,-0.32124972,-0.050401747,0.16751671,103.0,-5.9080997,-13.023104,0.039474487,-0.032928467,0.055618286,-2.295244,0.8482358,9.496459
34.80520929,31.2650652,0.0,0.78641254,12-17-47,-0.32124972,-0.050401747,0.16751671,103.0,-5.9080997,-13.023104,0.039474487,-0.032928467,0.055618286,-2.295244,0.8482358,9.496459
34.80520929,31.2650652,0.0,0.78641254,12-17-47,-0.32124972,-0.050401747,0.16751671,103.0,-5.9080997,-13.023104,0.039474487,-0.032928467,0.055618286,-2.295244,0.8482358,9.496459
34.80520929,31.2650652,0.0,0.78641254,12-17-47,0.08575368,-0.29009932,0.48873806,103.0,-6.377718,-13.495015,0.039474487,-0.032928467,0.055618286,-2.212623,0.95464265,9.505964
34.80520929,31.2650652,0.0,0.78641254,12-17-47,0.08575368,-0.29009932,0.48873806,103.0,-6.377718,-13.495015,0.039474487,-0.032928467,0.055618286,-2.212623,0.95464265,9.505964
34.80520929,31.2650652,0.0,0.78641254,12-17-47,0.08575368,-0.29009932,0.48873806,103.0,-6.377718,-13.495015,0.039474487,-0.032928467,0.055618286,-2.212623,0.95464265,9.505964
34.80520929,31.2650652,0.0,0.78641254,12-17-47,0.08575368,-0.29009932,0.48873806,103.0,-6.377718,-13.495015,0.039474487,-0.032928467,0.055618286,-2.212623,0.95464265,9.505964
34.80520929,31.2650652,0.0,0.78641254,12-17-47,0.08575368,-0.29009932,0.48873806,103.0,-6.495273,-14.295343,0.06428528,0.09017944,-0.030715942,-2.212623,0.95464265,9.505964
34.80520929,31.2650652,0.0,0.78641254,12-17-47,0.08575368,-0.29009932,0.48873806,103.0,-6.495273,-14.295343,0.06428528,0.09017944,-0.030715942,-2.212623,0.95464265,9.505964
34.80520929,31.2650652,0.0,0.78641254,12-17-47,0.23126125,0.1225698,-0.0143966675,103.0,-6.495273,-14.295343,0.06428528,0.09017944,-0.030715942,-2.3455956,1.0298365,9.46615
34.80520929,31.2650652,0.0,0.78641254,12-17-47,0.23126125,0.1225698,-0.0143966675,103.0,-6.495273,-14.295343,0.06428528,0.09017944,-0.030715942,-2.3455956,1.0298365,9.46615
34.80520929,31.2650652,0.0,0.78641254,12-17-47,0.23126125,0.1225698,-0.0143966675,104.0,-6.1265864,-15.04576,0.06428528,0.09017944,-0.030715942,-2.3455956,1.0298365,9.46615
34.80520929,31.2650652,0.0,0.78641254,12-17-47,0.23126125,0.1225698,-0.0143966675,104.0,-6.1265864,-15.04576,0.06428528,0.09017944,-0.030715942,-2.3455956,1.0298365,9.46615
34.80520929,31.2650652,0.0,0.78641254,12-17-47,0.23126125,0.1225698,-0.0143966675,104.0,-6.1265864,-15.04576,0.06428528,0.09017944,-0.030715942,-2.3455956,1.0298365,9.46615
34.80520929,31.2650652,0.0,0.78641254,12-17-47,0.23126125,0.1225698,-0.0143966675,104.0,-5.9912715,-15.096746,0.06428528,0.09017944,-0.030715942,-2.3455956,1.0298365,9.46615
34.80521346,31.2650631,0.76791924,0.6951609,12-17-47,0.09220743,0.027898908,0.03720665,104.0,-5.518877,-15.146724,-0.051727295,0.08566284,-0.13053894,-2.4854405,0.9894867,9.434717
34.80521346,31.2650631,0.76791924,0.6951609,12-17-47,0.09220743,0.027898908,0.03720665,104.0,-5.518877,-15.146724,-0.051727295,0.08566284,-0.13053894,-2.4854405,0.9894867,9.434717
34.80521346,31.2650631,0.76791924,0.6951609,12-17-47,0.09220743,0.027898908,0.03720665,104.0,-5.480216,-15.147715,-0.051727295,0.08566284,-0.13053894,-2.4854405,0.9894867,9.434717
34.80521346,31.2650631,0.76791924,0.6951609,12-17-47,0.09220743,0.027898908,0.03720665,104.0,-5.480216,-15.147715,-0.051727295,0.08566284,-0.13053894,-2.4854405,0.9894867,9.434717
34.80521346,31.2650631,0.76791924,0.6951609,12-17-47,0.09220743,0.027898908,0.03720665,105.0,-5.18603,-15.425593,-0.051727295,0.08566284,-0.13053894,-2.4854405,0.9894867,9.434717
34.80521346,31.2650631,0.76791924,0.6951609,12-17-47,0.09220743,0.027898908,0.03720665,105.0,-5.18603,-15.425593,-0.051727295,0.08566284,-0.13053894,-2.4854405,0.9894867,9.434717
34.80521346,31.2650631,0.76791924,0.6951609,12-17-47,0.09220743,0.027898908,0.03720665,105.0,-5.1591706,-15.414213,-0.051727295,0.08566284,-0.13053894,-2.4854405,0.9894867,9.434717
34.80521346,31.2650631,0.76791924,0.6951609,12-17-47,0.09220743,0.027898908,0.03720665,105.0,-5.1591706,-15.414213,-0.051727295,0.08566284,-0.13053894,-2.4854405,0.9894867,9.434717
34.80521346,31.2650631,0.76791924,0.6951609,12-17-47,-0.29279613,-0.32152003,-0.25644207,106.0,-5.265209,-15.5155735,-0.0025787354,0.015106201,-0.104019165,-2.5796518,0.8841253,9.419878
34.80521346,31.2650631,0.76791924,0.6951609,12-17-47,-0.29279613,-0.32152003,-0.25644207,106.0,-5.265209,-15.5155735,-0.0025787354,0.015106201,-0.104019165,-2.5796518,0.8841253,9.419878
34.80521346,31.2650631,0.76791924,0.6951609,12-17-47,-0.29279613,-0.32152003,-0.25644207,106.0,-5.265209,-15.5155735,-0.0025787354,0.015106201,-0.104019165,-2.5796518,0.8841253,9.419878
34.80521346,31.2650631,0.76791924,0.6951609,12-17-47,-0.29279613,-0.32152003,-0.25644207,106.0,-5.265209,-15.5155735,-0.0025787354,0.015106201,-0.104019165,-2.5796518,0.8841253,9.419878
34.80521346,31.2650631,0.76791924,0.6951609,12-17-48,-0.29279613,-0.32152003,-0.25644207,106.0,-5.6301403,-15.104828,-0.0025787354,0.015106201,-0.104019165,-2.5796518,0.8841253,9.419878
34.80521346,31.2650631,0.76791924,0.6951609,12-17-48,-0.29279613,-0.32152003,-0.25644207,106.0,-5.6301403,-15.104828,-0.0025787354,0.015106201,-0.104019165,-2.5796518,0.8841253,9.419878
34.80521346,31.2650631,0.76791924,0.6951609,12-17-48,-0.29279613,-0.32152003,-0.25644207,106.0,-5.6301403,-15.104828,-0.0025787354,0.015106201,-0.104019165,-2.5796518,0.8841253,9.419878
34.80521346,31.2650631,0.76791924,0.6951609,12-17-48,-0.29279613,-0.32152003,-0.25644207,106.0,-5.6301403,-15.104828,-0.0025787354,0.015106201,-0.104019165,-2.5796518,0.8841253,9.419878
34.80521346,31.2650631,0.76791924,0.6951609,12-17-48,0.008032322,0.12428719,-0.038466454,106.0,-6.155861,-15.041441,0.08630371,-0.045806885,-0.039489746,-2.5600743,0.9533874,9.418464
34.80521346,31.2650631,0.76791924,0.6951609,12-17-48,0.008032322,0.12428719,-0.038466454,106.0,-6.155861,-15.041441,0.08630371,-0.045806885,-0.039489746,-2.5600743,0.9533874,9.418464
34.80521346,31.2650631,0.76791924,0.6951609,12-17-48,0.008032322,0.12428719,-0.038466454,106.0,-6.155861,-15.041441,0.08630371,-0.045806885,-0.039489746,-2.5600743,0.9533874,9.418464
34.80521346,31.2650631,0.76791924,0.6951609,12-17-48,0.008032322,0.12428719,-0.038466454,106.0,-6.155861,-15.041441,0.08630371,-0.045806885,-0.039489746,-2.5600743,0.9533874,9.418464
34.80521346,31.2650631,0.76791924,0.6951609,12-17-48,0.008032322,0.12428719,-0.038466454,105.0,-6.657886,-15.149713,0.08630371,-0.045806885,-0.039489746,-2.5600743,0.9533874,9.418464
34.80521346,31.2650631,0.76791924,0.6951609,12-17-48,0.008032322,0.12428719,-0.038466454,105.0,-6.657886,-15.149713,0.08630371,-0.045806885,-0.039489746,-2.5600743,0.9533874,9.418464
34.80521346,31.2650631,0.76791924,0.6951609,12-17-48,0.008032322,0.12428719,-0.038466454,105.0,-6.657886,-15.149713,0.08630371,-0.045806885,-0.039489746,-2.5600743,0.9533874,9.418464
34.80521346,31.2650631,0.76791924,0.6951609,12-17-48,0.008032322,0.12428719,-0.038466454,105.0,-6.75249,-15.107176,0.08630371,-0.045806885,-0.039489746,-2.5600743,0.9533874,9.418464
34.80521346,31.2650631,0.76791924,0.6951609,12-17-48,0.018009901,0.5440316,0.0063066483,105.0,-6.9381685,-14.705583,0.03501892,-0.0043792725,0.11253357,-2.4945035,1.1020626,9.419835
34.80521346,31.2650631,0.76791924,0.6951609,12-17-48,0.018009901,0.5440316,0.0063066483,105.0,-6.9381685,-14.705583,0.03501892,-0.0043792725,0.11253357,-2.4945035,1.1020626,9.419835
34.80521346,31.2650631,0.76791924,0.6951609,12-17-48,0.018009901,0.5440316,0.0063066483,105.0,-6.9381685,-14.705583,0.03501892,-0.0043792725,0.11253357,-2.4945035,1.1020626,9.419835
34.80521346,31.2650631,0.76791924,0.6951609,12-17-48,0.018009901,0.5440316,0.0063066483,105.0,-6.9381685,-14.705583,0.03501892,-0.0043792725,0.11253357,-2.4945035,1.1020626,9.419835
34.80521346,31.2650631,0.76791924,0.6951609,12-17-48,0.018009901,0.5440316,0.0063066483,104.0,-6.8077693,-14.157824,0.03501892,-0.0043792725,0.11253357,-2.4945035,1.1020626,9.419835
34.80521346,31.2650631,0.76791924,0.6951609,12-17-48,0.018009901,0.5440316,0.0063066483,104.0,-6.8077693,-14.157824,0.03501892,-0.0043792725,0.11253357,-2.4945035,1.1020626,9.419835
34.80521346,31.2650631,0.76791924,0.6951609,12-17-48,0.018009901,0.5440316,0.0063066483,104.0,-6.8077693,-14.157824,0.03501892,-0.0043792725,0.11253357,-2.4945035,1.1020626,9.419835
34.80521346,31.2650631,0.76791924,0.6951609,12-17-48,0.018009901,0.5440316,0.0063066483,104.0,-6.846973,-14.094568,0.03501892,-0.0043792725,0.11253357,-2.4945035,1.1020626,9.419835
34.80521346,31.2650631,0.76791924,0.6951609,12-17-48,0.5158503,0.1765269,0.39013672,103.0,-6.925586,-14.100902,-0.040023804,-0.03715515,0.14312744,-2.405399,1.1562853,9.436496
34.80521346,31.2650631,0.76791924,0.6951609,12-17-48,0.5158503,0.1765269,0.39013672,103.0,-6.925586,-14.100902,-0.040023804,-0.03715515,0.14312744,-2.405399,1.1562853,9.436496
34.80521346,31.2650631,0.76791924,0.6951609,12-17-48,0.5158503,0.1765269,0.39013672,103.0,-6.925586,-14.100902,-0.040023804,-0.03715515,0.14312744,-2.405399,1.1562853,9.436496
34.80521346,31.2650631,0.76791924,0.6951609,12-17-48,0.5158503,0.1765269,0.39013672,103.0,-6.925586,-14.100902,-0.040023804,-0.03715515,0.14312744,-2.405399,1.1562853,9.436496
34.80521346,31.2650631,0.76791924,0.6951609,12-17-48,0.5158503,0.1765269,0.39013672,102.0,-6.7821746,-14.328145,-0.040023804,-0.03715515,0.14312744,-2.405399,1.1562853,9.436496
34.80521346,31.2650631,0.76791924,0.6951609,12-17-48,0.5158503,0.1765269,0.39013672,102.0,-6.7821746,-14.328145,-0.040023804,-0.03715515,0.14312744,-2.405399,1.1562853,9.436496
34.80521346,31.2650631,0.76791924,0.6951609,12-17-48,0.5158503,0.1765269,0.39013672,102.0,-6.766067,-14.266853,-0.040023804,-0.03715515,0.14312744,-2.405399,1.1562853,9.436496
34.80521346,31.2650631,0.76791924,0.6951609,12-17-48,0.5158503,0.1765269,0.39013672,102.0,-6.766067,-14.266853,-0.040023804,-0.03715515,0.14312744,-2.405399,1.1562853,9.436496
34.80520963,31.26505469,0.6606815,1.6961355,12-17-48,-0.83624744,-0.13091338,0.14676476,102.0,-6.5241203,-13.884657,-0.060928345,-0.009048462,0.13682556,-2.3719876,1.1127723,9.450174
34.80520963,31.26505469,0.6606815,1.6961355,12-17-48,-0.83624744,-0.13091338,0.14676476,102.0,-6.420129,-13.775745,-0.060928345,-0.009048462,0.13682556,-2.3719876,1.1127723,9.450174
34.80520963,31.26505469,0.6606815,1.6961355,12-17-48,-0.83624744,-0.13091338,0.14676476,102.0,-6.420129,-13.775745,-0.060928345,-0.009048462,0.13682556,-2.3719876,1.1127723,9.450174
34.80520963,31.26505469,0.6606815,1.6961355,12-17-48,-0.83624744,-0.13091338,0.14676476,102.0,-6.420129,-13.775745,-0.060928345,-0.009048462,0.13682556,-2.3719876,1.1127723,9.450174
34.80520963,31.26505469,0.6606815,1.6961355,12-17-48,-0.83624744,-0.13091338,0.14676476,102.0,-6.2765584,-13.349891,-0.060928345,-0.009048462,0.13682556,-2.3719876,1.1127723,9.450174
34.80520963,31.26505469,0.6606815,1.6961355,12-17-48,-0.83624744,-0.13091338,0.14676476,102.0,-6.2765584,-13.349891,-0.060928345,-0.009048462,0.13682556,-2.3719876,1.1127723,9.450174
34.80520963,31.26505469,0.6606815,1.6961355,12-17-48,-0.83624744,-0.13091338,0.14676476,102.0,-6.2765584,-13.349891,-0.060928345,-0.009048462,0.13682556,-2.3719876,1.1127723,9.450174
34.80520963,31.26505469,0.6606815,1.6961355,12-17-48,-0.83624744,-0.13091338,0.14676476,102.0,-6.2765584,-13.349891,-0.060928345,-0.009048462,0.13682556,-2.3719876,1.1127723,9.450174
34.80520963,31.26505469,0.6606815,1.6961355,12-17-48,0.8170154,-0.08651376,-0.0132808685,102.0,-5.8288636,-14.097572,-0.032424927,0.005706787,-0.06752014,-2.322674,1.033031,9.471453
34.80520963,31.26505469,0.6606815,1.6961355,12-17-48,0.8170154,-0.08651376,-0.0132808685,102.0,-5.8288636,-14.097572,-0.032424927,0.005706787,-0.06752014,-2.322674,1.033031,9.471453
34.80520963,31.26505469,0.6606815,1.6961355,12-17-48,0.8170154,-0.08651376,-0.0132808685,102.0,-5.8288636,-14.097572,-0.032424927,0.005706787,-0.06752014,-2.322674,1.033031,9.471453
34.80520963,31.26505469,0.6606815,1.6961355,12-17-48,0.8170154,-0.08651376,-0.0132808685,102.0,-5.8288636,-14.097572,-0.032424927,0.005706787,-0.06752014,-2.322674,1.033031,9.471453
34.80520963,31.26505469,0.6606815,1.6961355,12-17-49,0.8170154,-0.08651376,-0.0132808685,103.0,-5.407718,-14.818785,-0.032424927,0.005706787,-0.06752014,-2.322674,1.033031,9.471453
34.80520963,31.26505469,0.6606815,1.6961355,12-17-49,0.8170154,-0.08651376,-0.0132808685,103.0,-5.407718,-14.818785,-0.032424927,0.005706787,-0.06752014,-2.322674,1.033031,9.471453
