Longitude,Latitude,Speed,Distance,Time,Acc X,Acc Y,Acc Z,Heading,Pitch,Roll,gyro_x,gyro_y,gyro_z,gravity_x,gravity_y,gravity_z
34.80054185,31.26171582,0.0,5043027.0,10-35-30,0.30929446,-0.4108824,0.4413662,275.0,-2.1845198,-22.469074,0.23524475,0.027770996,-0.20617676,-3.682352,0.32617563,9.083187
34.80054185,31.26171582,0.0,5043027.0,10-35-30,0.035465956,-0.59201217,0.2829609,273.0,-2.181033,-23.308907,0.23524475,0.027770996,-0.20617676,-3.797659,0.40189686,9.032533
34.80054185,31.26171582,0.0,5043027.0,10-35-30,0.035465956,-0.59201217,0.2829609,271.0,-2.38729,-24.465029,-0.09625244,0.17088318,0.2574005,-3.797659,0.40189686,9.032533
34.80054185,31.26171582,0.0,5043027.0,10-35-30,0.5595403,0.11945206,0.022881508,271.0,-2.6534426,-25.42572,-0.09625244,0.17088318,0.2574005,-4.043431,0.4819858,8.921252
34.80054186,31.26171581,0.0,0.001461648,10-35-30,0.5595403,0.11945206,0.022881508,271.0,-2.5373893,-25.868826,-0.010269165,0.15893555,0.062149048,-4.043431,0.4819858,8.921252
34.80054186,31.26171581,0.0,0.001461648,10-35-30,-0.26389837,0.0030957162,-0.14772224,271.0,-2.3357081,-25.824827,-0.010269165,0.15893555,0.062149048,-4.2329035,0.46948886,8.833601
34.80054186,31.26171581,0.0,0.001461648,10-35-31,-0.26389837,0.0030957162,-0.14772224,271.0,-0.8594158,-25.213764,-0.11495972,-0.057785034,0.017700195,-4.2329035,0.46948886,8.833601
34.80054186,31.26171581,0.0,0.001461648,10-35-31,-3.1571765,-0.19820124,3.0038958,271.0,-0.46122253,-25.149483,-0.11495972,-0.057785034,0.017700195,-4.2400055,0.2847522,8.838079
34.80054186,31.26171581,0.0,0.001461648,10-35-31,-3.1571765,-0.19820124,3.0038958,270.0,-0.5597257,-25.505655,-0.01864624,-0.056015015,-0.04006958,-4.2400055,0.2847522,8.838079
34.80054186,31.26171581,0.0,0.001461648,10-35-31,0.44490385,-0.35372967,0.26629162,268.0,-0.40449983,-27.077562,-0.01864624,-0.056015015,-0.04006958,-4.29757,0.1382601,8.813748
34.80054186,31.26171581,0.0,0.001461648,10-35-31,0.44490385,-0.35372967,0.26629162,265.0,0.57550997,-27.950098,-0.25343323,0.26438904,0.37631226,-4.29757,0.1382601,8.813748
34.80054186,31.26171581,0.0,0.001461648,10-35-31,0.8906088,0.0067106187,-0.91275215,266.0,-1.1402711,-26.632479,-0.25343323,0.26438904,0.37631226,-4.416509,0.19138865,8.753754
34.80054186,31.26171581,0.0,0.001461648,10-35-31,0.8906088,0.0067106187,-0.91275215,263.0,-1.3282467,-24.195587,0.0660553,-0.24893188,0.14860535,-4.416509,0.19138865,8.753754
34.80054186,31.26171581,0.0,0.001461648,10-35-31,1.8123288,0.30391097,-0.8148594,262.0,-1.0865093,-23.818275,0.0660553,-0.24893188,0.14860535,-4.138469,0.2591625,8.886861
34.80054186,31.26171579,0.0,0.0034598908,10-35-31,1.8123288,0.30391097,-0.8148594,264.0,-2.8455303,-22.793709,0.15567017,-0.15200806,-0.029129028,-4.138469,0.2591625,8.886861
34.80054186,31.26171579,0.0,0.0034598908,10-35-31,0.4042685,-0.005658388,-0.5852947,263.0,-2.1911728,-23.36439,0.15567017,-0.15200806,-0.029129028,-3.9113085,0.3380666,8.986532
34.80054186,31.26171579,0.0,0.0034598908,10-35-32,0.4042685,-0.005658388,-0.5852947,265.0,-2.9118733,-22.275099,-0.112213135,0.010192871,0.06852722,-3.9113085,0.3380666,8.986532
34.80054186,31.26171579,0.0,0.0034598908,10-35-32,-0.7974212,-0.63609314,-1.0997934,266.0,-3.9659905,-21.008001,-0.112213135,0.010192871,0.06852722,-3.717556,0.55447197,9.057744
34.80054186,31.26171579,0.0,0.0034598908,10-35-32,-0.7974212,-0.63609314,-1.0997934,263.0,-1.3350136,-19.910603,-0.09567261,-0.25813293,0.101486206,-3.717556,0.55447197,9.057744
34.80054186,31.26171579,0.0,0.0034598908,10-35-32,-0.38394403,-0.89821535,0.31279945,265.0,-2.8998082,-19.115461,-0.09567261,-0.25813293,0.101486206,-3.3603487,0.6039586,9.193132
34.80054186,31.26171579,0.0,0.0034598908,10-35-32,-0.38394403,-0.89821535,0.31279945,264.0,-3.3678207,-17.57216,0.1822052,-0.198349,-0.02973938,-3.3603487,0.6039586,9.193132
34.80054186,31.26171579,0.0,0.0034598908,10-35-32,0.24916077,0.13181585,-0.29904175,264.0,-4.0356507,-15.889673,0.1822052,-0.198349,-0.02973938,-2.9604692,0.62168396,9.328425
34.80054186,31.26171579,0.0,0.0034598908,10-35-32,0.24916077,0.13181585,-0.29904175,263.0,-3.6975784,-15.402566,0.031814575,-0.19085693,0.03453064,-2.9604692,0.62168396,9.328425
34.80054186,31.26171579,0.0,0.0034598908,10-35-32,0.5160692,0.20046192,-0.34453487,263.0,-3.3150897,-14.844836,0.031814575,-0.19085693,0.03453064,-2.6034782,0.6583544,9.4318
34.80054188,31.26171578,0.0,0.0052756863,10-35-32,0.5160692,0.20046192,-0.34453487,263.0,-3.109661,-16.404867,-0.02859497,0.05229187,-9.613037E-4,-2.6034782,0.6583544,9.4318
34.80054188,31.26171578,0.0,0.0052756863,10-35-32,0.6292217,-0.20670515,0.6665716,264.0,-3.7984471,-18.327522,-0.02859497,0.05229187,-9.613037E-4,-2.7401526,0.6024962,9.396751
34.80054188,31.26171578,0.0,0.0052756863,10-35-33,0.6292217,-0.20670515,0.6665716,264.0,-4.2859445,-17.950146,0.087387085,0.19465637,-0.065216064,-2.7401526,0.6024962,9.396751
34.80054188,31.26171578,0.0,0.0052756863,10-35-33,-0.65570164,0.1881609,-1.3309021,264.0,-4.491346,-15.962522,0.087387085,0.19465637,-0.065216064,-2.9160862,0.68643326,9.33786
34.80054188,31.26171578,0.0,0.0052756863,10-35-33,-0.65570164,0.1881609,-1.3309021,265.0,-4.1461887,-15.008121,0.024749756,-0.2541046,-0.05656433,-2.9160862,0.68643326,9.33786
34.80054188,31.26171578,0.0,0.0052756863,10-35-33,0.39901614,0.25042772,0.62178516,265.0,-3.6511135,-14.751013,0.024749756,-0.2541046,-0.05656433,-2.6224155,0.6988726,9.4236355
34.80054188,31.26171578,0.0,0.0052756863,10-35-33,0.39901614,0.25042772,0.62178516,266.0,-3.445875,-14.944114,-0.070617676,-0.04017639,-0.068222046,-2.6224155,0.6988726,9.4236355
34.80054188,31.26171578,0.0,0.0052756863,10-35-33,0.4566021,0.58994204,0.2399416,267.0,-2.5131466,-15.491344,-0.070617676,-0.04017639,-0.068222046,-2.5305696,0.5901405,9.456127
34.80054188,31.26171578,0.0,0.0052756863,10-35-33,0.4566021,0.58994204,0.2399416,269.0,-1.0730437,-15.726307,-0.12721252,0.0637207,-0.24473572,-2.5305696,0.5901405,9.456127
34.80054188,31.26171578,0.0,0.0052756863,10-35-33,-0.30178928,-0.59072065,-0.032011032,269.0,0.17435035,-15.745297,-0.12721252,0.0637207,-0.24473572,-2.6342967,0.268399,9.442395
34.80054187,31.26171577,0.0,0.00586183,10-35-33,-0.30178928,-0.59072065,-0.032011032,269.0,0.6297171,-14.754818,-0.09965515,-0.07499695,-0.10458374,-2.6342967,0.268399,9.442395
34.80054187,31.26171577,0.0,0.00586183,10-35-33,-0.0441525,-0.9870962,-0.095389366,269.0,0.65314287,-13.67997,-0.09965515,-0.07499695,-0.10458374,-2.5172307,-0.010991319,9.47807
34.80054187,31.26171577,0.0,0.00586183,10-35-34,-0.0441525,-0.9870962,-0.095389366,268.0,0.7604878,-12.4584255,-0.030151367,-0.18208313,0.12184143,-2.5172307,-0.010991319,9.47807
34.80054187,31.26171577,0.0,0.00586183,10-35-34,0.79385066,-0.60157263,0.046996117,267.0,0.107865684,-11.344172,-0.030151367,-0.18208313,0.12184143,-2.1514893,-0.02133015,9.567707
34.80054187,31.26171577,0.0,0.00586183,10-35-34,0.79385066,-0.60157263,0.046996117,265.0,-1.6810515,-10.249134,0.15000916,-0.16491699,0.2806244,-2.1514893,-0.02133015,9.567707
34.80054187,31.26171577,0.0,0.00586183,10-35-34,1.0638005,0.31861496,0.89916325,264.0,-2.8313186,-10.188689,0.15000916,-0.16491699,0.2806244,-1.8325763,0.27145013,9.630076
34.80054187,31.26171577,0.0,0.00586183,10-35-34,1.0638005,0.31861496,0.89916325,262.0,-3.2926385,-9.443178,0.0899353,-0.05079651,0.20373535,-1.8325763,0.27145013,9.630076
34.80054187,31.26171577,0.0,0.00586183,10-35-34,0.41094792,-0.09531587,0.52412415,262.0,-3.8353539,-9.324714,0.0899353,-0.05079651,0.20373535,-1.6285423,0.5721663,9.653542
34.80054187,31.26171577,0.0,0.00586183,10-35-34,0.41094792,-0.09531587,0.52412415,261.0,-4.672608,-9.911239,0.09724426,0.059906006,0.12780762,-1.6285423,0.5721663,9.653542
34.80054187,31.26171577,0.0,0.00586183,10-35-34,1.2966934,0.009792864,0.31420517,261.0,-5.032778,-11.355722,0.09724426,0.059906006,0.12780762,-1.637086,0.7586709,9.63923
34.80054187,31.26171577,0.0,0.00586183,10-35-34,1.2966934,0.009792864,0.31420517,261.0,-4.891382,-12.003298,0.032348633,0.18992615,-0.0021514893,-1.637086,0.7586709,9.63923
34.80054187,31.26171577,0.0,0.00586183,10-35-34,-0.801983,-0.23570108,-0.38917065,261.0,-4.7873483,-11.960356,0.032348633,0.18992615,-0.0021514893,-1.9489222,0.86620307,9.571927
34.80054187,31.26171577,0.0,0.00586183,10-35-35,-0.801983,-0.23570108,-0.38917065,261.0,-5.2197948,-11.54588,0.02168274,-0.046661377,0.024505615,-1.9489222,0.86620307,9.571927
34.80054187,31.26171577,0.0,0.00586183,10-35-35,-0.11915159,-0.16329259,0.030963898,260.0,-6.3899097,-12.129299,0.02168274,-0.046661377,0.024505615,-2.0392172,0.9491077,9.5452175
34.80054187,31.26171577,0.0,0.00586183,10-35-35,-0.11915159,-0.16329259,0.030963898,259.0,-6.554906,-12.202754,0.08206177,0.06480408,0.121536255,-2.0392172,0.9491077,9.5452175
34.80054187,31.26171577,0.0,0.00586183,10-35-35,-0.48790026,0.51796603,-0.45011425,258.0,-6.4693995,-11.9205265,0.08206177,0.06480408,0.121536255,-2.044932,1.0978036,9.528036
34.80054187,31.26171577,0.0,0.00586183,10-35-35,-0.48790026,0.51796603,-0.45011425,259.0,-6.4820676,-12.607782,-0.014022827,0.028076172,0.0041656494,-2.044932,1.0978036,9.528036
34.80054187,31.26171577,0.0,0.00586183,10-35-35,-0.23660803,-0.03219247,0.21313858,259.0,-6.0642323,-12.416713,-0.014022827,0.028076172,0.0041656494,-2.099922,1.0968553,9.516176
34.80054187,31.26171577,0.0,0.00586183,10-35-35,-0.23660803,-0.03219247,0.21313858,259.0,-6.5718174,-12.011063,0.024368286,-0.035873413,0.018539429,-2.099922,1.0968553,9.516176
34.80054187,31.26171577,0.0,0.00586183,10-35-35,0.85706306,-0.7275107,0.35618114,259.0,-6.556327,-12.700745,0.024368286,-0.035873413,0.018539429,-2.108735,1.1038458,9.513419
34.80054188,31.26171576,0.0,0.007240093,10-35-35,0.85706306,-0.7275107,0.35618114,260.0,-6.315326,-13.07315,-0.0060577393,0.09915161,-0.07725525,-2.108735,1.1038458,9.513419
34.80054188,31.26171576,0.0,0.007240093,10-35-35,-0.079657555,-0.043380857,0.16071987,261.0,-5.497777,-13.905908,-0.0060577393,0.09915161,-0.07725525,-2.2194877,1.0962518,9.489073
34.80054188,31.26171576,0.0,0.007240093,10-35-36,-0.079657555,-0.043380857,0.16071987,260.0,-5.313881,-13.624106,-0.067474365,0.0028533936,-0.04437256,-2.2194877,1.0962518,9.489073
34.80054188,31.26171576,0.0,0.007240093,10-35-36,-0.7788768,-0.23446804,-0.07016277,260.0,-5.5673537,-13.381252,-0.067474365,0.0028533936,-0.04437256,-2.295211,0.9791859,9.483859
34.80054188,31.26171576,0.0,0.007240093,10-35-36,-0.7788768,-0.23446804,-0.07016277,260.0,-5.1440096,-14.036163,-0.044692993,0.06739807,0.057495117,-2.295211,0.9791859,9.483859
34.80054188,31.26171576,0.0,0.007240093,10-35-36,0.5570502,0.28125525,-0.2569809,259.0,-4.34004,-14.504352,-0.044692993,0.06739807,0.057495117,-2.3104377,0.8792543,9.489951
34.80054188,31.26171576,0.0,0.007240093,10-35-36,0.5570502,0.28125525,-0.2569809,258.0,-4.09492,-15.416799,-0.1244812,0.11053467,0.13694763,-2.3104377,0.8792543,9.489951
34.80054188,31.26171576,0.0,0.007240093,10-35-36,-0.16661787,-0.15890253,0.73727226,257.0,-4.2400546,-17.207314,-0.1244812,0.11053467,0.13694763,-2.564736,0.7675493,9.434161
34.80054188,31.26171576,0.0,0.007240093,10-35-36,-0.16661787,-0.15890253,0.73727226,257.0,-4.958447,-16.397514,0.069869995,0.072143555,0.06736755,-2.564736,0.7675493,9.434161
34.80054188,31.26171576,0.0,0.007240093,10-35-36,-1.1897633,-0.93763846,-0.59963036,257.0,-6.393297,-16.509432,0.069869995,0.072143555,0.06736755,-2.7647357,0.82000214,9.373058
34.80054188,31.26171577,0.0,0.0062367143,10-35-36,-1.1897633,-0.93763846,-0.59963036,258.0,-7.232629,-17.575197,0.2076416,0.10354614,-0.07417297,-2.7647357,0.82000214,9.373058
34.80054188,31.26171577,0.0,0.0062367143,10-35-36,0.47138023,0.6980995,-0.3577175,259.0,-6.6660194,-18.684727,0.2076416,0.10354614,-0.07417297,-2.8844266,1.0751234,9.310992
34.80054188,31.26171577,0.0,0.0062367143,10-35-37,0.47138023,0.6980995,-0.3577175,260.0,-6.4156055,-17.014894,0.008544922,-0.11256409,-0.19255066,-2.8844266,1.0751234,9.310992
34.80054188,31.26171577,0.0,0.0062367143,10-35-37,-1.400754,-0.40235424,-0.73713684,261.0,-6.838642,-15.828388,0.008544922,-0.11256409,-0.19255066,-2.9353216,1.1023885,9.291879
34.80054188,31.26171577,0.0,0.0062367143,10-35-37,-1.400754,-0.40235424,-0.73713684,262.0,-7.4734626,-15.271617,0.12445068,-0.15409851,-0.15156555,-2.9353216,1.1023885,9.291879
34.80054188,31.26171577,0.0,0.0062367143,10-35-37,0.6146724,0.34796548,-0.15317917,263.0,-7.1678815,-14.920079,0.12445068,-0.15409851,-0.15156555,-2.6461792,1.1485094,9.372782
34.80054188,31.26171577,0.0,0.0062367143,10-35-37,0.6146724,0.34796548,-0.15317917,263.0,-6.3537846,-14.553485,-0.08161926,-0.08152771,-0.06347656,-2.6461792,1.1485094,9.372782
34.80054188,31.26171577,0.0,0.0062367143,10-35-37,-0.92114806,0.01015532,0.491951,263.0,-6.802302,-14.176626,-0.08161926,-0.08152771,-0.06347656,-2.5399256,1.1682328,9.399702
34.80054188,31.26171577,0.0,0.0062367143,10-35-37,-0.92114806,0.01015532,0.491951,264.0,-7.0860353,-12.44276,0.09889221,-0.22598267,-0.06263733,-2.5399256,1.1682328,9.399702
34.80054188,31.26171577,0.0,0.0062367143,10-35-37,-0.36689925,-0.299304,-0.3169937,264.0,-7.177767,-11.577106,0.09889221,-0.22598267,-0.06263733,-2.2396545,1.1565208,9.477172
34.80053517,31.2617151,1.0511898,0.6412082,10-35-37,-0.36689925,-0.299304,-0.3169937,264.0,-6.5566006,-11.598831,-0.064437866,-0.05026245,0.023025513,-2.2396545,1.1565208,9.477172
34.80053517,31.2617151,1.0511898,0.6412082,10-35-37,0.6996845,-0.23137927,-0.07630062,265.0,-5.732501,-11.394025,-0.064437866,-0.05026245,0.023025513,-1.9310029,1.1251113,9.548599
34.80053517,31.2617151,1.0511898,0.6412082,10-35-38,0.6996845,-0.23137927,-0.07630062,264.0,-4.680873,-11.294473,-0.15219116,-0.032485962,-0.019515991,-1.9310029,1.1251113,9.548599
34.80053517,31.2617151,1.0511898,0.6412082,10-35-38,-0.7124419,-0.14921093,-0.33855343,264.0,-4.886435,-10.270739,-0.15219116,-0.032485962,-0.019515991,-1.9317199,0.8931843,9.572934
34.80053517,31.2617151,1.0511898,0.6412082,10-35-38,-0.7124419,-0.14921093,-0.33855343,264.0,-5.3270693,-8.9474535,0.07928467,-0.2541504,-0.021652222,-1.9317199,0.8931843,9.572934
34.80053517,31.2617151,1.0511898,0.6412082,10-35-38,-0.562572,0.343,-0.18157291,264.0,-5.1097984,-7.4314036,0.07928467,-0.2541504,-0.021652222,-1.6811626,0.8530813,9.623738
34.80053517,31.2617151,1.0511898,0.6412082,10-35-38,-0.562572,0.343,-0.18157291,264.0,-4.406941,-7.4737215,-0.09463501,-0.07243347,0.037857056,-1.6811626,0.8530813,9.623738
34.80053517,31.2617151,1.0511898,0.6412082,10-35-38,0.5805664,-0.025642395,1.0786123,264.0,-4.2831078,-8.173012,-0.09463501,-0.07243347,0.037857056,-1.3392036,0.8453919,9.677925
34.80053517,31.2617151,1.0511898,0.6412082,10-35-38,-0.96176946,-0.64390993,0.3032894,263.0,-4.3249583,-8.062879,0.014480591,0.022583008,0.015792847,-1.3474605,0.74886686,9.684727
34.80053517,31.2617151,1.0511898,0.6412082,10-35-38,-0.96176946,-0.64390993,0.3032894,263.0,-4.7338347,-8.138872,0.014480591,0.022583008,0.015792847,-1.3474605,0.74886686,9.684727
34.80051833,31.2617101,1.0438869,2.3281465,10-35-38,-0.96176946,-0.64390993,0.3032894,264.0,-5.2566442,-9.597712,0.08654785,0.18309021,-0.046722412,-1.3474605,0.74886686,9.684727
34.80051833,31.2617101,1.0438869,2.3281465,10-35-38,1.2203224,0.12682146,0.4796734,265.0,-6.1768503,-11.840018,0.08654785,0.18309021,-0.046722412,-1.4920413,0.8573801,9.654486
34.80051833,31.2617101,1.0438869,2.3281465,10-35-39,1.2203224,0.12682146,0.4796734,264.0,-5.765994,-12.858859,0.043899536,0.23652649,-0.089279175,-1.4920413,0.8573801,9.654486
34.80051833,31.2617101,1.0438869,2.3281465,10-35-39,-1.157893,-0.18095195,-0.71495724,264.0,-5.151669,-12.943674,0.043899536,0.23652649,-0.089279175,-1.9846971,0.9482408,9.556788
34.80051833,31.2617101,1.0438869,2.3281465,10-35-39,-1.157893,-0.18095195,-0.71495724,264.0,-4.56723,-12.541907,0.043899536,0.23652649,-0.089279175,-1.9846971,0.9482408,9.556788
34.80051833,31.2617101,1.0438869,2.3281465,10-35-39,-0.119816065,0.008343101,-0.17876339,263.0,-4.338724,-12.852674,-0.11627197,-0.03074646,0.06315613,-2.1793525,0.8661764,9.522108
34.80051833,31.2617101,1.0438869,2.3281465,10-35-39,0.16321898,-0.1437782,0.14085865,263.0,-4.5679264,-13.260263,-0.02508545,0.08106995,0.10475159,-2.1976047,0.7616961,9.526843
34.80051833,31.2617101,1.0438869,2.3281465,10-35-39,0.16321898,-0.1437782,0.14085865,262.0,-4.4582915,-13.59147,-0.02508545,0.08106995,0.10475159,-2.1976047,0.7616961,9.526843
34.80051833,31.2617101,1.0438869,2.3281465,10-35-39,-1.1261115,-0.1719119,-0.028579712,261.0,-4.533607,-13.09837,0.0018463135,-0.06109619,0.07904053,-2.258001,0.7663784,9.512333
34.80051833,31.2617101,1.0438869,2.3281465,10-35-39,-1.1261115,-0.1719119,-0.028579712,261.0,-5.1267796,-12.69532,0.0018463135,-0.06109619,0.07904053,-2.258001,0.7663784,9.512333
34.80050991,31.26171299,1.014002,3.0581827,10-35-39,0.91034913,0.1277898,0.09217358,262.0,-5.5142956,-13.195687,0.08488464,0.045135498,-0.04512024,-2.1907403,0.85909194,9.520137
34.80050991,31.26171299,1.014002,3.0581827,10-35-39,0.91034913,0.1277898,0.09217358,262.0,-5.6434813,-13.382568,0.08488464,0.045135498,-0.04512024,-2.1907403,0.85909194,9.520137
34.80050991,31.26171299,1.014002,3.0581827,10-35-40,-0.38572812,0.026426196,-0.13241482,263.0,-5.062932,-13.782355,-0.029159546,0.024337769,-0.07936096,-2.2930021,0.892439,9.492949
34.80050991,31.26171299,1.014002,3.0581827,10-35-40,-0.38572812,0.026426196,-0.13241482,264.0,-5.0636754,-14.275271,-0.029159546,0.024337769,-0.07936096,-2.2930021,0.892439,9.492949
34.80050991,31.26171299,1.014002,3.0581827,10-35-40,-0.36556578,0.41099954,0.052233696,264.0,-4.83851,-14.960406,0.0037078857,0.08113098,-0.13256836,-2.4369922,0.8458291,9.461291
34.80050991,31.26171299,1.014002,3.0581827,10-35-40,-0.36556578,0.41099954,0.052233696,264.0,-4.468552,-14.857715,0.0037078857,0.08113098,-0.13256836,-2.4369922,0.8458291,9.461291
34.80050991,31.26171299,1.014002,3.0581827,10-35-40,0.44759965,-0.17297435,-0.42799854,264.0,-4.088657,-15.119037,-0.072265625,0.033691406,0.04244995,-2.5319178,0.7482022,9.444573
34.80050991,31.26171299,1.014002,3.0581827,10-35-40,0.44759965,-0.17297435,-0.42799854,263.0,-3.9999363,-15.565925,-0.072265625,0.033691406,0.04244995,-2.5319178,0.7482022,9.444573
34.80050991,31.26171299,1.014002,3.0581827,10-35-40,-1.0502949,-0.484675,0.31201267,263.0,-4.2888436,-15.105914,-0.072265625,0.033691406,0.04244995,-2.5760527,0.6919709,9.436923
34.80050991,31.26171299,1.014002,3.0581827,10-35-40,-1.0502949,-0.484675,0.31201267,263.0,-5.227755,-14.887864,0.02960205,-0.025772095,0.052841187,-2.5760527,0.6919709,9.436923
34.80049064,31.26170931,1.0716809,4.930484,10-35-40,0.54556584,-0.008387566,0.25993252,263.0,-5.8903317,-14.57849,0.1421051,-0.014083862,5.645752E-4,-2.4960413,0.8517672,9.445351
34.80049064,31.26170931,1.0716809,4.930484,10-35-40,0.54556584,-0.008387566,0.25993252,264.0,-6.369819,-15.664521,0.1421051,-0.014083862,5.645752E-4,-2.4960413,0.8517672,9.445351
34.80049064,31.26170931,1.0716809,4.930484,10-35-41,-0.2889197,-0.0678215,-0.30312538,264.0,-5.7256966,-17.20723,-0.02571106,0.16932678,-0.058898926,-2.691993,0.963148,9.380613
34.80049064,31.26170931,1.0716809,4.930484,10-35-41,-0.2889197,-0.0678215,-0.30312538,264.0,-5.5739756,-16.729248,-0.02571106,0.16932678,-0.058898926,-2.691993,0.963148,9.380613
34.80049064,31.26170931,1.0716809,4.930484,10-35-41,-0.80649614,0.047850132,-0.4210682,263.0,-5.230523,-15.522887,-0.02571106,0.16932678,-0.058898926,-2.8042932,0.9203117,9.351971
34.80049064,31.26170931,1.0716809,4.930484,10-35-41,-0.80649614,0.047850132,-0.4210682,263.0,-4.2463775,-14.89919,-0.0639801,-0.13760376,0.059188843,-2.8042932,0.9203117,9.351971
34.80049064,31.26170931,1.0716809,4.930484,10-35-41,1.0335906,0.15691495,0.37786102,262.0,-3.6031997,-14.944178,-0.14735413,-0.0064697266,0.083099365,-2.557152,0.7580518,9.436987
34.80049064,31.26170931,1.0716809,4.930484,10-35-41,1.0335906,0.15691495,0.37786102,262.0,-3.8305573,-15.88447,-0.14735413,-0.0064697266,0.083099365,-2.557152,0.7580518,9.436987
34.80049064,31.26170931,1.0716809,4.930484,10-35-41,-1.4583898,-0.7186672,-0.27355385,261.0,-4.807556,-15.523108,-0.14735413,-0.0064697266,0.083099365,-2.617281,0.6774505,9.426627
34.80049064,31.26170931,1.0716809,4.930484,10-35-41,-1.4583898,-0.7186672,-0.27355385,261.0,-5.735537,-13.910541,0.11177063,-0.025604248,0.06829834,-2.617281,0.6774505,9.426627
34.80047879,31.26171664,1.03,6.006676,10-35-41,0.67778826,0.012120903,0.12717056,261.0,-6.1285706,-14.255568,0.11177063,-0.025604248,0.06829834,-2.5043461,0.9023543,9.438453
34.80047879,31.26171664,1.03,6.006676,10-35-41,0.67778826,0.012120903,0.12717056,262.0,-6.1988587,-14.809766,0.09312439,-0.036483765,0.035217285,-2.5043461,0.9023543,9.438453
34.80047879,31.26171664,1.03,6.006676,10-35-42,0.27919006,0.31739593,0.16383934,263.0,-6.0896306,-15.6514225,0.09312439,-0.036483765,0.035217285,-2.4747007,1.0381559,9.43231
34.80047879,31.26171664,1.03,6.006676,10-35-42,0.27919006,0.31739593,0.16383934,263.0,-5.5405917,-15.712252,1.5258789E-4,0.1023407,-0.13212585,-2.4747007,1.0381559,9.43231
34.80047879,31.26171664,1.03,6.006676,10-35-42,-0.99988866,-0.38684833,-0.4325161,264.0,-5.251532,-15.651895,1.5258789E-4,0.1023407,-0.13212585,-2.6419594,0.95296663,9.395865
34.80047879,31.26171664,1.03,6.006676,10-35-42,-0.99988866,-0.38684833,-0.4325161,263.0,-5.1506987,-14.875523,-0.027923584,-0.06201172,-0.059890747,-2.6419594,0.95296663,9.395865
34.80047879,31.26171664,1.03,6.006676,10-35-42,0.578943,-0.065707624,-0.11945915,263.0,-4.821841,-14.603641,-0.027923584,-0.06201172,-0.059890747,-2.5455992,0.8535001,9.431959
34.80047879,31.26171664,1.03,6.006676,10-35-42,0.578943,-0.065707624,-0.11945915,262.0,-4.428595,-15.002994,-0.05986023,-0.036575317,0.0716095,-2.5455992,0.8535001,9.431959
34.80047879,31.26171664,1.03,6.006676,10-35-42,-0.97767043,-0.28079945,0.24004841,261.0,-4.0714173,-14.034554,-0.05986023,-0.036575317,0.0716095,-2.47108,0.7444498,9.460969
34.80047879,31.26171664,1.03,6.006676,10-35-42,-0.97767043,-0.28079945,0.24004841,262.0,-4.3755407,-13.421462,-0.06768799,-0.093429565,0.13218689,-2.47108,0.7444498,9.460969
34.80046758,31.26172368,0.9226592,7.1271353,10-35-42,0.9421859,0.14096886,1.1295109,262.0,-4.4850254,-14.643385,-0.06768799,-0.093429565,0.13218689,-2.3688204,0.71711344,9.489195
34.80046758,31.26172368,0.9226592,7.1271353,10-35-42,0.9421859,0.14096886,1.1295109,263.0,-4.660379,-16.36107,0.036193848,0.12399292,-0.070251465,-2.3688204,0.71711344,9.489195
34.80046758,31.26172368,0.9226592,7.1271353,10-35-43,0.13418603,-0.5652912,-0.47188663,263.0,-5.510606,-18.197964,0.036193848,0.12399292,-0.070251465,-2.6447415,0.79201853,9.410018
34.80046758,31.26172368,0.9226592,7.1271353,10-35-43,0.13418603,-0.5652912,-0.47188663,263.0,-5.1359396,-18.279964,0.111709595,0.29727173,-0.0692749,-2.6447415,0.79201853,9.410018
34.80046758,31.26172368,0.9226592,7.1271353,10-35-43,-1.8079515,0.16769361,-1.4102335,263.0,-4.8969984,-17.030945,0.111709595,0.29727173,-0.0692749,-2.9999013,0.8499276,9.297774
34.80046758,31.26172368,0.9226592,7.1271353,10-35-43,-1.8079515,0.16769361,-1.4102335,264.0,-4.7302446,-15.702326,-0.050094604,-0.21923828,-0.01777649,-2.9999013,0.8499276,9.297774
34.80046758,31.26172368,0.9226592,7.1271353,10-35-43,0.97083426,0.30792654,0.45125008,263.0,-4.0537477,-15.960778,-0.050094604,-0.21923828,-0.01777649,-2.7902105,0.7821123,9.368747
34.80046758,31.26172368,0.9226592,7.1271353,10-35-43,0.97083426,0.30792654,0.45125008,263.0,-3.6211221,-16.01156,-0.10484314,-0.013214111,0.04788208,-2.7902105,0.7821123,9.368747
34.80046758,31.26172368,0.9226592,7.1271353,10-35-43,-0.23941088,-0.25115186,0.20066738,263.0,-4.1977744,-15.695199,-0.10484314,-0.013214111,0.04788208,-2.6525567,0.68234366,9.416408
34.80046758,31.26172368,0.9226592,7.1271353,10-35-43,-0.23941088,-0.25115186,0.20066738,263.0,-5.191378,-15.285884,0.062454224,-0.052322388,0.012176514,-2.6525567,0.68234366,9.416408
34.80046258,31.26170972,0.9464143,7.580101,10-35-43,-0.45404577,-0.43729842,0.46865654,263.0,-5.913874,-14.767451,0.062454224,-0.052322388,0.012176514,-2.5895696,0.7918385,9.425365
34.80046258,31.26170972,0.9464143,7.580101,10-35-43,-0.45404577,-0.43729842,0.46865654,263.0,-6.501393,-15.821426,0.14181519,-0.023162842,0.030731201,-2.5895696,0.7918385,9.425365
34.80046258,31.26170972,0.9464143,7.580101,10-35-44,1.0630956,0.5559411,0.2572136,264.0,-6.876443,-17.283718,0.14181519,-0.023162842,0.030731201,-2.6362977,1.0395064,9.388277
34.80046258,31.26170972,0.9464143,7.580101,10-35-44,1.0630956,0.5559411,0.2572136,265.0,-6.145662,-18.939493,0.0945282,0.28019714,-0.16767883,-2.6362977,1.0395064,9.388277
34.80046258,31.26170972,0.9464143,7.580101,10-35-44,-1.1661952,-0.010508776,-0.79306316,265.0,-5.47784,-18.311813,0.0945282,0.28019714,-0.16767883,-2.9913068,1.0347162,9.281801
34.80046258,31.26170972,0.9464143,7.580101,10-35-44,-1.1661952,-0.010508776,-0.79306316,265.0,-4.8416767,-18.072166,-0.12968445,-0.051956177,-0.036499023,-2.9913068,1.0347162,9.281801
34.80046258,31.26170972,0.9464143,7.580101,10-35-44,0.15320826,-0.092433035,-0.28688335,264.0,-4.3156996,-17.459644,-0.12968445,-0.051956177,-0.036499023,-3.053193,0.8665518,9.2788725
34.80046258,31.26170972,0.9464143,7.580101,10-35-44,0.15320826,-0.092433035,-0.28688335,263.0,-4.424778,-16.58805,-0.11679077,-0.066726685,0.11216736,-3.053193,0.8665518,9.2788725
34.80046258,31.26170972,0.9464143,7.580101,10-35-44,0.28040504,0.0712505,0.4433813,264.0,-4.5560126,-16.937565,-0.11679077,-0.066726685,0.11216736,-2.8773227,0.77170855,9.3432255
34.80046258,31.26170972,0.9464143,7.580101,10-35-44,0.28040504,0.0712505,0.4433813,263.0,-4.117884,-15.776101,-0.0040130615,-0.034622192,0.06425476,-2.8773227,0.77170855,9.3432255
34.80045192,31.2617109,0.95047355,8.582506,10-35-44,-0.65700793,-0.88767576,-0.28312016,262.0,-4.4989457,-14.608949,-0.0040130615,-0.034622192,0.06425476,-2.6815,0.720138,9.40539
34.80045192,31.2617109,0.95047355,8.582506,10-35-44,-0.65700793,-0.88767576,-0.28312016,262.0,-5.115405,-15.233158,-0.0060577393,-0.1510315,0.15538025,-2.6815,0.720138,9.40539
34.80045192,31.2617109,0.95047355,8.582506,10-35-45,1.5052726,-0.3368405,0.7343416,262.0,-5.9864936,-16.475409,-0.0060577393,-0.1510315,0.15538025,-2.547621,0.7969806,9.4363575
34.80045192,31.2617109,0.95047355,8.582506,10-35-45,1.5052726,-0.3368405,0.7343416,262.0,-6.4982505,-18.417383,0.1552887,0.22492981,-0.026885986,-2.547621,0.7969806,9.4363575
34.80045192,31.2617109,0.95047355,8.582506,10-35-45,-1.3040955,-0.11020541,-0.8231783,262.0,-7.0130634,-17.538094,0.1552887,0.22492981,-0.026885986,-2.8606093,0.9873596,9.328045
34.80045192,31.2617109,0.95047355,8.582506,10-35-45,-1.3040955,-0.11020541,-0.8231783,262.0,-7.215241,-16.45009,0.04273987,-0.062347412,0.047073364,-2.8606093,0.9873596,9.328045
34.80045192,31.2617109,0.95047355,8.582506,10-35-45,-0.07125664,0.7376238,-0.016925812,262.0,-6.9445367,-16.318684,0.04273987,-0.062347412,0.047073364,-2.8906348,1.148127,9.300345
34.80045192,31.2617109,0.95047355,8.582506,10-35-45,-0.07125664,0.7376238,-0.016925812,262.0,-6.8543415,-16.9665,-0.0074005127,-0.026153564,-0.01322937,-2.8906348,1.148127,9.300345
34.80045192,31.2617109,0.95047355,8.582506,10-35-45,-0.31656957,0.21709037,0.19653416,263.0,-7.2662187,-17.245844,-0.0074005127,-0.026153564,-0.01322937,-2.820349,1.1694373,9.319251
34.80045192,31.2617109,0.95047355,8.582506,10-35-45,-0.31656957,0.21709037,0.19653416,263.0,-7.0281277,-16.747065,0.030075073,0.018875122,-0.07366943,-2.820349,1.1694373,9.319251
34.80043178,31.26170364,1.1335784,10.569959,10-35-45,-0.5360441,-0.42439258,-0.6955261,263.0,-6.795586,-15.720264,0.030075073,0.018875122,-0.07366943,-2.8201094,1.1380854,9.323204
34.80043178,31.26170364,1.1335784,10.569959,10-35-45,-0.5360441,-0.42439258,-0.6955261,264.0,-5.9038954,-15.367532,-0.043640137,-0.13978577,-0.036331177,-2.8201094,1.1380854,9.323204
34.80043178,31.26170364,1.1335784,10.569959,10-35-46,0.75461507,0.40154147,0.073866844,265.0,-4.814046,-15.569669,-0.043640137,-0.13978577,-0.036331177,-2.6416705,1.0569485,9.384819
34.80043178,31.26170364,1.1335784,10.569959,10-35-46,0.75461507,0.40154147,0.073866844,265.0,-3.995614,-12.88992,-0.1616211,-0.057357788,-0.09162903,-2.6416705,1.0569485,9.384819
34.80043178,31.26170364,1.1335784,10.569959,10-35-46,-0.86330414,-0.4998833,-0.012866974,266.0,-4.2453136,-12.339139,-0.1616211,-0.057357788,-0.09162903,-2.3944902,0.7955346,9.476494
34.80043178,31.26170364,1.1335784,10.569959,10-35-46,-0.86330414,-0.4998833,-0.012866974,266.0,-4.240503,-12.724615,0.021438599,-0.2054596,-0.088974,-2.3944902,0.7955346,9.476494
34.80043178,31.26170364,1.1335784,10.569959,10-35-46,0.509958,-0.058136284,0.6204729,265.0,-4.1710835,-12.420072,0.021438599,-0.2054596,-0.088974,-2.128594,0.6846181,9.548339
34.80043178,31.26170364,1.1335784,10.569959,10-35-46,0.509958,-0.058136284,0.6204729,264.0,-4.2332177,-12.907085,-0.010635376,0.0093688965,0.09326172,-2.128594,0.6846181,9.548339
34.80043178,31.26170364,1.1335784,10.569959,10-35-46,0.5033059,-0.0866071,0.3966627,263.0,-4.51646,-13.246763,-0.010635376,0.0093688965,0.09326172,-2.169485,0.7101363,9.537266
34.80043178,31.26170364,1.1335784,10.569959,10-35-46,0.5033059,-0.0866071,0.3966627,263.0,-5.298464,-12.752653,0.022094727,0.03477478,0.14920044,-2.169485,0.7101363,9.537266
34.80041045,31.26170562,1.1164676,12.565851,10-35-46,-0.8899319,-0.095514,0.032714844,263.0,-5.5973554,-12.53452,0.022094727,0.03477478,0.14920044,-2.2043567,0.8275922,9.519784
34.80041045,31.26170562,1.1164676,12.565851,10-35-46,0.9809437,0.53333616,0.3615017,264.0,-4.677938,-14.099945,0.012237549,0.02760315,0.009536743,-2.2651725,0.8654651,9.502124
34.80041045,31.26170562,1.1164676,12.565851,10-35-47,0.9809437,0.53333616,0.3615017,265.0,-3.7670395,-15.924241,0.012237549,0.02760315,0.009536743,-2.2651725,0.8654651,9.502124
34.80041045,31.26170562,1.1164676,12.565851,10-35-47,-1.0777185,-0.73089576,-1.0350075,265.0,-3.129911,-16.686079,-0.111816406,0.25730896,-0.15931702,-2.6647067,0.61890376,9.41736
34.80041045,31.26170562,1.1164676,12.565851,10-35-47,-1.0777185,-0.73089576,-1.0350075,265.0,-3.3203318,-16.234694,-0.111816406,0.25730896,-0.15931702,-2.6647067,0.61890376,9.41736
34.80041045,31.26170562,1.1164676,12.565851,10-35-47,-0.2520349,-0.36115408,-0.34746456,265.0,-4.21921,-15.442701,0.0594635,-0.06794739,-0.02268982,-2.7079172,0.6065111,9.405834
34.80041045,31.26170562,1.1164676,12.565851,10-35-47,-0.2520349,-0.36115408,-0.34746456,264.0,-4.8174686,-15.149354,0.0594635,-0.06794739,-0.02268982,-2.7079172,0.6065111,9.405834
34.80041045,31.26170562,1.1164676,12.565851,10-35-47,0.41382742,0.22783619,0.26891136,264.0,-4.7594476,-15.71939,0.060546875,-0.017532349,0.075424194,-2.625599,0.7560848,9.41833
34.80041045,31.26170562,1.1164676,12.565851,10-35-47,0.41382742,0.22783619,0.26891136,263.0,-4.362032,-15.830147,0.060546875,-0.017532349,0.075424194,-2.625599,0.7560848,9.41833
34.80041045,31.26170562,1.1164676,12.565851,10-35-47,-1.470639,-0.4775126,-0.3867855,263.0,-4.2410336,-13.781265,-0.047164917,-0.05192566,0.05909729,-2.5554585,0.73315436,9.439412
34.80039819,31.2617087,1.0638138,13.705283,10-35-47,-1.470639,-0.4775126,-0.3867855,263.0,-4.521331,-12.915201,-0.047164917,-0.05192566,0.05909729,-2.5554585,0.73315436,9.439412
34.80039819,31.2617087,1.0638138,13.705283,10-35-47,1.7419248,-0.065622926,0.947278,264.0,-4.8108993,-13.808019,0.03816223,-0.11268616,0.008544922,-2.298397,0.75443214,9.503609
34.80039819,31.2617087,1.0638138,13.705283,10-35-48,1.7419248,-0.065622926,0.947278,265.0,-4.9878364,-15.005815,0.03816223,-0.11268616,0.008544922,-2.298397,0.75443214,9.503609
34.80039819,31.2617087,1.0638138,13.705283,10-35-48,-0.52550364,0.114558995,-0.070718765,265.0,-4.744671,-16.653389,0.05307007,0.2186737,-0.12158203,-2.583294,0.8024621,9.426188
34.80039819,31.2617087,1.0638138,13.705283,10-35-48,-0.52550364,0.114558995,-0.070718765,266.0,-4.2578945,-16.446678,0.05307007,0.2186737,-0.12158203,-2.583294,0.8024621,9.426188
34.80039819,31.2617087,1.0638138,13.705283,10-35-48,-0.17221832,0.14735162,-0.109900475,266.0,-4.2897134,-16.541155,-0.053451538,0.014663696,-0.06945801,-2.800112,0.7547078,9.36804
34.80039819,31.2617087,1.0638138,13.705283,10-35-48,-0.17221832,0.14735162,-0.109900475,266.0,-4.5139837,-17.09617,-0.053451538,0.014663696,-0.06945801,-2.800112,0.7547078,9.36804
34.80039819,31.2617087,1.0638138,13.705283,10-35-48,0.11803174,0.09802753,-0.5689297,266.0,-4.584624,-17.5586,0.037231445,0.08239746,-0.036224365,-2.8742623,0.73707896,9.346963
34.80039819,31.2617087,1.0638138,13.705283,10-35-48,0.11803174,0.09802753,-0.5689297,266.0,-4.4741426,-17.062908,0.037231445,0.08239746,-0.036224365,-2.8742623,0.73707896,9.346963
34.80038707,31.26169205,1.1300442,14.975355,10-35-48,-0.61430335,-0.6493588,0.02411747,266.0,-4.9496284,-15.730196,-0.0043640137,-0.10801697,0.057403564,-2.820523,0.7734241,9.360387
34.80038707,31.26169205,1.1300442,14.975355,10-35-48,-0.61430335,-0.6493588,0.02411747,265.0,-5.5401564,-15.134722,-0.0043640137,-0.10801697,0.057403564,-2.820523,0.7734241,9.360387
34.80038707,31.26169205,1.1300442,14.975355,10-35-48,1.2081194,0.17737031,0.71447754,265.0,-5.8250966,-15.541305,0.083740234,-0.049301147,0.06983948,-2.6093729,0.89911497,9.410269
34.80038707,31.26169205,1.1300442,14.975355,10-35-49,1.2081194,0.17737031,0.71447754,266.0,-5.9775987,-16.63199,0.083740234,-0.049301147,0.06983948,-2.6093729,0.89911497,9.410269
34.80038707,31.26169205,1.1300442,14.975355,10-35-49,-0.52552867,-0.11175352,-0.23568535,267.0,-5.369043,-18.475546,0.04878235,0.22975159,-0.18339539,-2.8777356,0.9234216,9.329326
34.80038707,31.26169205,1.1300442,14.975355,10-35-49,-0.52552867,-0.11175352,-0.23568535,266.0,-5.6613026,-17.203968,0.04878235,0.22975159,-0.18339539,-2.8777356,0.9234216,9.329326
34.80038707,31.26169205,1.1300442,14.975355,10-35-49,-0.81288004,-0.11061996,-0.31361294,267.0,-6.035974,-16.458923,0.0069732666,-0.15428162,0.02532959,-2.9599981,0.93526876,9.302369
34.80038707,31.26169205,1.1300442,14.975355,10-35-49,-0.81288004,-0.11061996,-0.31361294,267.0,-6.1869893,-16.465393,0.0069732666,-0.15428162,0.02532959,-2.9599981,0.93526876,9.302369
34.80038707,31.26169205,1.1300442,14.975355,10-35-49,0.38700175,0.2180103,-0.14203072,267.0,-5.7981977,-16.92509,0.003036499,0.008895874,0.020690918,-2.7976987,0.9973563,9.346045
34.80038707,31.26169205,1.1300442,14.975355,10-35-49,0.38700175,0.2180103,-0.14203072,266.0,-5.067641,-17.29546,0.003036499,0.008895874,0.020690918,-2.7976987,0.9973563,9.346045
34.80036149,31.26168098,1.2955693,17.606897,10-35-49,-0.8317754,-0.39131737,0.028672218,265.0,-4.9444613,-17.066896,-0.10922241,0.0184021,0.09931946,-2.866869,0.89345217,9.3355875
34.80036149,31.26168098,1.2955693,17.606897,10-35-49,-0.8317754,-0.39131737,0.028672218,265.0,-4.7788234,-16.897001,-0.10922241,0.0184021,0.09931946,-2.866869,0.89345217,9.3355875
34.80036149,31.26168098,1.2955693,17.606897,10-35-49,0.84485626,-0.31984407,0.32321072,266.0,-5.098382,-17.651602,-0.014984131,0.03593445,0.02243042,-2.8740175,0.8089046,9.341097
34.80036149,31.26168098,1.2955693,17.606897,10-35-50,0.84485626,-0.31984407,0.32321072,266.0,-5.4894023,-18.669151,-0.014984131,0.03593445,0.02243042,-2.8740175,0.8089046,9.341097
34.80036149,31.26168098,1.2955693,17.606897,10-35-50,-0.295012,0.095437646,-0.5007124,266.0,-5.4219823,-19.494612,0.090148926,0.17764282,-0.11366272,-3.111205,0.85318476,9.260824
34.80036149,31.26168098,1.2955693,17.606897,10-35-50,-0.295012,0.095437646,-0.5007124,267.0,-5.381914,-19.05506,0.090148926,0.17764282,-0.11366272,-3.111205,0.85318476,9.260824
34.80036149,31.26168098,1.2955693,17.606897,10-35-50,-0.55769944,0.43709785,-0.36351967,267.0,-4.877798,-18.361744,-0.03236389,-0.0954895,-0.04168701,-3.198498,0.8627156,9.230152
34.80036149,31.26168098,1.2955693,17.606897,10-35-50,-0.55769944,0.43709785,-0.36351967,267.0,-4.337209,-17.973978,-0.03236389,-0.0954895,-0.04168701,-3.198498,0.8627156,9.230152
34.80036149,31.26168098,1.2955693,17.606897,10-35-50,0.7558656,-0.23131663,0.46772194,267.0,-4.2005563,-18.56438,-0.08015442,-0.01171875,0.030517578,-3.0610652,0.7524049,9.286235
34.80036149,31.26168098,1.2955693,17.606897,10-35-50,0.7558656,-0.23131663,0.46772194,265.0,-4.055953,-18.740814,-0.08015442,-0.01171875,0.030517578,-3.0610652,0.7524049,9.286235
34.80034372,31.26166808,1.3219682,19.598692,10-35-50,-1.0172756,-0.46234667,-0.5065098,264.0,-4.180422,-17.864231,-0.04446411,-0.0012054443,0.13838196,-3.0975502,0.67650187,9.279974
34.80034372,31.26166808,1.3219682,19.598692,10-35-50,-1.0172756,-0.46234667,-0.5065098,264.0,-4.330645,-16.896475,-0.04446411,-0.0012054443,0.13838196,-3.0975502,0.67650187,9.279974
34.80034372,31.26166808,1.3219682,19.598692,10-35-50,0.80413914,-0.19586438,0.5867071,264.0,-4.354659,-17.394197,-0.011871338,-0.08079529,0.12713623,-2.9533043,0.6950018,9.325521
34.80034372,31.26166808,1.3219682,19.598692,10-35-51,0.80413914,-0.19586438,0.5867071,263.0,-4.3768687,-17.812748,-0.011871338,-0.08079529,0.12713623,-2.9533043,0.6950018,9.325521
34.80034372,31.26166808,1.3219682,19.598692,10-35-51,0.6248474,0.037893236,0.091383934,264.0,-4.651271,-18.428642,-2.4414063E-4,0.101867676,0.007019043,-2.9428296,0.7270493,9.326389
34.80034372,31.26166808,1.3219682,19.598692,10-35-51,0.6248474,0.037893236,0.091383934,264.0,-4.7883863,-19.192148,-2.4414063E-4,0.101867676,0.007019043,-2.9428296,0.7270493,9.326389
34.80034372,31.26166808,1.3219682,19.598692,10-35-51,-1.2910721,-0.021414578,-0.606287,264.0,-5.0114837,-18.501242,0.061294556,0.048568726,-0.091796875,-3.1519852,0.75918734,9.255216
34.80034372,31.26166808,1.3219682,19.598692,10-35-51,-1.2910721,-0.021414578,-0.606287,265.0,-5.344847,-17.067007,0.061294556,0.048568726,-0.091796875,-3.1519852,0.75918734,9.255216
34.80034372,31.26166808,1.3219682,19.598692,10-35-51,0.9320333,0.21130198,0.26560497,265.0,-5.5560055,-17.638119,0.04525757,-0.14167786,0.0016021729,-3.0194533,0.83814096,9.292513
34.80034372,31.26166808,1.3219682,19.598692,10-35-51,0.9320333,0.21130198,0.26560497,264.0,-5.3750386,-18.074217,0.04525757,-0.14167786,0.0016021729,-3.0194533,0.83814096,9.292513
34.80031925,31.26164499,1.4767871,22.608717,10-35-51,-0.8689046,-0.38111174,-0.120230675,264.0,-5.8524704,-17.786016,0.013122559,0.04574585,0.034988403,-2.9740403,0.881479,9.303143
34.80031925,31.26164499,1.4767871,22.608717,10-35-51,-0.8689046,-0.38111174,-0.120230675,265.0,-6.3552065,-17.11419,0.013122559,0.04574585,0.034988403,-2.9740403,0.881479,9.303143
34.80031925,31.26164499,1.4767871,22.608717,10-35-51,-0.40563297,-0.08533841,0.3023653,264.0,-6.449727,-16.243395,0.08883667,-0.14489746,-0.021057129,-2.8990715,0.9729628,9.3176775
34.80031925,31.26164499,1.4767871,22.608717,10-35-52,-0.40563297,-0.08533841,0.3023653,265.0,-6.650509,-16.884577,0.08883667,-0.14489746,-0.021057129,-2.8990715,0.9729628,9.3176775
34.80031925,31.26164499,1.4767871,22.608717,10-35-52,1.0039539,0.03262031,0.4977312,266.0,-6.5363584,-18.711842,0.061462402,0.1499176,-0.10205078,-2.8479054,1.0759172,9.322136
34.80031925,31.26164499,1.4767871,22.608717,10-35-52,1.0039539,0.03262031,0.4977312,265.0,-5.9482927,-17.6876,0.061462402,0.1499176,-0.10205078,-2.8479054,1.0759172,9.322136
34.80031925,31.26164499,1.4767871,22.608717,10-35-52,-1.5496728,-0.32168818,-0.819541,265.0,-5.7767334,-16.2699,-0.08351135,-0.13015747,0.034439087,-2.9758992,1.025369,9.287789
34.80031925,31.26164499,1.4767871,22.608717,10-35-52,-1.5496728,-0.32168818,-0.819541,265.0,-5.7867327,-16.947601,-0.08351135,-0.13015747,0.034439087,-2.9758992,1.025369,9.287789
34.80031925,31.26164499,1.4767871,22.608717,10-35-52,1.2361162,0.44644332,0.62299347,265.0,-5.531352,-18.230555,-0.05053711,0.103393555,0.041015625,-2.865184,0.9478357,9.33074
34.80031925,31.26164499,1.4767871,22.608717,10-35-52,1.2361162,0.44644332,0.62299347,264.0,-5.358343,-18.466366,-0.05053711,0.103393555,0.041015625,-2.865184,0.9478357,9.33074
34.80031509,31.26165599,1.1101803,22.592981,10-35-52,-0.89583325,-0.23293668,-0.6487589,264.0,-5.719379,-18.519316,-0.029785156,0.042129517,0.0907135,-3.0157936,0.89114904,9.288769
34.80031509,31.26165599,1.1101803,22.592981,10-35-52,-0.89583325,-0.23293668,-0.6487589,263.0,-6.239347,-18.50985,-0.029785156,0.042129517,0.0907135,-3.0157936,0.89114904,9.288769
34.80031509,31.26165599,1.1101803,22.592981,10-35-52,-0.8774414,-0.37898147,-0.2979269,263.0,-6.6092563,-17.242428,0.07678223,-0.06959534,0.052200317,-3.0651636,0.9460555,9.267154
34.80031509,31.26165599,1.1101803,22.592981,10-35-53,-0.8774414,-0.37898147,-0.2979269,263.0,-6.2778635,-17.236366,0.07678223,-0.06959534,0.052200317,-3.0651636,0.9460555,9.267154
34.80031509,31.26165599,1.1101803,22.592981,10-35-53,1.3239701,0.5703832,0.53536224,264.0,-5.7173686,-18.309158,-0.05001831,0.042495728,-0.06391907,-2.9479492,1.0138472,9.297962
34.80031509,31.26165599,1.1101803,22.592981,10-35-53,1.3239701,0.5703832,0.53536224,265.0,-4.6422853,-19.700003,-0.05001831,0.042495728,-0.06391907,-2.9479492,1.0138472,9.297962
34.80031509,31.26165599,1.1101803,22.592981,10-35-53,-1.1796961,-0.47390455,-0.6151962,265.0,-4.319924,-18.659029,-0.08622742,0.04714966,-0.11390686,-3.1232128,0.82366663,9.259455
34.80031509,31.26165599,1.1101803,22.592981,10-35-53,-1.1796961,-0.47390455,-0.6151962,265.0,-4.6929016,-17.822586,-0.08622742,0.04714966,-0.11390686,-3.1232128,0.82366663,9.259455
34.80031509,31.26165599,1.1101803,22.592981,10-35-53,0.0669229,-0.15417016,0.4690342,265.0,-4.838995,-17.854204,0.035995483,-0.08016968,0.04446411,-3.1001856,0.73505247,9.274639
34.80031509,31.26165599,1.1101803,22.592981,10-35-53,0.0669229,-0.15417016,0.4690342,264.0,-4.939713,-18.503437,0.035995483,-0.08016968,0.04446411,-3.1001856,0.73505247,9.274639
34.80031702,31.26166715,0.89,22.082832,10-35-53,0.9660871,0.25698644,0.39108658,264.0,-4.871655,-19.47217,-0.038131714,0.16699219,0.07746887,-3.0542593,0.78850687,9.2854805
34.80031702,31.26166715,0.89,22.082832,10-35-53,0.9660871,0.25698644,0.39108658,265.0,-5.4234633,-20.300238,-0.038131714,0.16699219,0.07746887,-3.0542593,0.78850687,9.2854805
34.80031702,31.26166715,0.89,22.082832,10-35-53,-0.15382338,0.14915907,0.28958607,265.0,-5.139104,-21.602953,0.06536865,0.158844,-0.076431274,-3.3399622,0.8199419,9.18383
34.80031702,31.26166715,0.89,22.082832,10-35-54,-0.15382338,0.14915907,0.28958607,265.0,-5.0143337,-21.620214,0.06536865,0.158844,-0.076431274,-3.3399622,0.8199419,9.18383
34.80031702,31.26166715,0.89,22.082832,10-35-54,-0.36469984,-0.6202217,-0.7520609,265.0,-4.993246,-21.200897,-0.024002075,-0.016952515,0.023330688,-3.5568938,0.8040335,9.10343
34.80031702,31.26166715,0.89,22.082832,10-35-54,-0.36469984,-0.6202217,-0.7520609,266.0,-5.329112,-21.975266,-0.024002075,-0.016952515,0.023330688,-3.5568938,0.8040335,9.10343
34.80031702,31.26166715,0.89,22.082832,10-35-54,0.286314,-0.071409464,0.03406906,266.0,-4.7407503,-22.152668,0.033721924,0.08050537,-0.1098938,-3.644481,0.80928034,9.0682535
34.80031702,31.26166715,0.89,22.082832,10-35-54,0.286314,-0.071409464,0.03406906,266.0,-5.2605796,-20.855509,0.033721924,0.08050537,-0.1098938,-3.644481,0.80928034,9.0682535
34.80031702,31.26166715,0.89,22.082832,10-35-54,-1.2656403,-0.19103867,-0.54889774,266.0,-5.6215,-19.87892,0.06349182,-0.22201538,0.0065460205,-3.6133637,0.8402952,9.077879
34.80031702,31.26166715,0.89,22.082832,10-35-54,-1.2656403,-0.19103867,-0.54889774,266.0,-5.6648235,-19.645018,0.06349182,-0.22201538,0.0065460205,-3.6133637,0.8402952,9.077879
34.80030397,31.26167573,0.9304837,23.088184,10-35-54,0.8762367,0.29178423,0.26866245,266.0,-5.412937,-19.93305,-0.0137786865,0.0047454834,0.028289795,-3.34266,0.8932395,9.176009
34.80030397,31.26167573,0.9304837,23.088184,10-35-54,-0.44785357,0.14473182,-0.16546917,266.0,-5.6326437,-19.81542,-0.0137786865,0.0047454834,0.028289795,-3.306951,0.91156787,9.187139
34.80030397,31.26167573,0.9304837,23.088184,10-35-54,-0.44785357,0.14473182,-0.16546917,266.0,-5.545261,-19.129732,-0.004119873,-0.057281494,0.005645752,-3.306951,0.91156787,9.187139
34.80030397,31.26167573,0.9304837,23.088184,10-35-55,0.1501255,-0.39800197,-0.02838707,267.0,-6.1994624,-17.724152,-0.004119873,-0.057281494,0.005645752,-3.137104,0.9471046,9.242941
34.80030397,31.26167573,0.9304837,23.088184,10-35-55,0.1501255,-0.39800197,-0.02838707,267.0,-6.259058,-17.345917,0.093185425,-0.16082764,-0.02947998,-3.137104,0.9471046,9.242941
34.80030397,31.26167573,0.9304837,23.088184,10-35-55,0.71230984,-0.076676846,0.26938725,268.0,-6.346208,-16.890244,0.093185425,-0.16082764,-0.02947998,-2.895226,1.024177,9.313384
34.80030397,31.26167573,0.9304837,23.088184,10-35-55,0.71230984,-0.076676846,0.26938725,269.0,-5.9442596,-17.645138,0.019866943,0.0019683838,-0.12826538,-2.895226,1.024177,9.313384
34.80030397,31.26167573,0.9304837,23.088184,10-35-55,-1.5836289,-0.2575428,0.13242817,269.0,-5.3278866,-16.736416,0.019866943,0.0019683838,-0.12826538,-2.860431,0.9432976,9.332658
34.80030397,31.26167573,0.9304837,23.088184,10-35-55,-1.5836289,-0.2575428,0.13242817,269.0,-5.3488197,-15.888459,-0.055526733,-0.16244507,0.005645752,-2.860431,0.9432976,9.332658
34.80030397,31.26167573,0.9304837,23.088184,10-35-55,1.2224686,0.5261772,0.6750164,268.0,-4.9374065,-16.018112,-0.055526733,-0.16244507,0.005645752,-2.7365625,0.838699,9.379669
34.80030397,31.26167573,0.9304837,23.088184,10-35-55,1.2224686,0.5261772,0.6750164,268.0,-4.5205154,-17.577187,-0.10435486,0.16395569,0.07785034,-2.7365625,0.838699,9.379669
34.80030027,31.26168878,0.8532877,23.20317,10-35-55,-0.86392164,-0.24584031,-0.93942356,266.0,-3.9490888,-17.717485,-0.10435486,0.16395569,0.07785034,-2.8842354,0.69914055,9.346806
34.80030027,31.26168878,0.8532877,23.20317,10-35-55,-0.86392164,-0.24584031,-0.93942356,266.0,-3.826718,-16.487913,-0.09176636,-0.07357788,0.13700867,-2.8842354,0.69914055,9.346806
34.80030027,31.26168878,0.8532877,23.20317,10-35-56,-0.2268405,-0.74954605,0.04581642,265.0,-4.3378468,-14.921529,-0.09176636,-0.07357788,0.13700867,-2.7533922,0.64822125,9.389836
34.80030027,31.26168878,0.8532877,23.20317,10-35-56,-0.2268405,-0.74954605,0.04581642,264.0,-4.895431,-14.483594,0.058532715,-0.16548157,0.15177917,-2.7533922,0.64822125,9.389836
34.80030027,31.26168878,0.8532877,23.20317,10-35-56,2.0337896,0.36437607,0.8570738,265.0,-5.273757,-15.769293,0.058532715,-0.16548157,0.15177917,-2.5371418,0.79627097,9.4392395
34.80030027,31.26168878,0.8532877,23.20317,10-35-56,2.0337896,0.36437607,0.8570738,265.0,-5.8038425,-17.886078,0.08244324,0.2649536,-0.049346924,-2.5371418,0.79627097,9.4392395
34.80030027,31.26168878,0.8532877,23.20317,10-35-56,-1.6376944,-0.81178784,-0.8786659,264.0,-6.0825157,-18.216705,0.08244324,0.2649536,-0.049346924,-2.8993807,0.90074927,9.32484
34.80030027,31.26168878,0.8532877,23.20317,10-35-56,-1.6376944,-0.81178784,-0.8786659,264.0,-7.2691,-17.28825,0.09513855,-0.036605835,0.09346008,-2.8993807,0.90074927,9.32484
34.80030027,31.26168878,0.8532877,23.20317,10-35-56,0.3475988,0.9836273,0.092160225,264.0,-7.7642865,-17.378683,0.09513855,-0.036605835,0.09346008,-2.9808767,1.141155,9.272676
34.80028702,31.26169538,1.0,24.37621,10-35-56,0.3475988,0.9836273,0.092160225,264.0,-7.324001,-17.638357,0.012176514,0.040664673,-0.020858765,-2.9808767,1.141155,9.272676
34.80028702,31.26169538,1.0,24.37621,10-35-56,-0.008529425,-0.041540265,0.15852833,263.0,-6.5069885,-18.202713,0.012176514,0.040664673,-0.020858765,-2.9672885,1.1633949,9.274271
34.80028702,31.26169538,1.0,24.37621,10-35-56,-0.008529425,-0.041540265,0.15852833,263.0,-6.326485,-17.592472,-0.10406494,-0.008224487,0.08721924,-2.9672885,1.1633949,9.274271
34.80028702,31.26169538,1.0,24.37621,10-35-57,-0.5081701,-0.5425353,0.38956165,263.0,-7.1103854,-17.082458,-0.10406494,-0.008224487,0.08721924,-2.948998,1.084902,9.289606
34.80028702,31.26169538,1.0,24.37621,10-35-57,-0.5081701,-0.5425353,0.38956165,264.0,-7.090054,-18.029623,0.08944702,0.035736084,-0.04612732,-2.948998,1.084902,9.289606
34.80028702,31.26169538,1.0,24.37621,10-35-57,1.0032234,-0.07715905,-0.07629776,265.0,-6.910634,-19.345434,0.08944702,0.035736084,-0.04612732,-3.0099728,1.1161724,9.266315
34.80028702,31.26169538,1.0,24.37621,10-35-57,1.0032234,-0.07715905,-0.07629776,266.0,-6.5073843,-21.138453,0.028656006,0.2314148,-0.18493652,-3.0099728,1.1161724,9.266315
34.80028702,31.26169538,1.0,24.37621,10-35-57,-1.1926701,-0.34230006,-0.83448696,266.0,-5.951302,-20.83978,0.028656006,0.2314148,-0.18493652,-3.373061,1.0243406,9.151152
34.80028702,31.26169538,1.0,24.37621,10-35-57,-1.1926701,-0.34230006,-0.83448696,266.0,-6.8032713,-19.918516,0.018829346,-0.1103363,-0.05491638,-3.373061,1.0243406,9.151152
34.80028702,31.26169538,1.0,24.37621,10-35-57,-0.10270119,0.22107077,0.7602625,267.0,-7.3949904,-19.763107,0.018829346,-0.1103363,-0.05491638,-3.3790364,1.0614973,9.14471
34.80027791,31.26169749,0.9950377,25.220308,10-35-57,-0.10270119,0.22107077,0.7602625,267.0,-7.398363,-21.289806,0.052444458,0.1262207,-0.018234253,-3.3790364,1.0614973,9.14471
34.80027791,31.26169749,0.9950377,25.220308,10-35-57,0.29135323,0.099573255,-0.35702324,266.0,-6.746139,-22.436272,0.052444458,0.1262207,-0.018234253,-3.4986644,1.1274526,9.091677
34.80027791,31.26169749,0.9950377,25.220308,10-35-57,0.29135323,0.099573255,-0.35702324,266.0,-6.882525,-22.08413,-0.06607056,0.06504822,0.06465149,-3.4986644,1.1274526,9.091677
34.80027791,31.26169749,0.9950377,25.220308,10-35-58,-1.0443466,-0.5960864,-1.0006447,265.0,-7.1204104,-20.790102,-0.06607056,0.06504822,0.06465149,-3.6648462,1.0889943,9.030691
34.80027791,31.26169749,0.9950377,25.220308,10-35-58,-1.0443466,-0.5960864,-1.0006447,265.0,-7.2701883,-19.2975,0.015457153,-0.21688843,0.09744263,-3.6648462,1.0889943,9.030691
34.80027791,31.26169749,0.9950377,25.220308,10-35-58,1.5318475,0.42706728,0.77132416,266.0,-6.92801,-19.698576,0.015457153,-0.21688843,0.09744263,-3.3603773,1.1398938,9.142149
34.80027791,31.26169749,0.9950377,25.220308,10-35-58,1.5318475,0.42706728,0.77132416,266.0,-5.9624805,-20.95753,-0.06367493,0.12487793,-0.10266113,-3.3603773,1.1398938,9.142149
34.80027791,31.26169749,0.9950377,25.220308,10-35-58,-1.0433931,-0.44091433,-0.6812391,266.0,-4.904692,-20.346045,-0.06367493,0.12487793,-0.10266113,-3.389496,0.97937894,9.150002
34.80027791,31.26169749,0.9950377,25.220308,10-35-58,-1.0433931,-0.44091433,-0.6812391,265.0,-5.2091823,-18.607632,-0.095458984,-0.22537231,0.10385132,-3.389496,0.97937894,9.150002
34.80027791,31.26169749,0.9950377,25.220308,10-35-58,-0.47215652,-0.48122042,0.71391964,265.0,-6.3287582,-17.62921,-0.095458984,-0.22537231,0.10385132,-3.2189558,0.88703895,9.220731
34.8002702,31.26170054,0.9420191,25.928017,10-35-58,-0.47215652,-0.48122042,0.71391964,264.0,-7.236949,-19.07284,0.11968994,0.06285095,0.09197998,-3.2189558,0.88703895,9.220731
34.8002702,31.26170054,0.9420191,25.928017,10-35-58,0.7698395,0.60502756,0.37889767,263.0,-7.420866,-20.389616,0.11968994,0.06285095,0.09197998,-3.1332235,1.0759529,9.230147
34.8002702,31.26170054,0.9420191,25.928017,10-35-59,0.7698395,0.60502756,0.37889767,263.0,-8.0678835,-21.116121,0.046447754,0.1878357,0.05671692,-3.1332235,1.0759529,9.230147
34.8002702,31.26170054,0.9420191,25.928017,10-35-59,-1.1246157,-0.17240477,-0.47257423,263.0,-8.308708,-20.622774,0.046447754,0.1878357,0.05671692,-3.4441369,1.2385023,9.098044
34.8002702,31.26170054,0.9420191,25.928017,10-35-59,-1.1246157,-0.17240477,-0.47257423,263.0,-8.422159,-20.285742,0.025527954,-0.06513977,0.059768677,-3.4441369,1.2385023,9.098044
34.8002702,31.26170054,0.9420191,25.928017,10-35-59,0.6495671,-0.27227175,0.061582565,263.0,-8.270672,-20.63073,0.025527954,-0.06513977,0.059768677,-3.4385414,1.3164756,9.089209
34.8002702,31.26170054,0.9420191,25.928017,10-35-59,0.6495671,-0.27227175,0.061582565,264.0,-7.920843,-21.71781,-0.01651001,0.12683105,-0.08821106,-3.4385414,1.3164756,9.089209
34.8002702,31.26170054,0.9420191,25.928017,10-35-59,0.23341179,-0.027708054,-0.50932884,264.0,-7.1385565,-22.234959,-0.01651001,0.12683105,-0.08821106,-3.5716324,1.2630687,9.045358
34.8002702,31.26170054,0.9420191,25.928017,10-35-59,0.23341179,-0.027708054,-0.50932884,264.0,-6.86327,-21.29436,-0.058044434,-0.07546997,-0.049926758,-3.5716324,1.2630687,9.045358
34.8002702,31.26170054,0.9420191,25.928017,10-35-59,-0.96950054,-0.37112606,-0.23039436,264.0,-7.2440386,-20.14974,-0.058044434,-0.07546997,-0.049926758,-3.5964684,1.153281,9.0501795
34.8002629,31.26170622,0.8400595,26.589191,10-35-59,-0.96950054,-0.37112606,-0.23039436,264.0,-7.3953724,-19.694801,0.013793945,-0.115448,0.07350159,-3.5964684,1.153281,9.0501795
34.8002629,31.26170622,0.8400595,26.589191,10-35-59,0.7274692,0.47289824,0.24272823,263.0,-7.1825585,-19.85843,0.013793945,-0.115448,0.07350159,-3.3433464,1.1698031,9.144615
34.8002629,31.26170622,0.8400595,26.589191,10-36-00,0.7274692,0.47289824,0.24272823,262.0,-6.8820662,-19.832296,-0.08824158,0.027877808,0.109375,-3.3433464,1.1698031,9.144615
34.8002629,31.26170622,0.8400595,26.589191,10-36-00,-0.39562297,0.047230124,0.14459324,262.0,-6.698459,-20.46962,-0.08824158,0.027877808,0.109375,-3.3672807,1.1516203,9.138139
34.8002629,31.26170622,0.8400595,26.589191,10-36-00,-0.39562297,0.047230124,0.14459324,262.0,-6.5931854,-18.896334,-0.03916931,-0.085006714,0.06340027,-3.3672807,1.1516203,9.138139
34.8002629,31.26170622,0.8400595,26.589191,10-36-00,-0.5461986,-0.41659915,0.016711235,262.0,-6.6078715,-18.877264,-0.03916931,-0.085006714,0.06340027,-3.2800167,1.0990721,9.17627
34.8002629,31.26170622,0.8400595,26.589191,10-36-00,-0.5461986,-0.41659915,0.016711235,263.0,-5.913263,-19.838705,-0.027618408,0.075805664,-0.09101868,-3.2800167,1.0990721,9.17627
34.8002629,31.26170622,0.8400595,26.589191,10-36-00,0.5937445,0.12518358,0.17210484,264.0,-5.528549,-20.549187,-0.027618408,0.075805664,-0.09101868,-3.224501,1.0159044,9.205483
34.8002629,31.26170622,0.8400595,26.589191,10-36-00,0.5937445,0.12518358,0.17210484,264.0,-5.5655937,-20.147224,0.020645142,0.0014801025,-0.11038208,-3.224501,1.0159044,9.205483
34.8002629,31.26170622,0.8400595,26.589191,10-36-00,-0.8351612,-0.53303224,-0.9438677,264.0,-5.7398725,-18.937063,0.020645142,0.0014801025,-0.11038208,-3.3666716,0.89577633,9.166979
34.80025723,31.26170963,0.9265528,27.116589,10-36-00,-0.8351612,-0.53303224,-0.9438677,264.0,-5.9840817,-18.28797,0.03819275,-0.15124512,-0.004043579,-3.3666716,0.89577633,9.166979
34.80025723,31.26170963,0.9265528,27.116589,10-36-00,0.7086797,0.2845388,0.4961214,264.0,-5.7274113,-18.467398,0.03819275,-0.15124512,-0.004043579,-3.1810465,0.9253793,9.230114
34.80025723,31.26170963,0.9265528,27.116589,10-36-01,0.7086797,0.2845388,0.4961214,263.0,-5.813606,-18.367668,-0.039001465,0.007019043,0.09529114,-3.1810465,0.9253793,9.230114
34.80025723,31.26170963,0.9265528,27.116589,10-36-01,-0.61920214,-0.31833905,0.6695862,263.0,-6.6285324,-18.729483,-0.039001465,0.007019043,0.09529114,-3.1253865,0.96362144,9.245203
34.80025723,31.26170963,0.9265528,27.116589,10-36-01,-0.61920214,-0.31833905,0.6695862,262.0,-7.0551195,-17.808912,0.09033203,-0.062210083,0.10369873,-3.1253865,0.96362144,9.245203
34.80025723,31.26170963,0.9265528,27.116589,10-36-01,-0.6461272,-0.4778489,-0.28139114,262.0,-6.987505,-16.782648,0.09033203,-0.062210083,0.10369873,-3.0557396,1.0655361,9.257293
34.80025723,31.26170963,0.9265528,27.116589,10-36-01,-0.6461272,-0.4778489,-0.28139114,262.0,-6.1330743,-17.491838,-0.1027832,0.046173096,-0.0029754639,-3.0557396,1.0655361,9.257293
34.80025723,31.26170963,0.9265528,27.116589,10-36-01,1.8055842,0.5712985,0.99115276,263.0,-5.38439,-19.56459,-0.1027832,0.046173096,-0.0029754639,-2.942517,1.051704,9.295477
34.80025723,31.26170963,0.9265528,27.116589,10-36-01,1.8055842,0.5712985,0.99115276,264.0,-3.8364267,-21.16888,-0.11672974,0.247818,-0.19595337,-2.942517,1.051704,9.295477
34.80025723,31.26170963,0.9265528,27.116589,10-36-01,-1.6589634,-0.5858546,-1.6062279,265.0,-4.135519,-19.20301,-0.11672974,0.247818,-0.19595337,-3.324053,0.7658431,9.194267
34.80023726,31.26170709,1.054751,29.026037,10-36-01,-1.6589634,-0.5858546,-1.6062279,265.0,-4.4218297,-17.976082,0.06687927,-0.27851868,-0.033676147,-3.324053,0.7658431,9.194267
34.80023726,31.26170709,1.054751,29.026037,10-36-01,0.5600524,0.10433483,0.34440804,265.0,-4.589574,-18.587805,0.06687927,-0.27851868,-0.033676147,-3.239141,0.6881161,9.230647
34.80023726,31.26170709,1.054751,29.026037,10-36-02,0.5600524,0.10433483,0.34440804,265.0,-4.801071,-18.752687,0.030380249,0.069885254,0.00579834,-3.239141,0.6881161,9.230647
34.80023726,31.26170709,1.054751,29.026037,10-36-02,0.03469777,-0.037244856,0.019887924,264.0,-5.2846303,-18.683773,0.030380249,0.069885254,0.00579834,-3.0905364,0.7700929,9.275017
34.80023726,31.26170709,1.054751,29.026037,10-36-02,0.03469777,-0.037244856,0.019887924,265.0,-6.259762,-18.16507,0.11773682,-0.05680847,0.034118652,-3.1183991,0.9262865,9.251377
34.80023726,31.26170709,1.054751,29.026037,10-36-02,-0.41796017,0.07554442,0.17696476,265.0,-6.5949535,-18.368282,0.11773682,-0.05680847,0.034118652,-3.1183991,0.9262865,9.251377
34.80023726,31.26170709,1.054751,29.026037,10-36-02,0.14625788,0.14022279,-0.39906597,265.0,-6.3170304,-19.039713,0.0126953125,0.07310486,-0.061157227,-3.1365614,1.0300142,9.234254
34.80023726,31.26170709,1.054751,29.026037,10-36-02,0.14625788,0.14022279,-0.39906597,266.0,-5.658756,-19.28378,0.0126953125,0.07310486,-0.061157227,-3.1365614,1.0300142,9.234254
34.80023726,31.26170709,1.054751,29.026037,10-36-02,-0.8035445,-0.23295778,-0.27744102,266.0,-4.1851044,-18.96952,-0.15446472,-0.048446655,-0.07569885,-3.200325,0.8266943,9.232816
34.80023726,31.26170709,1.054751,29.026037,10-36-02,-0.8035445,-0.23295778,-0.27744102,267.0,-3.2981517,-18.019745,-0.15446472,-0.048446655,-0.07569885,-3.200325,0.8266943,9.232816
34.80022774,31.26171242,0.9950377,29.918978,10-36-02,0.59781194,-0.21208769,0.87917614,268.0,-2.0058954,-17.98337,-0.14909363,-0.059005737,-0.08268738,-3.0707765,0.48469114,9.300849
34.80022774,31.26171242,0.9950377,29.918978,10-36-02,0.59781194,-0.21208769,0.87917614,268.0,-1.747135,-18.768482,-0.14909363,-0.059005737,-0.08268738,-3.0707765,0.48469114,9.300849
34.80022774,31.26171242,0.9950377,29.918978,10-36-03,0.12651801,-0.8066906,-0.18580055,267.0,-2.0564773,-20.07064,0.01914978,0.19413757,0.059799194,-3.2073865,0.3216649,9.261727
34.80022774,31.26171242,0.9950377,29.918978,10-36-03,0.12651801,-0.8066906,-0.18580055,266.0,-3.5497427,-20.609283,0.01914978,0.19413757,0.059799194,-3.2073865,0.3216649,9.261727
34.80022774,31.26171242,0.9950377,29.918978,10-36-03,-0.8580682,-0.29219496,-0.8269234,266.0,-5.492262,-19.48581,0.27334595,-0.099823,0.11972046,-3.339831,0.64246,9.197998
34.80022774,31.26171242,0.9950377,29.918978,10-36-03,-0.8580682,-0.29219496,-0.8269234,265.0,-6.9626727,-18.632,0.27334595,-0.099823,0.11972046,-3.339831,0.64246,9.197998
34.80022774,31.26171242,0.9950377,29.918978,10-36-03,0.94048333,0.96795356,0.22459126,266.0,-6.947784,-18.81979,0.07009888,-0.010726929,-0.013671875,-3.1788108,1.044052,9.218216
34.80022774,31.26171242,0.9950377,29.918978,10-36-03,0.94048333,0.96795356,0.22459126,266.0,-6.0010834,-19.33405,0.07009888,-0.010726929,-0.013671875,-3.1788108,1.044052,9.218216
34.80022774,31.26171242,0.9950377,29.918978,10-36-03,-0.6984906,-0.34565473,-0.77552414,267.0,-5.859555,-17.818739,-0.03866577,-0.1312561,-0.094696045,-3.1105144,1.0217779,9.243974
34.80022774,31.26171242,0.9950377,29.918978,10-36-03,-0.6984906,-0.34565473,-0.77552414,267.0,-5.6399846,-16.461796,-0.03866577,-0.1312561,-0.094696045,-3.1105144,1.0217779,9.243974
34.80021094,31.26171491,1.0149385,31.516836,10-36-03,-0.05029416,-0.15666986,0.55482674,266.0,-5.215855,-14.580699,-0.064208984,-0.26483154,0.054733276,-2.7440882,0.90673435,9.371137
34.80021094,31.26171491,1.0149385,31.516836,10-36-03,-0.05029416,-0.15666986,0.55482674,266.0,-5.24912,-14.865276,-0.064208984,-0.26483154,0.054733276,-2.7440882,0.90673435,9.371137
34.80021094,31.26171491,1.0149385,31.516836,10-36-04,0.34440494,-0.32212973,0.24143982,265.0,-5.574977,-15.643581,0.01663208,0.1018219,0.13703918,-2.5532925,0.8880375,9.42669
