Longitude,Latitude,Speed,Distance,Time,Acc X,Acc Y,Acc Z,Heading,Pitch,Roll,gyro_x,gyro_y,gyro_z,gravity_x,gravity_y,gravity_z
34.79421755,31.25845971,0.0,0.0,11-32-58,-0.016647816,0.0039613247,-0.052309036,191.0,-3.5572126,14.644433,0.04321289,0.0064849854,0.015090942,2.4884596,0.5382386,9.470388
34.79421755,31.25845971,0.0,0.0,11-32-58,-0.010658741,-0.011106372,0.03628254,192.0,-3.9171736,14.004486,0.03149414,-0.04827881,-0.0016326904,2.34574,0.60375005,9.502809
34.79421755,31.25845971,0.0,0.0,11-32-58,-0.010658741,-0.011106372,0.03628254,192.0,-3.891155,13.900294,0.03149414,-0.04827881,-0.0016326904,2.34574,0.60375005,9.502809
34.79421755,31.25845971,0.0,0.0,11-32-59,0.0032322407,-0.03819889,-0.02105236,192.0,-3.8801904,13.648334,0.020629883,0.021743774,0.014251709,2.350064,0.63832396,9.499481
34.79421755,31.25845971,0.0,0.0,11-32-59,0.0032322407,-0.03819889,-0.02105236,192.0,-3.8545165,13.137334,0.020629883,0.021743774,0.014251709,2.350064,0.63832396,9.499481
34.79421755,31.25845971,0.0,0.0,11-32-59,-0.006472826,-0.0602358,0.03227043,192.0,-3.5228915,13.143767,0.009765625,0.06803894,0.024246216,2.2713137,0.5985236,9.521202
34.79421755,31.25845971,0.0,0.0,11-32-59,-0.006472826,-0.0602358,0.03227043,193.0,-3.8999605,14.622043,0.009765625,0.06803894,0.024246216,2.2713137,0.5985236,9.521202
34.79421755,31.25845971,0.0,0.0,11-32-59,-0.05161476,0.039310753,0.02021408,193.0,-4.0950017,16.457073,-0.008148193,-0.19213867,-0.08345032,2.4915788,0.6341002,9.463633
34.79421755,31.25845971,0.0,0.0,11-32-59,-0.05161476,0.039310753,0.02021408,194.0,-4.4079967,17.78747,-0.008148193,-0.19213867,-0.08345032,2.4915788,0.6341002,9.463633
34.79421755,31.25845971,0.0,0.0,11-32-59,0.05556035,0.098912716,-0.052820206,194.0,-4.749356,18.79364,0.006072998,-0.24794006,-0.07887268,2.9959319,0.7462088,9.307951
34.79421755,31.25845971,0.0,0.0,11-32-59,0.05556035,0.098912716,-0.052820206,193.0,-4.1550255,16.360937,0.006072998,-0.24794006,-0.07887268,2.9959319,0.7462088,9.307951
34.79421755,31.25845971,0.0,0.0,11-32-59,-0.026710749,0.019679546,-0.009052277,192.0,-3.3416882,12.589961,-0.037399292,0.31948853,0.07937622,2.6780486,0.67917216,9.409419
34.79421755,31.25845971,0.0,0.0,11-32-59,-0.026710749,0.019679546,-0.009052277,192.0,-1.9242516,11.499745,-0.037399292,0.31948853,0.07937622,2.6780486,0.67917216,9.409419
34.79421755,31.25845971,0.0,0.0,11-33-00,0.0014948845,0.12331879,-0.08204365,192.0,0.08708285,11.191358,-0.23876953,0.23469543,0.020858765,2.0723436,0.37340543,9.577909
34.79421755,31.25845971,0.0,0.0,11-33-00,0.0014948845,0.12331879,-0.08204365,192.0,0.76734895,11.389419,-0.23876953,0.23469543,0.020858765,2.0723436,0.37340543,9.577909
34.79421755,31.25845971,0.0,0.0,11-33-00,-0.15800238,0.08432977,0.23042774,192.0,0.7155635,11.954472,-0.1771698,-0.018600464,-0.034301758,2.0116117,0.019565161,9.598095
34.79421755,31.25845971,0.0,0.0,11-33-00,-0.15800238,0.08432977,0.23042774,192.0,-1.0526338,12.8987465,-0.1771698,-0.018600464,-0.034301758,2.0116117,0.019565161,9.598095
34.79421755,31.25845971,0.0,0.0,11-33-00,-0.05258584,-0.01361087,0.10575485,191.0,-4.0124907,13.519592,0.25193787,-0.13237,0.07345581,2.1898293,0.2910778,9.554596
34.79421755,31.25845971,0.0,0.0,11-33-00,-0.05258584,-0.01361087,0.10575485,191.0,-6.0695276,13.546974,0.25193787,-0.13237,0.07345581,2.1898293,0.2910778,9.554596
34.79421755,31.25845971,0.0,0.0,11-33-00,-0.0553298,-0.21360862,-0.12332821,191.0,-5.6771603,13.602022,0.4464264,-0.033218384,0.13218689,2.308561,0.7935572,9.497957
34.79421755,31.25845971,0.0,0.0,11-33-00,-0.0553298,-0.21360862,-0.12332821,191.0,-4.8607416,13.947879,0.4464264,-0.033218384,0.13218689,2.308561,0.7935572,9.497957
34.79421755,31.25845971,0.0,0.0,11-33-00,0.016709805,-0.2559722,0.14431095,192.0,-4.549093,14.3097925,-0.07331848,-0.07525635,-0.015594482,2.3893936,0.85120034,9.472942
34.79421755,31.25845971,0.0,0.0,11-33-00,0.016709805,-0.2559722,0.14431095,192.0,-5.6824703,14.429575,-0.07331848,-0.07525635,-0.015594482,2.3893936,0.85120034,9.472942
34.79421755,31.25845971,0.0,0.0,11-33-01,-0.070986986,-0.0052802563,0.09994888,192.0,-6.5995846,15.177484,0.09918213,-0.06034851,-0.04576111,2.4702365,0.9264842,9.445102
34.79421755,31.25845971,0.0,0.0,11-33-01,-0.070986986,-0.0052802563,0.09994888,193.0,-7.9101315,15.417767,0.09918213,-0.06034851,-0.04576111,2.4702365,0.9264842,9.445102
34.79421755,31.25845971,0.0,0.0,11-33-01,0.063114166,-0.050590396,0.0042734146,194.0,-8.333007,15.1269245,0.17233276,-0.057678223,-0.057556152,2.5886934,1.207954,9.381359
34.79421755,31.25845971,0.0,0.0,11-33-01,0.063114166,-0.050590396,0.0042734146,194.0,-8.153027,14.915464,0.17233276,-0.057678223,-0.057556152,2.5886934,1.207954,9.381359
34.79421755,31.25845971,0.0,0.0,11-33-01,0.03782749,0.04291928,0.014330864,194.0,-8.214282,14.754296,-0.017166138,0.030670166,-0.072906494,2.6116507,1.383703,9.35067
34.79421755,31.25845971,0.0,0.0,11-33-01,0.03782749,0.04291928,0.014330864,195.0,-7.510811,14.776523,-0.017166138,0.030670166,-0.072906494,2.6116507,1.383703,9.35067
34.79421755,31.25845971,0.0,0.0,11-33-01,0.023302794,0.21318638,-0.06966591,195.0,-6.8290854,16.050922,-0.15730286,0.0050201416,-0.07829285,2.6081688,1.3269305,9.359866
34.79421755,31.25845971,0.0,0.0,11-33-01,0.023302794,0.21318638,-0.06966591,195.0,-5.8152223,17.17439,-0.15730286,0.0050201416,-0.07829285,2.6081688,1.3269305,9.359866
34.79421755,31.25845971,0.0,0.0,11-33-01,0.025614977,0.4187894,-0.18912697,195.0,-5.1936765,18.194654,-0.27928162,-0.2223053,-0.11470032,2.8580263,1.1681648,9.307924
34.79421755,31.25845971,0.0,0.0,11-33-01,0.025614977,0.4187894,-0.18912697,195.0,-4.1669374,16.946135,-0.27928162,-0.2223053,-0.11470032,2.8580263,1.1681648,9.307924
34.79421755,31.25845971,0.0,0.0,11-33-02,-0.024033785,0.055925965,0.19733715,194.0,-1.5620062,15.424453,-0.22875977,0.1359253,0.02519226,2.8585465,0.7378972,9.351717
34.79421755,31.25845971,0.0,0.0,11-33-02,-0.024033785,0.055925965,0.19733715,193.0,0.8317212,14.028266,-0.22875977,0.1359253,0.02519226,2.8585465,0.7378972,9.351717
34.79421755,31.25845971,0.0,0.0,11-33-02,-0.011091471,-0.32431263,0.1526308,191.0,0.81950843,11.8651085,-0.32650757,0.23760986,0.16430664,2.4634943,0.15446824,9.490929
34.79421755,31.25845971,0.0,0.0,11-33-02,-0.011091471,-0.32431263,0.1526308,189.0,-0.37914404,11.745955,-0.32650757,0.23760986,0.16430664,2.4634943,0.15446824,9.490929
34.79421755,31.25845971,0.0,0.0,11-33-02,0.11616135,-0.24939935,-0.13206196,189.0,-2.8728688,13.011175,0.268219,0.12327576,0.25393677,2.144123,0.011659884,9.569378
34.79421755,31.25845971,0.0,0.0,11-33-02,0.11616135,-0.24939935,-0.13206196,190.0,-4.98842,14.406571,0.268219,0.12327576,0.25393677,2.144123,0.011659884,9.569378
34.79421755,31.25845971,0.0,0.0,11-33-02,0.07940388,-0.32600796,-0.12385845,190.0,-6.1215644,14.624514,0.39060974,-0.26068115,-0.010284424,2.299156,0.5786743,9.515745
34.79421755,31.25845971,0.0,0.0,11-33-02,0.07940388,-0.32600796,-0.12385845,191.0,-7.8895197,14.703147,0.39060974,-0.26068115,-0.010284424,2.299156,0.5786743,9.515745
34.79421755,31.25845971,0.0,0.0,11-33-02,-0.08871722,-0.34228885,-0.06384277,191.0,-8.374411,14.906998,0.22375488,-0.018981934,-0.07267761,2.5483537,1.1568278,9.398831
34.79421755,31.25845971,0.0,0.0,11-33-02,-0.08871722,-0.34228885,-0.06384277,191.0,-7.9558315,14.586624,0.22375488,-0.018981934,-0.07267761,2.5483537,1.1568278,9.398831
34.79421755,31.25845971,0.0,0.0,11-33-03,-0.1786983,-0.15129268,-0.039247513,192.0,-7.2498307,14.320629,-0.07424927,0.042785645,-0.07014465,2.4986384,1.3329688,9.388844
34.79421755,31.25845971,0.0,0.0,11-33-03,-0.1786983,-0.15129268,-0.039247513,192.0,-6.5444846,14.245769,-0.07424927,0.042785645,-0.07014465,2.4986384,1.3329688,9.388844
34.79421755,31.25845971,0.0,0.0,11-33-03,0.015223026,-0.04094708,0.04858303,191.0,-5.323432,13.003583,-0.13578796,0.044891357,-0.01687622,2.417834,1.1753829,9.430957
34.79421755,31.25845971,0.0,0.0,11-33-03,0.015223026,-0.04094708,0.04858303,191.0,-4.577344,12.496412,-0.13578796,0.044891357,-0.01687622,2.417834,1.1753829,9.430957
34.79421755,31.25845971,0.0,0.0,11-33-03,-0.6283934,0.006336808,0.16154003,192.0,-5.65675,12.45076,-0.11747742,0.03479004,-3.6621094E-4,2.3002234,0.9220894,9.488367
34.79421755,31.25845971,0.0,0.0,11-33-03,-0.6283934,0.006336808,0.16154003,192.0,-5.996029,12.423878,-0.11747742,0.03479004,-3.6621094E-4,2.3002234,0.9220894,9.488367
34.79421755,31.25845971,0.0,0.0,11-33-03,-0.464432,-0.067703605,0.48171043,192.0,-6.0609703,12.328509,0.10357666,-0.0019989014,-0.009262085,2.22112,0.88583803,9.510642
34.79421755,31.25845971,0.0,0.0,11-33-03,-0.464432,-0.067703605,0.48171043,192.0,-5.9149323,12.274109,0.10357666,-0.0019989014,-0.009262085,2.22112,0.88583803,9.510642
34.79421755,31.25845971,0.0,0.0,11-33-03,-0.14671087,0.01851213,-0.024898529,192.0,-5.8072953,12.686323,-0.017822266,-0.008804321,-0.013916016,2.1708996,1.0020424,9.510704
34.79421755,31.25845971,0.0,0.0,11-33-03,-0.14671087,0.01851213,-0.024898529,192.0,-6.055185,13.12941,-0.017822266,-0.008804321,-0.013916016,2.1708996,1.0020424,9.510704
34.79421755,31.25845971,0.0,0.0,11-33-04,0.08264923,-0.072761,-0.011685371,193.0,-6.1526933,13.200126,0.045639038,-0.030685425,-0.0020599365,2.2642214,0.9876098,9.490433
34.79421755,31.25845971,0.0,0.0,11-33-04,0.10372639,-0.038994014,-0.15992641,193.0,-5.549172,12.726327,0.045639038,-0.030685425,-0.0020599365,2.2898855,0.9616041,9.486945
34.79421755,31.25845971,0.0,0.0,11-33-04,0.10372639,-0.038994014,-0.15992641,194.0,-4.8866253,12.494242,-0.08218384,0.07518005,-0.048095703,2.2898855,0.9616041,9.486945
34.79421755,31.25845971,0.0,0.0,11-33-04,-0.028906107,-0.13456678,0.111432076,194.0,-4.9640374,12.406472,-0.08218384,0.07518005,-0.048095703,2.1650915,0.8313326,9.528465
34.79421755,31.25845971,0.0,0.0,11-33-04,-0.028906107,-0.13456678,0.111432076,194.0,-4.554803,12.52477,-0.017044067,0.0038146973,-0.008636475,2.1650915,0.8313326,9.528465
34.79421755,31.25845971,0.0,0.0,11-33-04,0.1868496,-0.18911886,0.100634575,194.0,-4.333502,13.318611,-0.017044067,0.0038146973,-0.008636475,2.2566133,0.70244247,9.517597
34.79421755,31.25845971,0.0,0.0,11-33-04,0.1868496,-0.18911886,0.100634575,195.0,-4.0928926,13.636813,-0.0074768066,-0.06829834,-0.0012512207,2.2566133,0.70244247,9.517597
34.79421755,31.25845971,0.0,0.0,11-33-04,-0.061158657,-0.12564713,-0.1462965,196.0,-3.4457514,13.804974,-0.0074768066,-0.06829834,-0.0012512207,2.328474,0.58652073,9.508133
34.79421755,31.25845971,0.0,0.0,11-33-04,-0.061158657,-0.12564713,-0.1462965,196.0,-2.789577,13.929151,-0.13140869,-0.022628784,-0.10458374,2.328474,0.58652073,9.508133
34.79421755,31.25845971,0.0,0.0,11-33-04,-0.038022995,0.100718975,0.051444054,197.0,-3.2694542,13.736625,-0.13140869,-0.022628784,-0.10458374,2.3456743,0.571664,9.504809
34.79421755,31.25845971,0.0,0.0,11-33-05,-0.038022995,0.100718975,0.051444054,197.0,-3.5222018,12.808473,0.025039673,0.064453125,-0.072387695,2.3456743,0.571664,9.504809
34.79421755,31.25845971,0.0,0.0,11-33-05,-0.09822893,0.26972872,0.08406544,197.0,-4.1486588,12.881579,0.025039673,0.064453125,-0.072387695,2.2291794,0.7003445,9.524215
34.79421755,31.25845971,0.0,0.0,11-33-05,-0.09822893,0.26972872,0.08406544,197.0,-4.9792356,13.20608,0.03250122,-0.022781372,-0.06552124,2.2291794,0.7003445,9.524215
34.79421755,31.25845971,0.0,0.0,11-33-05,-0.08060408,0.13146955,0.07826805,197.0,-5.8171105,13.501474,0.03250122,-0.022781372,-0.06552124,2.2007263,0.8845845,9.515498
34.79421755,31.25845971,0.0,0.0,11-33-05,-0.08060408,0.13146955,0.07826805,196.0,-5.5263343,12.820171,0.07563782,-0.012084961,-0.011779785,2.2007263,0.8845845,9.515498
34.79421755,31.25845971,0.0,0.0,11-33-05,-0.16176558,0.27636302,-0.16105461,195.0,-5.564613,13.506932,0.07563782,-0.012084961,-0.011779785,2.2344105,1.0466301,9.491173
34.79421755,31.25845971,0.0,0.0,11-33-05,-0.16176558,0.27636302,-0.16105461,195.0,-5.339978,13.622542,-0.109451294,-0.047714233,0.05166626,2.2344105,1.0466301,9.491173
34.79421755,31.25845971,0.0,0.0,11-33-05,0.030976057,-0.10636431,0.15307617,194.0,-6.3173466,14.175443,-0.109451294,-0.047714233,0.05166626,2.3067808,0.95085615,9.483934
34.79421755,31.25845971,0.0,0.0,11-33-05,0.030976057,-0.10636431,0.15307617,193.0,-6.8991995,14.467511,0.18899536,-0.10450745,0.1459198,2.3067808,0.95085615,9.483934
34.79421755,31.25845971,0.0,0.0,11-33-05,-0.0056290627,0.015375495,-0.17206573,192.0,-6.077417,13.876641,0.18899536,-0.10450745,0.1459198,2.3533247,1.0288707,9.464337
34.79421755,31.25845971,0.0,0.0,11-33-06,-0.0056290627,0.015375495,-0.17206573,192.0,-6.0327215,13.845103,-0.044128418,0.060272217,0.13420105,2.3533247,1.0288707,9.464337
34.79421755,31.25845971,0.0,0.0,11-33-06,0.041708946,-0.15131807,0.12390804,191.0,-6.7994494,14.377219,-0.044128418,0.060272217,0.13420105,2.3871055,1.0314394,9.455593
34.79421755,31.25845971,0.0,0.0,11-33-06,0.041708946,-0.15131807,0.12390804,191.0,-6.002803,14.192019,0.105667114,0.005508423,0.09011841,2.3871055,1.0314394,9.455593
34.79421755,31.25845971,0.0,0.0,11-33-06,0.0010261536,-0.1741758,-0.020403862,191.0,-5.2723727,14.130376,0.105667114,0.005508423,0.09011841,2.4199052,0.9456958,9.456221
34.79421755,31.25845971,0.0,0.0,11-33-06,0.0010261536,-0.1741758,-0.020403862,191.0,-4.983436,13.8756895,-0.036956787,0.03352356,0.051452637,2.4199052,0.9456958,9.456221
34.79421755,31.25845971,0.0,0.0,11-33-06,-0.04867816,-0.1268295,-0.08189869,191.0,-4.122413,13.544476,-0.036956787,0.03352356,0.051452637,2.3199487,0.765649,9.497474
34.79421755,31.25845971,0.0,0.0,11-33-06,-0.04867816,-0.1268295,-0.08189869,191.0,-3.88472,13.454125,-0.088256836,0.023239136,-0.0056762695,2.3199487,0.765649,9.497474
34.79421755,31.25845971,0.0,0.0,11-33-06,-0.06847525,-0.120567024,0.036593437,192.0,-3.5818448,13.386296,-0.088256836,0.023239136,-0.0056762695,2.2427785,0.64094645,9.525205
34.79421755,31.25845971,0.0,0.0,11-33-06,-0.06847525,-0.120567024,0.036593437,192.0,-3.1448371,13.08821,-0.051132202,0.021972656,-0.012756348,2.2427785,0.64094645,9.525205
34.79421755,31.25845971,0.0,0.0,11-33-06,-5.950928E-4,-0.1727826,0.15378189,192.0,-3.884992,12.83082,-0.051132202,0.021972656,-0.012756348,2.2436926,0.51393586,9.532686
34.79421755,31.25845971,0.0,0.0,11-33-07,-5.950928E-4,-0.1727826,0.15378189,193.0,-4.205487,12.950193,0.07472229,-0.021148682,-0.07157898,2.2436926,0.51393586,9.532686
34.79421755,31.25845971,0.0,0.0,11-33-07,-0.05685544,0.12729508,0.052268982,193.0,-4.405099,13.275187,0.07472229,-0.021148682,-0.07157898,2.1936808,0.6177389,9.538162
34.79421755,31.25845971,0.0,0.0,11-33-07,-0.05685544,0.12729508,0.052268982,193.0,-4.8319983,13.241934,-0.0037994385,-0.022476196,-0.06881714,2.1936808,0.6177389,9.538162
34.79421755,31.25845971,0.0,0.0,11-33-07,0.116571665,0.1593045,-0.115903854,194.0,-4.9112616,13.140705,-0.0037994385,-0.022476196,-0.06881714,2.266439,0.7856716,9.508752
34.79421755,31.25845971,0.0,0.0,11-33-07,0.116571665,0.1593045,-0.115903854,194.0,-4.3279886,13.205019,-0.029693604,0.03692627,-0.02810669,2.266439,0.7856716,9.508752
34.79421755,31.25845971,0.0,0.0,11-33-07,0.16644216,0.010069072,-0.14585686,194.0,-3.9234297,13.699582,-0.029693604,0.03692627,-0.02810669,2.3367722,0.73703206,9.495613
34.79421755,31.25845971,0.0,0.0,11-33-07,0.16644216,0.010069072,-0.14585686,194.0,-3.6234381,13.761343,-0.085113525,-0.010803223,0.0042419434,2.3367722,0.73703206,9.495613
34.79421755,31.25845971,0.0,0.0,11-33-07,-0.02606082,0.1655485,0.08224678,193.0,-3.8020866,13.976056,-0.085113525,-0.010803223,0.0042419434,2.3109207,0.6633324,9.507367
34.79421755,31.25845971,0.0,0.0,11-33-07,-0.02606082,0.1655485,0.08224678,193.0,-4.637328,14.117807,-0.002166748,-0.056793213,0.01171875,2.3109207,0.6633324,9.507367
34.79421755,31.25845971,0.0,0.0,11-33-07,-0.080367565,0.17987591,0.042653084,193.0,-5.4835343,14.192997,-0.002166748,-0.056793213,0.01171875,2.349222,0.7595214,9.4907675
34.79421755,31.25845971,0.0,0.0,11-33-08,-0.080367565,0.17987591,0.042653084,192.0,-5.62304,13.979528,0.12597656,-0.012329102,0.06259155,2.349222,0.7595214,9.4907675
34.79421755,31.25845971,0.0,0.0,11-33-08,-0.033144474,0.057518065,-0.04809475,192.0,-5.0976305,13.956438,0.12597656,-0.012329102,0.06259155,2.3825583,0.882626,9.471788
34.79421755,31.25845971,0.0,0.0,11-33-08,-0.033144474,0.057518065,-0.04809475,191.0,-4.968221,13.867953,-0.030258179,0.013320923,0.0896759,2.3825583,0.882626,9.471788
34.79421755,31.25845971,0.0,0.0,11-33-08,-0.1313901,-0.06948066,0.084708214,190.0,-4.825856,13.73954,-0.030258179,0.013320923,0.0896759,2.3159368,0.8443219,9.491783
34.79421755,31.25845971,0.0,0.0,11-33-08,-0.1313901,-0.06948066,0.084708214,190.0,-4.5601053,13.633401,0.015716553,0.0019378662,0.09754944,2.3159368,0.8443219,9.491783
34.79421755,31.25845971,0.0,0.0,11-33-08,-0.14811707,-0.116953015,0.007258415,190.0,-4.0244174,13.553406,0.015716553,0.0019378662,0.09754944,2.2735476,0.75146437,9.50982
34.79421755,31.25845971,0.0,0.0,11-33-08,-0.14811707,-0.116953015,0.007258415,190.0,-2.999025,13.615258,-0.07498169,-0.007843018,0.054611206,2.2735476,0.75146437,9.50982
34.79421755,31.25845971,0.0,0.0,11-33-08,-0.0032784939,-0.21602559,0.0283432,191.0,-2.8899314,13.585922,-0.07498169,-0.007843018,0.054611206,2.2886662,0.54784393,9.520098
34.79421755,31.25845971,0.0,0.0,11-33-08,-0.0032784939,-0.21602559,0.0283432,191.0,-2.355675,13.206258,-0.022994995,0.016525269,-0.08821106,2.2886662,0.54784393,9.520098
34.79421755,31.25845971,0.0,0.0,11-33-08,0.011621952,-0.172548,-0.06876564,192.0,-2.5262892,13.119366,-0.022994995,0.016525269,-0.08821106,2.267912,0.37484524,9.533439
34.79421755,31.25845971,0.0,0.0,11-33-09,0.011621952,-0.172548,-0.06876564,192.0,-3.0721736,12.977845,0.029403687,0.0137786865,-0.097717285,2.267912,0.37484524,9.533439
34.79421755,31.25845971,0.0,0.0,11-33-09,-0.05038023,0.0035496652,0.08711624,193.0,-2.9454415,12.925321,0.029403687,0.0137786865,-0.097717285,2.1965058,0.4300505,9.547817
34.79421755,31.25845971,0.0,0.0,11-33-09,-0.05038023,0.0035496652,0.08711624,193.0,-2.969837,13.014018,-0.035705566,-0.020828247,-0.10183716,2.1965058,0.4300505,9.547817
34.79421755,31.25845971,0.0,0.0,11-33-09,-0.009670734,0.094678044,0.047878265,194.0,-2.4842274,12.939837,-0.035705566,-0.020828247,-0.10183716,2.19789,0.5078362,9.543676
34.79421755,31.25845971,0.0,0.0,11-33-09,0.04760456,0.093568444,-0.03472042,194.0,-2.5238574,13.109343,-0.088272095,-0.0046844482,-0.055130005,2.234725,0.47592932,9.536765
34.79421755,31.25845971,0.0,0.0,11-33-09,0.04760456,0.093568444,-0.03472042,194.0,-2.9681964,13.490837,-0.088272095,-0.0046844482,-0.055130005,2.234725,0.47592932,9.536765
34.79421755,31.25845971,0.0,0.0,11-33-09,0.04760456,0.093568444,-0.03472042,194.0,-3.7349274,13.783177,0.052352905,-0.014770508,-0.04045105,2.234725,0.47592932,9.536765
34.79421755,31.25845971,0.0,0.0,11-33-09,0.15704417,0.14569604,-0.12589836,193.0,-4.3845935,13.857968,0.052352905,-0.014770508,-0.04045105,2.3403888,0.58161676,9.505508
34.79421755,31.25845971,0.0,0.0,11-33-09,-0.013369799,0.3236317,-0.096030235,193.0,-4.49829,13.921324,0.010971069,0.0025482178,0.0309906,2.3668232,0.79834586,9.483205
34.79421755,31.25845971,0.0,0.0,11-33-09,-0.013369799,0.3236317,-0.096030235,192.0,-4.63631,14.1859665,0.010971069,0.0025482178,0.0309906,2.3668232,0.79834586,9.483205
34.79421755,31.25845971,0.0,0.0,11-33-10,-0.016993046,-0.05346769,0.1309433,192.0,-5.1058207,14.82595,0.019454956,-0.083724976,0.022201538,2.4328618,0.80556595,9.465867
34.79421755,31.25845971,0.0,0.0,11-33-10,-0.016993046,-0.05346769,0.1309433,192.0,-6.7401547,14.861525,0.019454956,-0.083724976,0.022201538,2.4328618,0.80556595,9.465867
34.79421755,31.25845971,0.0,0.0,11-33-10,-0.0147686,-0.21746612,0.026948929,191.0,-9.010812,15.246333,0.39767456,-0.024307251,0.11143494,2.540813,1.128591,9.4043045
34.79421755,31.25845971,0.0,0.0,11-33-10,-0.0147686,-0.21746612,0.026948929,191.0,-10.22116,15.36424,0.39767456,-0.024307251,0.11143494,2.540813,1.128591,9.4043045
34.79421755,31.25845971,0.0,0.0,11-33-10,0.04391527,-0.06664848,-0.13010406,191.0,-10.018332,15.233581,0.19085693,0.018005371,0.08639526,2.5896373,1.5463496,9.33129
34.79421755,31.25845971,0.0,0.0,11-33-10,0.04391527,-0.06664848,-0.13010406,191.0,-8.73554,14.915167,0.19085693,0.018005371,0.08639526,2.5896373,1.5463496,9.33129
34.79421755,31.25845971,0.0,0.0,11-33-10,-0.012608051,-0.043994904,-0.015854836,191.0,-7.5440426,14.566704,-0.18041992,0.050079346,0.010879517,2.5135078,1.4236413,9.371548
34.79421755,31.25845971,0.0,0.0,11-33-10,-0.012608051,-0.043994904,-0.015854836,191.0,-5.9207506,14.12089,-0.18041992,0.050079346,0.010879517,2.5135078,1.4236413,9.371548
34.79421755,31.25845971,0.0,0.0,11-33-10,-0.034885406,-0.023628533,0.09236336,191.0,-3.9969938,13.57354,-0.30921936,0.07673645,-0.016708374,2.3625588,0.9426953,9.47101
34.79421755,31.25845971,0.0,0.0,11-33-10,-0.034885406,-0.023628533,0.09236336,191.0,-2.1641486,13.038489,-0.30921936,0.07673645,-0.016708374,2.3625588,0.9426953,9.47101
34.79421755,31.25845971,0.0,0.0,11-33-11,-0.10008788,0.04057491,0.29262638,191.0,-0.8970784,12.834561,-0.29193115,0.038116455,-0.027328491,2.25174,0.40054506,9.536226
34.79421755,31.25845971,0.0,0.0,11-33-11,-0.10008788,0.04057491,0.29262638,191.0,-0.31181937,12.981096,-0.29193115,0.038116455,-0.027328491,2.25174,0.40054506,9.536226
34.79421755,31.25845971,0.0,0.0,11-33-11,-0.010541201,0.013045941,0.038734436,191.0,0.81575036,12.948186,-0.12498474,-0.019348145,0.0071258545,2.2359962,0.0204556,9.548313
34.79421755,31.25845971,0.0,0.0,11-33-11,-0.010541201,0.013045941,0.038734436,190.0,1.5468459,12.658296,-0.12498474,-0.019348145,0.0071258545,2.2359962,0.0204556,9.548313
34.79421755,31.25845971,0.0,0.0,11-33-11,0.15061164,-0.020966798,-0.05196476,189.0,1.5329951,12.686523,-0.06071472,0.060272217,0.16638184,2.2052891,-0.19239846,9.553536
34.79421755,31.25845971,0.0,0.0,11-33-11,0.15061164,-0.020966798,-0.05196476,189.0,1.4903628,12.75791,-0.06071472,0.060272217,0.16638184,2.2052891,-0.19239846,9.553536
34.79421755,31.25845971,0.0,0.0,11-33-11,-0.13578725,-0.08841777,-0.0742569,189.0,1.5992868,11.914351,0.015304565,0.06427002,0.0105896,2.0776408,-0.27211732,9.580174
34.79421755,31.25845971,0.0,0.0,11-33-11,-0.13578725,-0.08841777,-0.0742569,189.0,0.60124046,11.87386,0.015304565,0.06427002,0.0105896,2.0776408,-0.27211732,9.580174
34.79421755,31.25845971,0.0,0.0,11-33-11,-0.10889411,-0.12760594,0.11458111,189.0,-1.2789178,11.89815,0.2588501,-0.024459839,0.02545166,1.9765383,-0.08586844,9.605015
34.79421755,31.25845971,0.0,0.0,11-33-11,-0.10889411,-0.12760594,0.11458111,189.0,-2.2550201,11.610484,0.2588501,-0.024459839,0.02545166,1.9765383,-0.08586844,9.605015
34.79421755,31.25845971,0.0,0.0,11-33-12,-0.005343914,-0.015134215,-0.11300373,189.0,-2.612573,11.022586,0.13798523,0.07191467,0.008560181,1.9423966,0.2867568,9.608083
34.79421755,31.25845971,0.0,0.0,11-33-12,-0.005343914,-0.015134215,-0.11300373,189.0,-1.2664367,9.697014,0.13798523,0.07191467,0.008560181,1.9423966,0.2867568,9.608083
34.79421755,31.25845971,0.0,0.0,11-33-12,-0.0652411,0.040316433,-0.022029877,190.0,-1.5705315,9.218777,-0.11228943,0.13259888,-0.022399902,1.7037827,0.33437252,9.65172
34.79421755,31.25845971,0.0,0.0,11-33-12,-0.0652411,0.040316433,-0.022029877,190.0,-1.7040465,8.771208,-0.11228943,0.13259888,-0.022399902,1.7037827,0.33437252,9.65172
34.79421755,31.25845971,0.0,0.0,11-33-12,-0.123185515,0.02401033,0.091653824,190.0,-2.3562748,10.078416,0.053222656,-0.07823181,-0.04977417,1.554908,0.28833303,9.678301
34.79421755,31.25845971,0.0,0.0,11-33-12,-0.123185515,0.02401033,0.091653824,191.0,-2.5171037,11.415749,0.053222656,-0.07823181,-0.04977417,1.554908,0.28833303,9.678301
34.79421755,31.25845971,0.0,0.0,11-33-12,-0.122400284,0.086422265,-0.054606438,191.0,-2.6678717,11.529741,0.0023651123,-0.17955017,-0.06515503,1.7480958,0.4060855,9.64104
34.79421755,31.25845971,0.0,0.0,11-33-12,-0.122400284,0.086422265,-0.054606438,191.0,-2.3213892,11.544154,0.0023651123,-0.17955017,-0.06515503,1.7480958,0.4060855,9.64104
34.79421755,31.25845971,0.0,0.0,11-33-12,-0.08150947,0.04290569,0.23632717,192.0,-1.7702792,11.970842,-0.08998108,-0.06512451,-0.045806885,1.9297249,0.38328195,9.60727
34.79421755,31.25845971,0.0,0.0,11-33-12,-0.08150947,0.04290569,0.23632717,192.0,-1.9197227,12.740498,-0.08998108,-0.06512451,-0.045806885,1.9297249,0.38328195,9.60727
34.79421755,31.25845971,0.0,0.0,11-33-13,-0.025201082,-0.011756957,-0.023442268,192.0,-2.5200057,13.647783,0.058654785,-0.1509552,-0.021713257,2.1023822,0.35468894,9.572073
34.79421755,31.25845971,0.0,0.0,11-33-13,-0.025201082,-0.011756957,-0.023442268,192.0,-2.8233528,15.136478,0.058654785,-0.1509552,-0.021713257,2.1023822,0.35468894,9.572073
34.79421755,31.25845971,0.0,0.0,11-33-13,0.1653502,-0.021272123,-0.22286415,193.0,-2.9070563,16.45447,0.027618408,-0.17803955,-0.029129028,2.4162621,0.4362611,9.494301
34.79421755,31.25845971,0.0,0.0,11-33-13,0.41802716,-0.034131527,-0.18418026,193.0,-3.179512,16.4665,0.027618408,-0.17803955,-0.029129028,2.624783,0.5063941,9.435278
34.79421755,31.25845971,0.0,0.0,11-33-13,0.41802716,-0.034131527,-0.18418026,193.0,-3.588214,15.815607,0.03488159,0.0803833,0.0027923584,2.624783,0.5063941,9.435278
34.79421755,31.25845971,0.0,0.0,11-33-13,0.382622,-0.080093145,-0.10940552,193.0,-4.0981884,15.493146,0.03488159,0.0803833,0.0027923584,2.5311255,0.60846066,9.454817
34.79421755,31.25845971,0.0,0.0,11-33-13,0.382622,-0.080093145,-0.10940552,193.0,-3.962692,14.913979,0.08087158,0.0786438,-0.0129852295,2.5311255,0.60846066,9.454817
34.79421755,31.25845971,0.0,0.0,11-33-13,0.22225475,-0.06852263,-0.109500885,193.0,-4.190834,14.274601,0.08087158,0.0786438,-0.0129852295,2.402945,0.6777886,9.483503
34.79421755,31.25845971,0.0,0.0,11-33-13,0.22225475,-0.06852263,-0.109500885,193.0,-5.6510024,14.097598,0.061767578,0.11857605,0.0019073486,2.402945,0.6777886,9.483503
34.79421755,31.25845971,0.0,0.0,11-33-14,0.10277772,-0.03899288,-0.1183691,192.0,-7.138221,14.056311,0.061767578,0.11857605,0.0019073486,2.320422,0.91501176,9.484133
34.79421755,31.25845971,0.0,0.0,11-33-14,0.10277772,-0.03899288,-0.1183691,192.0,-7.8078756,13.923877,0.26583862,0.029449463,0.05583191,2.320422,0.91501176,9.484133
34.79421755,31.25845971,0.0,0.0,11-33-14,0.0019147396,0.23081696,0.044737816,192.0,-7.6821594,13.547643,0.26583862,0.029449463,0.05583191,2.2795997,1.1967268,9.462646
34.79421755,31.25845971,0.0,0.0,11-33-14,0.0019147396,0.23081696,0.044737816,192.0,-7.166532,12.975966,-0.03916931,0.033477783,-0.041641235,2.2795997,1.1967268,9.462646
34.79421755,31.25845971,0.0,0.0,11-33-14,0.01659751,0.17633188,-0.026072502,193.0,-6.4094787,12.432012,-0.03916931,0.033477783,-0.041641235,2.1588924,1.1376114,9.498179
34.79421755,31.25845971,0.0,0.0,11-33-14,0.01659751,0.17633188,-0.026072502,193.0,-4.4089603,11.998307,-0.19908142,0.08644104,-0.049804688,2.1588924,1.1376114,9.498179
34.79421755,31.25845971,0.0,0.0,11-33-14,-0.056261778,0.2006495,0.10968208,193.0,-2.9946916,11.278563,-0.19908142,0.08644104,-0.049804688,1.9589331,0.8005583,9.575598
34.79421755,31.25845971,0.0,0.0,11-33-14,-0.056261778,0.2006495,0.10968208,192.0,-2.6148026,10.992505,-0.2821808,0.056274414,-0.058502197,1.9589331,0.8005583,9.575598
34.79421755,31.25845971,0.0,0.0,11-33-14,-0.0442183,0.12402746,0.1347723,192.0,-3.5653005,10.22251,-0.2821808,0.056274414,-0.058502197,1.8454216,0.45790502,9.620558
34.79421755,31.25845971,0.0,0.0,11-33-14,-0.0442183,0.12402746,0.1347723,190.0,-5.3851795,10.224298,0.13226318,0.07148743,0.09056091,1.8454216,0.45790502,9.620558
34.79421755,31.25845971,0.0,0.0,11-33-15,-0.0025154352,0.039841592,-0.049165726,190.0,-6.4618,9.990363,0.13226318,0.07148743,0.09056091,1.7670386,0.7322596,9.618303
34.79421755,31.25845971,0.0,0.0,11-33-15,-0.0025154352,0.039841592,-0.049165726,190.0,-6.441765,9.932966,0.22175598,0.030426025,0.12580872,1.7670386,0.7322596,9.618303
34.79421755,31.25845971,0.0,0.0,11-33-15,-0.07739508,-0.013697267,-0.117198944,190.0,-5.4945664,9.791437,0.22175598,0.030426025,0.12580872,1.6983103,0.9899995,9.607603
34.79421755,31.25845971,0.0,0.0,11-33-15,-0.07739508,-0.013697267,-0.117198944,190.0,-4.3352747,9.605703,-0.12553406,0.016174316,0.0012969971,1.6983103,0.9899995,9.607603
34.79421755,31.25845971,0.0,0.0,11-33-15,-0.17116475,-0.0041378736,0.13768673,189.0,-3.2411115,9.009843,-0.12553406,0.016174316,0.0012969971,1.564367,0.77493155,9.650006
34.79421755,31.25845971,0.0,0.0,11-33-15,-0.17116475,-0.0041378736,0.13768673,189.0,-2.9592597,9.05428,-0.15464783,0.0030975342,0.0074768066,1.564367,0.77493155,9.650006
34.79421755,31.25845971,0.0,0.0,11-33-15,-0.10112584,-0.029803574,0.08540344,189.0,-2.6826859,9.13983,-0.15464783,0.0030975342,0.0074768066,1.5071387,0.51742905,9.676321
34.79421755,31.25845971,0.0,0.0,11-33-15,-0.10112584,-0.029803574,0.08540344,189.0,-2.7009583,9.271572,-0.012130737,-0.031433105,0.023422241,1.5071387,0.51742905,9.676321
34.79421755,31.25845971,0.0,0.0,11-33-15,-0.0018867254,-0.10309687,0.023490906,189.0,-2.7155762,9.416584,-0.012130737,-0.031433105,0.023422241,1.535948,0.43177012,9.675992
34.79421755,31.25845971,0.0,0.0,11-33-15,-0.0018867254,-0.10309687,0.023490906,189.0,-2.684316,9.611487,0.036376953,-0.010513306,0.030349731,1.535948,0.43177012,9.675992
34.79421755,31.25845971,0.0,0.0,11-33-16,0.04745269,-0.09936637,-0.017380714,189.0,-2.38972,9.78521,0.036376953,-0.010513306,0.030349731,1.6054552,0.40880123,9.665702
34.79421755,31.25845971,0.0,0.0,11-33-16,0.04745269,-0.09936637,-0.017380714,189.0,-2.6805704,10.198964,-0.0056152344,-0.03337097,0.0073394775,1.6054552,0.40880123,9.665702
34.79421755,31.25845971,0.0,0.0,11-33-16,0.102604866,-0.07731539,0.011240959,189.0,-3.449659,10.525184,-0.0056152344,-0.03337097,0.0073394775,1.728191,0.44367975,9.642971
34.79421755,31.25845971,0.0,0.0,11-33-16,0.102604866,-0.07731539,0.011240959,190.0,-2.670708,10.847377,0.06590271,-0.06668091,-0.010009766,1.728191,0.44367975,9.642971
34.79421755,31.25845971,0.0,0.0,11-33-16,-0.007924676,0.095495075,-0.1194725,190.0,-1.3269033,11.007455,0.06590271,-0.06668091,-0.010009766,1.8180283,0.45041567,9.626125
34.79421755,31.25845971,0.0,0.0,11-33-16,-0.007924676,0.095495075,-0.1194725,190.0,-0.78165936,10.951289,-0.21650696,-0.019363403,-0.05102539,1.8180283,0.45041567,9.626125
34.79421755,31.25845971,0.0,0.0,11-33-16,-0.029415846,0.013937309,-0.005964279,190.0,-0.18036018,10.775231,-0.21650696,-0.019363403,-0.05102539,1.8481553,0.21512225,9.628522
34.79421755,31.25845971,0.0,0.0,11-33-16,-0.029415846,0.013937309,-0.005964279,189.0,0.6123701,10.731437,-0.104263306,0.009689331,-0.0068359375,1.8481553,0.21512225,9.628522
34.79421755,31.25845971,0.0,0.0,11-33-16,0.003961563,0.05884415,0.022983551,189.0,1.2644842,11.036242,-0.104263306,0.009689331,-0.0068359375,1.8466533,-0.024741298,9.631181
34.79421755,31.25845971,0.0,0.0,11-33-16,0.003961563,0.05884415,0.022983551,189.0,-0.34254715,11.171641,-0.07058716,-0.030731201,0.0044555664,1.8466533,-0.024741298,9.631181
34.79421755,31.25845971,0.0,0.0,11-33-17,-0.008041263,-0.08317405,0.10471058,189.0,-2.5315917,11.2482815,-0.07058716,-0.030731201,0.0044555664,1.8665149,-0.0266937,9.627346
34.79421755,31.25845971,0.0,0.0,11-33-17,0.06309092,0.042695045,-0.15554333,189.0,-3.7077153,11.287396,0.3725891,0.0039978027,0.07424927,1.8665149,-0.0266937,9.627346
34.79421755,31.25845971,0.0,0.0,11-33-17,0.06309092,0.042695045,-0.15554333,188.0,-4.1912227,11.294213,0.3725891,0.0039978027,0.07424927,1.9336329,0.4050511,9.605591
34.79421755,31.25845971,0.0,0.0,11-33-17,0.034493923,0.012459874,0.0487051,188.0,-4.354003,11.336859,0.08985901,0.01461792,0.01449585,1.9334643,0.69719696,9.588849
34.79421755,31.25845971,0.0,0.0,11-33-17,0.034493923,0.012459874,0.0487051,189.0,-4.4075227,11.779548,0.08985901,0.01461792,0.01449585,1.9334643,0.69719696,9.588849
34.79421755,31.25845971,0.0,0.0,11-33-17,-0.02666998,-0.02192825,0.06492138,189.0,-4.465635,12.872767,0.0118255615,-0.072006226,-0.0064849854,2.0503802,0.736718,9.561567
34.79421755,31.25845971,0.0,0.0,11-33-17,-0.02666998,-0.02192825,0.06492138,189.0,-4.533108,13.797924,0.0118255615,-0.072006226,-0.0064849854,2.0503802,0.736718,9.561567
34.79421755,31.25845971,0.0,0.0,11-33-17,-0.021624804,0.03586763,0.021450043,189.0,-4.0650034,14.209777,-0.016616821,-0.19039917,-0.044281006,2.2948978,0.7179467,9.50728
34.79421755,31.25845971,0.0,0.0,11-33-17,-0.021624804,0.03586763,0.021450043,189.0,-4.43278,14.672732,-0.016616821,-0.19039917,-0.044281006,2.2948978,0.7179467,9.50728
34.79421755,31.25845971,0.0,0.0,11-33-17,0.0269804,0.032396495,-0.15628529,190.0,-4.7024064,15.596614,0.022018433,-0.08894348,-0.017181396,2.548278,0.73793805,9.440981
34.79421755,31.25845971,0.0,0.0,11-33-18,0.0269804,0.032396495,-0.15628529,190.0,-4.359469,16.192186,0.022018433,-0.08894348,-0.017181396,2.548278,0.73793805,9.440981
34.79421755,31.25845971,0.0,0.0,11-33-18,0.09832215,-0.017198026,0.026560783,190.0,-4.2409835,16.069323,-0.055358887,-0.072753906,-0.034500122,2.709449,0.7317347,9.39648
34.79421755,31.25845971,0.0,0.0,11-33-18,0.09832215,-0.017198026,0.026560783,190.0,-4.0937195,15.402145,-0.055358887,-0.072753906,-0.034500122,2.709449,0.7317347,9.39648
34.79421755,31.25845971,0.0,0.0,11-33-18,0.039624214,0.002110839,0.017582893,190.0,-4.211475,14.951136,-0.003189087,0.12246704,-7.019043E-4,2.6409063,0.6941569,9.418819
34.79421755,31.25845971,0.0,0.0,11-33-18,0.039624214,0.002110839,0.017582893,190.0,-3.9504683,14.994815,-0.003189087,0.12246704,-7.019043E-4,2.6409063,0.6941569,9.418819
34.79421755,31.25845971,0.0,0.0,11-33-18,-0.006380558,0.039414167,-0.037768364,190.0,-3.674287,14.869538,-0.037963867,-2.2888184E-4,-9.3078613E-4,2.5359533,0.6614989,9.449961
34.79421755,31.25845971,0.0,0.0,11-33-18,-0.006380558,0.039414167,-0.037768364,190.0,-3.2562127,14.470443,-0.037963867,-2.2888184E-4,-9.3078613E-4,2.5359533,0.6614989,9.449961
34.79421755,31.25845971,0.0,0.0,11-33-18,-0.05304098,0.048703015,0.069867134,190.0,-3.1678145,13.939392,-0.066345215,0.07081604,0.00793457,2.4391563,0.57812136,9.480859
34.79421755,31.25845971,0.0,0.0,11-33-18,-0.05304098,0.048703015,0.069867134,190.0,-3.2957304,13.73029,-0.066345215,0.07081604,0.00793457,2.4391563,0.57812136,9.480859
34.79421755,31.25845971,0.0,0.0,11-33-18,-0.013157845,-0.033722937,-0.0189991,189.0,-3.6558192,13.509449,0.03147888,0.035583496,0.027542114,2.3238466,0.5477874,9.511575
34.79421755,31.25845971,0.0,0.0,11-33-19,-0.013157845,-0.033722937,-0.0189991,189.0,-3.6885252,13.661934,0.03147888,0.035583496,0.027542114,2.3238466,0.5477874,9.511575
34.79421755,31.25845971,0.0,0.0,11-33-19,-0.050320625,-0.047908008,-0.03773594,189.0,-3.2666535,13.486658,0.03642273,-0.011627197,0.031234741,2.276944,0.56167763,9.522102
34.79421755,31.25845971,0.0,0.0,11-33-19,-0.050320625,-0.047908008,-0.03773594,189.0,-3.1925871,13.146204,0.03642273,-0.011627197,0.031234741,2.276944,0.56167763,9.522102
34.79421755,31.25845971,0.0,0.0,11-33-19,-0.15575695,-0.003225863,0.070607185,189.0,-3.3118527,12.963847,-0.041275024,0.030334473,-0.011123657,2.2053628,0.54567933,9.539864
34.79421755,31.25845971,0.0,0.0,11-33-19,-0.15575695,-0.003225863,0.070607185,190.0,-3.1931329,13.107948,-0.041275024,0.030334473,-0.011123657,2.2053628,0.54567933,9.539864
34.79421755,31.25845971,0.0,0.0,11-33-19,-0.06805205,0.013637662,-0.034228325,190.0,-3.1491752,13.308684,0.003036499,-0.05781555,-0.012283325,2.2054162,0.5355421,9.540425
34.79421755,31.25845971,0.0,0.0,11-33-19,-0.06805205,0.013637662,-0.034228325,190.0,-3.2550879,12.808773,0.003036499,-0.05781555,-0.012283325,2.2054162,0.5355421,9.540425
34.79421755,31.25845971,0.0,0.0,11-33-19,-0.05061555,-0.09745711,0.016765594,190.0,-3.6349094,12.494205,0.028579712,0.046295166,-0.0073394775,2.1794198,0.51876265,9.547324
34.79421755,31.25845971,0.0,0.0,11-33-19,-0.05061555,-0.09745711,0.016765594,190.0,-4.118651,11.961002,0.028579712,0.046295166,-0.0073394775,2.1794198,0.51876265,9.547324
34.79421755,31.25845971,0.0,0.0,11-33-19,-0.050937176,-0.093750775,0.06346607,191.0,-5.000854,11.741477,0.10847473,0.06225586,-0.013427734,2.0423596,0.62085533,9.571505
34.79421755,31.25845971,0.0,0.0,11-33-20,-0.050937176,-0.093750775,0.06346607,191.0,-5.240869,11.753705,0.10847473,0.06225586,-0.013427734,2.0423596,0.62085533,9.571505
34.79421755,31.25845971,0.0,0.0,11-33-20,0.0079472065,0.033062518,0.10780239,191.0,-5.261157,11.919627,0.06262207,-0.01272583,-0.030410767,1.9854666,0.79752886,9.570384
34.79421755,31.25845971,0.0,0.0,11-33-20,0.0079472065,0.033062518,0.10780239,192.0,-6.7143087,12.064136,0.06262207,-0.01272583,-0.030410767,1.9854666,0.79752886,9.570384
34.79421755,31.25845971,0.0,0.0,11-33-20,0.058775663,0.0024528503,-0.059690475,192.0,-7.6931095,12.193198,0.17366028,-0.013336182,-0.009170532,2.0436945,1.0286623,9.536014
34.79421755,31.25845971,0.0,0.0,11-33-20,0.058775663,0.0024528503,-0.059690475,192.0,-7.4186325,12.068602,0.17366028,-0.013336182,-0.009170532,2.0436945,1.0286623,9.536014
34.79421755,31.25845971,0.0,0.0,11-33-20,0.02849722,0.11011279,-0.011342049,192.0,-6.8646817,11.8728,-0.02696228,0.008651733,-0.039749146,2.053826,1.233647,9.509485
34.79421755,31.25845971,0.0,0.0,11-33-20,0.02849722,0.11011279,-0.011342049,192.0,-6.731387,11.841804,-0.02696228,0.008651733,-0.039749146,2.053826,1.233647,9.509485
34.79421755,31.25845971,0.0,0.0,11-33-20,-0.008085012,0.081980705,-0.0023088455,192.0,-6.9959245,11.7866,-0.061019897,0.017959595,-0.002029419,2.019797,1.1945472,9.521757
34.79421755,31.25845971,0.0,0.0,11-33-20,-0.008085012,0.081980705,-0.0023088455,192.0,-7.1507726,11.688572,-0.061019897,0.017959595,-0.002029419,2.019797,1.1945472,9.521757
34.79421755,31.25845971,0.0,0.0,11-33-20,-0.0029790401,0.033431053,0.02640438,192.0,-7.1008754,11.6043415,0.05102539,0.008392334,-8.392334E-4,1.9901179,1.2003189,9.527279
34.79421755,31.25845971,0.0,0.0,11-33-21,-0.0029790401,0.033431053,0.02640438,192.0,-5.904254,11.5783415,0.05102539,0.008392334,-8.392334E-4,1.9901179,1.2003189,9.527279
34.79421755,31.25845971,0.0,0.0,11-33-21,-0.0083732605,0.07665229,-0.1002512,192.0,-4.7480297,11.321379,-0.20040894,0.016830444,-0.022338867,1.9718745,1.1205637,9.540777
34.79421755,31.25845971,0.0,0.0,11-33-21,-0.0083732605,0.07665229,-0.1002512,192.0,-4.077138,11.25777,-0.20040894,0.016830444,-0.022338867,1.9718745,1.1205637,9.540777
34.79421755,31.25845971,0.0,0.0,11-33-21,0.0111813545,0.047989607,0.031187057,191.0,-3.3727944,11.260107,-0.15675354,0.025558472,-0.013214111,1.9305452,0.8186255,9.579835
34.79421755,31.25845971,0.0,0.0,11-33-21,0.0111813545,0.047989607,0.031187057,191.0,-2.3544483,11.264495,-0.15675354,0.025558472,-0.013214111,1.9305452,0.8186255,9.579835
34.79421755,31.25845971,0.0,0.0,11-33-21,0.06460321,0.067190826,-0.0129776,191.0,-1.5483822,11.314787,-0.1697998,0.004623413,9.765625E-4,1.9270306,0.5385802,9.600358
34.79421755,31.25845971,0.0,0.0,11-33-21,0.06460321,0.067190826,-0.0129776,191.0,-0.92560774,11.407932,-0.1697998,0.004623413,9.765625E-4,1.9270306,0.5385802,9.600358
34.79421755,31.25845971,0.0,0.0,11-33-21,0.023010254,-0.11418095,-0.051753044,191.0,-0.5054964,11.282691,-0.105911255,-0.0012207031,0.0057525635,1.9241754,0.2678655,9.612293
34.79421755,31.25845971,0.0,0.0,11-33-21,0.023010254,-0.11418095,-0.051753044,190.0,-0.34048754,11.103524,-0.105911255,-0.0012207031,0.0057525635,1.9241754,0.2678655,9.612293
34.79421755,31.25845971,0.0,0.0,11-33-21,0.0394758,0.029255979,-0.024040222,190.0,-0.61880356,10.976055,-0.036087036,0.036895752,0.021606445,1.8977326,0.1185657,9.620548
34.79421755,31.25845971,0.0,0.0,11-33-22,-0.025895596,-0.124197334,0.11918068,190.0,-2.6268995,11.0430765,-0.036087036,0.036895752,0.021606445,1.8532655,0.25987348,9.626435
34.79421755,31.25845971,0.0,0.0,11-33-22,-0.025895596,-0.124197334,0.11918068,190.0,-5.0554724,11.335534,0.36657715,-0.0259552,0.07522583,1.8532655,0.25987348,9.626435
34.79421755,31.25845971,0.0,0.0,11-33-22,0.032898188,-0.105487764,-0.10052109,189.0,-6.4639153,11.873424,0.36657715,-0.0259552,0.07522583,1.9500902,0.7828653,9.578865
34.79421755,31.25845971,0.0,0.0,11-33-22,0.032898188,-0.105487764,-0.10052109,190.0,-6.5575833,11.865952,0.27622986,-0.052505493,0.052993774,1.9500902,0.7828653,9.578865
34.79421755,31.25845971,0.0,0.0,11-33-22,0.04127121,-0.07215524,-0.06490421,190.0,-6.6480727,11.680727,0.27622986,-0.052505493,0.052993774,2.0108263,1.0886881,9.536337
34.79421755,31.25845971,0.0,0.0,11-33-22,0.04127121,-0.07215524,-0.06490421,189.0,-5.939688,11.014892,-0.025894165,0.05458069,0.021240234,2.0108263,1.0886881,9.536337
34.79421755,31.25845971,0.0,0.0,11-33-22,3.2663345E-5,0.052504063,-0.121525764,190.0,-4.7479362,10.789589,-0.025894165,0.05458069,0.021240234,1.9011449,0.94517744,9.574062
34.79421755,31.25845971,0.0,0.0,11-33-22,3.2663345E-5,0.052504063,-0.121525764,190.0,-2.7821999,10.534231,-0.23561096,0.07418823,-0.045028687,1.9011449,0.94517744,9.574062
34.79421755,31.25845971,0.0,0.0,11-33-22,-0.021838427,0.02729842,0.068917274,190.0,-1.1905035,10.087612,-0.23561096,0.07418823,-0.045028687,1.750734,0.48429516,9.636949
34.79421755,31.25845971,0.0,0.0,11-33-22,-0.021838427,0.02729842,0.068917274,190.0,-0.90590596,9.732793,-0.2639618,0.05493164,-0.04725647,1.750734,0.48429516,9.636949
34.79421755,31.25845971,0.0,0.0,11-33-23,0.047819734,-0.03815697,0.016405106,189.0,-1.7344099,9.953915,-0.2639618,0.05493164,-0.04725647,1.6965009,0.19346415,9.656855
34.79421755,31.25845971,0.0,0.0,11-33-23,0.047819734,-0.03815697,0.016405106,189.0,-3.307667,9.992566,0.14854431,-0.006439209,0.047302246,1.6965009,0.19346415,9.656855
34.79421755,31.25845971,0.0,0.0,11-33-23,-0.097477555,0.011185825,0.019628525,189.0,-4.5589247,10.180518,0.14854431,-0.006439209,0.047302246,1.6669838,0.49760672,9.651111
34.79421755,31.25845971,0.0,0.0,11-33-23,-0.097477555,0.011185825,0.019628525,189.0,-4.667595,10.127337,0.20195007,-0.023605347,0.04269409,1.6669838,0.49760672,9.651111
34.79421755,31.25845971,0.0,0.0,11-33-23,-0.03416276,0.14227182,-0.07180691,189.0,-3.9823334,9.892021,0.20195007,-0.023605347,0.04269409,1.6888784,0.758816,9.630279
34.79421755,31.25845971,0.0,0.0,11-33-23,-0.03416276,0.14227182,-0.07180691,189.0,-3.6429596,9.795597,-0.11741638,0.003753662,-0.022827148,1.6888784,0.758816,9.630279
34.79421755,31.25845971,0.0,0.0,11-33-23,-0.08668685,0.05504644,-5.3977966E-4,189.0,-3.2947378,9.4641075,-0.11741638,0.003753662,-0.022827148,1.6185464,0.63629806,9.651209
34.79421755,31.25845971,0.0,0.0,11-33-23,-0.08668685,0.05504644,-5.3977966E-4,189.0,-3.424747,9.254036,-0.041137695,0.03704834,0.004272461,1.6185464,0.63629806,9.651209
34.79421755,31.25845971,0.0,0.0,11-33-23,0.045263886,-0.06413329,0.048675537,189.0,-3.4433606,9.040601,-0.041137695,0.03704834,0.004272461,1.5875713,0.55783856,9.6612015
34.79421755,31.25845971,0.0,0.0,11-33-23,0.045263886,-0.06413329,0.048675537,189.0,-2.9722526,8.7708645,0.004837036,0.0390625,-0.021011353,1.5875713,0.55783856,9.6612015
34.79421755,31.25845971,0.0,0.0,11-33-24,-0.04738903,-0.051285863,0.04975319,189.0,-2.7591434,8.51403,0.004837036,0.0390625,-0.021011353,1.4871947,0.5096335,9.67982
34.79421755,31.25845971,0.0,0.0,11-33-24,-0.04738903,-0.051285863,0.04975319,189.0,-3.2029588,8.515916,-0.011047363,0.0061187744,-0.015274048,1.4871947,0.5096335,9.67982
34.79421755,31.25845971,0.0,0.0,11-33-24,-0.06613922,-0.016446352,0.03742504,189.0,-3.4488182,8.455125,-0.011047363,0.0061187744,-0.015274048,1.4310579,0.5128601,9.688108
34.79421755,31.25845971,0.0,0.0,11-33-24,-0.06613922,-0.016446352,0.03742504,190.0,-3.1636567,8.122239,0.019073486,-0.0051574707,-0.021438599,1.4310579,0.5128601,9.688108
34.79421755,31.25845971,0.0,0.0,11-33-24,-0.20915425,-0.07777476,-0.054646492,190.0,-2.7933095,7.8220263,0.019073486,-0.0051574707,-0.021438599,1.3281782,0.52486604,9.7021055
34.79421755,31.25845971,0.0,0.0,11-33-24,-0.20915425,-0.07777476,-0.054646492,190.0,-1.7266215,7.8852515,-0.08337402,0.013534546,0.005004883,1.3281782,0.52486604,9.7021055
34.79421755,31.25845971,0.0,0.0,11-33-24,-0.031661868,-0.042195767,0.08618355,189.0,-1.8385042,7.9583464,-0.08337402,0.013534546,0.005004883,1.310595,0.38494974,9.711053
34.79421755,31.25845971,0.0,0.0,11-33-24,-0.031661868,-0.042195767,0.08618355,189.0,-1.9067414,8.118191,7.171631E-4,-0.024002075,0.011138916,1.310595,0.38494974,9.711053
34.79421755,31.25845971,0.0,0.0,11-33-24,0.077311635,0.023774981,-0.12599373,190.0,-1.2454468,8.117672,7.171631E-4,-0.024002075,0.011138916,1.3837526,0.26877156,9.704812
34.79421755,31.25845971,0.0,0.0,11-33-24,0.077311635,0.023774981,-0.12599373,190.0,-1.1054024,8.295886,-0.09173584,0.0077667236,-0.04345703,1.3837526,0.26877156,9.704812
34.79421755,31.25845971,0.0,0.0,11-33-25,0.13050854,0.036278263,-0.021439552,190.0,-1.1739188,8.373341,-0.09173584,0.0077667236,-0.04345703,1.4344261,0.2218018,9.69864
34.79421755,31.25845971,0.0,0.0,11-33-25,0.13050854,0.036278263,-0.021439552,190.0,-1.0718514,8.473354,-0.012832642,0.011962891,-0.057052612,1.4344261,0.2218018,9.69864
34.79421755,31.25845971,0.0,0.0,11-33-25,0.11638546,0.08398348,0.09927654,190.0,-1.0950987,8.868752,-0.012832642,0.011962891,-0.057052612,1.478886,0.20309176,9.692369
34.79421755,31.25845971,0.0,0.0,11-33-25,0.11638546,0.08398348,0.09927654,191.0,-1.4637032,9.240059,-0.022506714,-0.03552246,-0.06436157,1.478886,0.20309176,9.692369
34.79421755,31.25845971,0.0,0.0,11-33-25,0.10579014,0.09142825,-0.09083843,191.0,-2.1640058,9.550626,-0.022506714,-0.03552246,-0.06436157,1.5782977,0.26810938,9.675096
34.79421755,31.25845971,0.0,0.0,11-33-25,0.10579014,0.09142825,-0.09083843,191.0,-2.2901778,9.747336,0.08918762,-0.036453247,0.005264282,1.5782977,0.26810938,9.675096
34.79421755,31.25845971,0.0,0.0,11-33-25,0.055567384,-0.007011056,-0.04768467,191.0,-2.3914971,10.261242,0.08918762,-0.036453247,0.005264282,1.6859225,0.35135064,9.654253
34.79421755,31.25845971,0.0,0.0,11-33-25,0.055567384,-0.007011056,-0.04768467,191.0,-3.2277958,10.693421,0.050689697,-0.077301025,-0.0017547607,1.6859225,0.35135064,9.654253
34.79421755,31.25845971,0.0,0.0,11-33-25,-0.02074039,-0.037630677,-0.02818203,191.0,-3.5131109,10.951558,0.050689697,-0.077301025,-0.0017547607,1.8022112,0.46978483,9.628174
34.79421755,31.25845971,0.0,0.0,11-33-25,-0.02074039,-0.037630677,-0.02818203,191.0,-4.268893,10.932471,0.09939575,-0.027038574,0.019454956,1.8022112,0.46978483,9.628174
34.79421755,31.25845971,0.0,0.0,11-33-26,-0.031249404,-0.008204222,0.08841133,191.0,-4.505307,10.854348,0.09939575,-0.027038574,0.019454956,1.8517356,0.65767443,9.607754
34.79421755,31.25845971,0.0,0.0,11-33-26,-0.031249404,-0.008204222,0.08841133,191.0,-3.4193141,10.819021,0.008575439,0.013595581,0.016113281,1.8517356,0.65767443,9.607754
34.79421755,31.25845971,0.0,0.0,11-33-26,-0.022725582,-0.11409819,0.046444893,191.0,-3.4903646,10.549964,0.008575439,0.013595581,0.016113281,1.8238677,0.61787355,9.615723
34.79421755,31.25845971,0.0,0.0,11-33-26,-0.022725582,-0.11409819,0.046444893,191.0,-4.8934813,10.4684305,0.095062256,0.014389038,0.040985107,1.8238677,0.61787355,9.615723
34.79421755,31.25845971,0.0,0.0,11-33-26,-0.04630351,-0.14693516,0.042941093,191.0,-6.3811035,10.492892,0.095062256,0.014389038,0.040985107,1.7853161,0.69731957,9.617524
34.79421755,31.25845971,0.0,0.0,11-33-26,-0.04630351,-0.14693516,0.042941093,191.0,-5.64242,10.171491,0.16714478,0.019546509,0.032699585,1.7853161,0.69731957,9.617524
34.79421755,31.25845971,0.0,0.0,11-33-26,-0.018024802,0.06670672,-0.24451256,191.0,-3.349062,9.784023,0.16714478,0.019546509,0.032699585,1.7546129,0.9329124,9.603197
34.79421755,31.25845971,0.0,0.0,11-33-26,-0.018024802,0.06670672,-0.24451256,192.0,-3.0840034,9.382365,-0.31277466,0.049865723,-0.058151245,1.7546129,0.9329124,9.603197
34.79421755,31.25845971,0.0,0.0,11-33-26,-0.06260276,-0.03260374,0.24866581,191.0,-4.1593604,9.373834,-0.31277466,0.049865723,-0.058151245,1.6246898,0.70601225,9.645326
34.79421755,31.25845971,0.0,0.0,11-33-26,-0.06260276,-0.03260374,0.24866581,191.0,-4.9747806,9.371506,0.16618347,-0.012832642,0.016937256,1.6246898,0.70601225,9.645326
34.79421755,31.25845971,0.0,0.0,11-33-27,-0.07895017,0.015692532,0.059212685,191.0,-5.5123343,9.426538,0.16618347,-0.012832642,0.016937256,1.5658247,0.7055584,9.65509
34.79421755,31.25845971,0.0,0.0,11-33-27,-0.07895017,0.015692532,0.059212685,191.0,-5.5304427,9.6104355,0.07173157,-0.018722534,-0.011169434,1.6072576,0.89693165,9.632374
34.79421755,31.25845971,0.0,0.0,11-33-27,-0.0133469105,-4.7147274E-4,-0.059640884,191.0,-5.4407177,9.711521,0.07173157,-0.018722534,-0.011169434,1.6072576,0.89693165,9.632374
34.79421755,31.25845971,0.0,0.0,11-33-27,-0.09695089,0.050831914,-0.04409027,191.0,-5.4025617,9.767069,-0.017120361,-0.02960205,0.0047912598,1.622757,0.93261886,9.626384
34.79421755,31.25845971,0.0,0.0,11-33-27,-0.09695089,0.050831914,-0.04409027,190.0,-5.166255,9.786386,-0.017120361,-0.02960205,0.0047912598,1.622757,0.93261886,9.626384
34.79421755,31.25845971,0.0,0.0,11-33-27,-0.07537472,0.09317684,0.04954815,190.0,-5.087382,9.680304,-0.050598145,-0.017730713,0.036743164,1.6287524,0.90155625,9.628331
34.79421755,31.25845971,0.0,0.0,11-33-27,-0.07537472,0.09317684,0.04954815,189.0,-5.1798077,9.688158,-0.050598145,-0.017730713,0.036743164,1.6287524,0.90155625,9.628331
34.79421755,31.25845971,0.0,0.0,11-33-27,0.020247221,0.041781604,-7.696152E-4,189.0,-5.1799293,9.885218,0.014038086,-0.014511108,0.041671753,1.6596463,0.87696,9.625326
34.79421755,31.25845971,0.0,0.0,11-33-27,0.020247221,0.041781604,-7.696152E-4,189.0,-5.453511,10.121732,0.014038086,-0.014511108,0.041671753,1.6596463,0.87696,9.625326
34.79421755,31.25845971,0.0,0.0,11-33-27,0.18473399,0.04648435,-0.08959007,189.0,-5.591451,10.265494,0.023254395,0.010223389,0.016296387,1.7618994,0.9256138,9.60257
34.79421755,31.25845971,0.0,0.0,11-33-28,0.18473399,0.04648435,-0.08959007,189.0,-5.024445,10.201821,0.023254395,0.010223389,0.016296387,1.7618994,0.9256138,9.60257
34.79421755,31.25845971,0.0,0.0,11-33-28,0.00455904,-0.101858616,0.061553,189.0,-4.950402,10.255086,-0.042617798,0.0037841797,-0.0126953125,1.7510144,0.8637194,9.610324
34.79421755,31.25845971,0.0,0.0,11-33-28,0.00455904,-0.101858616,0.061553,190.0,-4.9373574,10.286006,-0.042617798,0.0037841797,-0.0126953125,1.7510144,0.8637194,9.610324
34.79421755,31.25845971,0.0,0.0,11-33-28,0.04050243,-0.031861007,-0.059853554,190.0,-4.7349615,10.419175,-0.0037841797,-0.0038604736,-0.010528564,1.7760187,0.80202186,9.611083
34.79421755,31.25845971,0.0,0.0,11-33-28,0.04050243,-0.031861007,-0.059853554,190.0,-4.168825,10.35143,-0.0037841797,-0.0038604736,-0.010528564,1.7760187,0.80202186,9.611083
34.79421755,31.25845971,0.0,0.0,11-33-28,-0.0074470043,-0.038630664,0.04494953,190.0,-4.1422176,10.339686,-0.056228638,-0.0010681152,-5.0354004E-4,1.7660546,0.725153,9.619022
34.79421755,31.25845971,0.0,0.0,11-33-28,-0.0074470043,-0.038630664,0.04494953,190.0,-4.656713,10.437258,-0.056228638,-0.0010681152,-5.0354004E-4,1.7660546,0.725153,9.619022
34.79421755,31.25845971,0.0,0.0,11-33-28,-0.03913653,0.0014286637,0.051324844,190.0,-5.0431433,10.493097,0.080825806,-0.025741577,-0.018157959,1.759868,0.76292336,9.617234
34.79421755,31.25845971,0.0,0.0,11-33-28,-0.03913653,0.0014286637,0.051324844,190.0,-4.4805098,10.833513,0.080825806,-0.025741577,-0.018157959,1.759868,0.76292336,9.617234
34.79421755,31.25845971,0.0,0.0,11-33-28,0.039197564,0.0840261,-0.048204422,191.0,-3.6161132,10.973678,-0.13752747,-0.032409668,-0.053268433,1.837215,0.7528996,9.60355
34.79421755,31.25845971,0.0,0.0,11-33-29,0.039197564,0.0840261,-0.048204422,191.0,-3.6680107,11.113056,-0.13752747,-0.032409668,-0.053268433,1.837215,0.7528996,9.60355
34.79421755,31.25845971,0.0,0.0,11-33-29,-0.048153758,0.006771922,-0.039636612,191.0,-3.9056897,11.082052,0.0017089844,-0.026519775,-0.032852173,1.87248,0.6394033,9.604966
34.79421755,31.25845971,0.0,0.0,11-33-29,-0.048153758,0.006771922,-0.039636612,191.0,-4.02282,11.082069,0.0017089844,-0.026519775,-0.032852173,1.87248,0.6394033,9.604966
34.79421755,31.25845971,0.0,0.0,11-33-29,-0.013031125,0.110174894,0.012554169,191.0,-3.931204,11.068754,-0.024337769,0.0025634766,-0.0031280518,1.8838283,0.6845625,9.599633
34.79421755,31.25845971,0.0,0.0,11-33-29,-0.013031125,0.110174894,0.012554169,191.0,-3.8932953,11.040912,-0.024337769,0.0025634766,-0.0031280518,1.8838283,0.6845625,9.599633
34.79421755,31.25845971,0.0,0.0,11-33-29,-0.0056773424,0.04260266,-0.050593376,191.0,-4.0317698,10.934616,-0.0019836426,0.013137817,0.004470825,1.8713627,0.68262875,9.602208
34.79421755,31.25845971,0.0,0.0,11-33-29,-0.0056773424,0.04260266,-0.050593376,191.0,-4.4613996,10.90787,-0.0019836426,0.013137817,0.004470825,1.8713627,0.68262875,9.602208
34.79421755,31.25845971,0.0,0.0,11-33-29,0.030279279,-0.0023622513,-1.1444092E-5,191.0,-4.847768,10.701542,0.06349182,0.02293396,0.008224487,1.8536783,0.73659897,9.60165
34.79421755,31.25845971,0.0,0.0,11-33-29,0.030279279,-0.0023622513,-1.1444092E-5,191.0,-4.987748,10.458242,0.06349182,0.02293396,0.008224487,1.8536783,0.73659897,9.60165
34.79421755,31.25845971,0.0,0.0,11-33-29,-0.027782679,-0.030151129,0.102493286,191.0,-5.569483,10.197798,0.08427429,0.03437805,0.04689026,1.7804612,0.8440286,9.606663
34.79421755,31.25845971,0.0,0.0,11-33-30,-0.027782679,-0.030151129,0.102493286,191.0,-5.156217,9.7346115,0.08427429,0.03437805,0.04689026,1.7804612,0.8440286,9.606663
34.79421755,31.25845971,0.0,0.0,11-33-30,0.037941337,0.05684769,-0.11136627,190.0,-4.6231704,9.331525,-0.08758545,0.081085205,0.01399231,1.7052484,0.8665622,9.618295
34.79421755,31.25845971,0.0,0.0,11-33-30,0.037941337,0.05684769,-0.11136627,190.0,-5.353681,9.1434555,-0.08758545,0.081085205,0.01399231,1.7052484,0.8665622,9.618295
34.79421755,31.25845971,0.0,0.0,11-33-30,-0.10405803,0.0019053221,0.13974285,190.0,-6.0908184,8.914683,0.13282776,0.019592285,0.02809143,1.5509151,0.88981694,9.642265
34.79421755,31.25845971,0.0,0.0,11-33-30,-0.10405803,0.0019053221,0.13974285,190.0,-6.122736,8.800649,0.13282776,0.019592285,0.02809143,1.5509151,0.88981694,9.642265
34.79421755,31.25845971,0.0,0.0,11-33-30,-0.070192456,-0.027422786,-0.049074173,190.0,-5.693024,8.580853,-0.027191162,0.0158844,-0.015258789,1.4817191,0.9853788,9.643854
34.79421755,31.25845971,0.0,0.0,11-33-30,-0.070192456,-0.027422786,-0.049074173,190.0,-5.8580027,8.350982,-0.027191162,0.0158844,-0.015258789,1.4817191,0.9853788,9.643854
34.79421755,31.25845971,0.0,0.0,11-33-30,-0.016660094,-9.588003E-4,0.08370018,190.0,-6.0600715,8.348478,0.030273438,0.013641357,-0.015609741,1.4329004,0.9980775,9.649923
34.79421755,31.25845971,0.0,0.0,11-33-30,-0.016660094,-9.588003E-4,0.08370018,190.0,-6.347327,8.288162,0.030273438,0.013641357,-0.015609741,1.4329004,0.9980775,9.649923
34.79421755,31.25845971,0.0,0.0,11-33-30,0.0048223734,0.0116689205,-0.061699867,191.0,-6.446846,8.499758,0.03353882,-0.018295288,-0.018356323,1.433193,1.0492306,9.644452
34.79421755,31.25845971,0.0,0.0,11-33-31,0.0048223734,0.0116689205,-0.061699867,191.0,-6.021338,8.237307,0.03353882,-0.018295288,-0.018356323,1.433193,1.0492306,9.644452
34.79421755,31.25845971,0.0,0.0,11-33-31,-0.10402608,-0.012176514,0.03841114,191.0,-5.7144074,8.124121,-0.06072998,0.012237549,-0.015563965,1.3833126,1.0372944,9.653023
34.79421755,31.25845971,0.0,0.0,11-33-31,-0.10402608,-0.012176514,0.03841114,190.0,-5.453205,8.048329,-0.06072998,0.012237549,-0.015563965,1.3833126,1.0372944,9.653023
34.79421755,31.25845971,0.0,0.0,11-33-31,-0.008358359,-0.037591636,-0.013699532,190.0,-5.514227,8.03117,-0.013809204,0.009918213,0.01499939,1.3652933,0.9620772,9.663372
34.79421755,31.25845971,0.0,0.0,11-33-31,-0.008358359,-0.037591636,-0.013699532,190.0,-5.746342,8.195798,-0.013809204,0.009918213,0.01499939,1.3652933,0.9620772,9.663372
34.79421755,31.25845971,0.0,0.0,11-33-31,0.015698314,-0.05270511,0.05059147,190.0,-5.551339,8.2975,0.02432251,-0.0206604,0.015914917,1.3811076,0.93617654,9.66367
34.79421755,31.25845971,0.0,0.0,11-33-31,0.015698314,-0.05270511,0.05059147,190.0,-5.14806,8.545872,0.02432251,-0.0206604,0.015914917,1.3811076,0.93617654,9.66367
34.79421755,31.25845971,0.0,0.0,11-33-31,0.022349358,-0.08764291,-0.08267689,191.0,-4.6037846,8.7412195,-0.070632935,-0.027801514,3.0517578E-5,1.4458181,0.8762039,9.659827
34.79421755,31.25845971,0.0,0.0,11-33-31,0.022349358,-0.08764291,-0.08267689,191.0,-4.5756865,8.696799,-0.070632935,-0.027801514,3.0517578E-5,1.4458181,0.8762039,9.659827
34.79421755,31.25845971,0.0,0.0,11-33-31,0.06934464,-0.10720599,-0.018148422,191.0,-4.5212955,8.8469095,0.013168335,0.0021820068,-0.025344849,1.5027924,0.7668211,9.660434
34.79421755,31.25845971,0.0,0.0,11-33-32,0.06934464,-0.10720599,-0.018148422,191.0,-3.6580613,9.180326,0.013168335,0.0021820068,-0.025344849,1.5027924,0.7668211,9.660434
34.79421755,31.25845971,0.0,0.0,11-33-32,0.041304708,0.02429241,0.03937912,191.0,-3.6532454,9.223722,-0.10040283,-0.03817749,-0.011489868,1.5468024,0.68308556,9.659772
34.79421755,31.25845971,0.0,0.0,11-33-32,0.041304708,0.02429241,0.03937912,191.0,-4.23264,9.242215,-0.10040283,-0.03817749,-0.011489868,1.5468024,0.68308556,9.659772
34.79421755,31.25845971,0.0,0.0,11-33-32,-0.043560147,0.1219933,0.020256996,190.0,-4.2880874,9.363038,0.044174194,-0.005065918,0.033599854,1.5680178,0.67837703,9.656682
34.79421755,31.25845971,0.0,0.0,11-33-32,-0.043560147,0.1219933,0.020256996,190.0,-4.0888987,9.460683,0.044174194,-0.005065918,0.033599854,1.5680178,0.67837703,9.656682
34.79421755,31.25845971,0.0,0.0,11-33-32,-0.008551478,0.07540816,-0.04832077,190.0,-3.7750502,9.531865,-0.05328369,-0.01423645,0.03465271,1.5938784,0.71532524,9.649779
34.79421755,31.25845971,0.0,0.0,11-33-32,-0.015093446,-0.029161751,-0.041116714,190.0,-4.153399,9.573603,-0.05328369,-0.01423645,0.03465271,1.6229436,0.6901753,9.646767
34.79421755,31.25845971,0.0,0.0,11-33-32,-0.015093446,-0.029161751,-0.041116714,190.0,-4.4658384,9.575588,0.08798218,-0.001449585,0.038024902,1.6229436,0.6901753,9.646767
34.79421755,31.25845971,0.0,0.0,11-33-32,-0.015093446,-0.029161751,-0.041116714,190.0,-3.9832337,9.688242,0.08798218,-0.001449585,0.038024902,1.6490303,0.62656206,9.646684
34.79421755,31.25845971,0.0,0.0,11-33-32,0.011960506,-0.16774571,0.074542046,190.0,-3.522414,9.860053,-0.0488739,-0.029586792,-0.002456665,1.6490303,0.62656206,9.646684
34.79421755,31.25845971,0.0,0.0,11-33-33,-0.004526019,-0.057762623,-0.032754898,191.0,-3.6753883,10.061534,-0.0488739,-0.029586792,-0.002456665,1.6860645,0.6060986,9.641588
34.79421755,31.25845971,0.0,0.0,11-33-33,-0.004526019,-0.057762623,-0.032754898,191.0,-3.337525,9.872046,-0.010070801,9.0026855E-4,-0.014984131,1.6860645,0.6060986,9.641588
34.79421755,31.25845971,0.0,0.0,11-33-33,-0.00476408,0.034409642,-0.07219505,191.0,-2.967322,9.86043,-0.010070801,9.0026855E-4,-0.014984131,1.6956004,0.55650425,9.642905
34.79421755,31.25845971,0.0,0.0,11-33-33,-0.00476408,0.034409642,-0.07219505,191.0,-2.9273758,9.619467,-0.04937744,0.01828003,-0.03126526,1.6956004,0.55650425,9.642905
34.79421755,31.25845971,0.0,0.0,11-33-33,0.030653238,-0.007964253,0.015488625,191.0,-3.2051628,9.609203,-0.04937744,0.01828003,-0.03126526,1.6600647,0.50833976,9.651744
34.79421755,31.25845971,0.0,0.0,11-33-33,0.030653238,-0.007964253,0.015488625,191.0,-3.2470367,9.363178,0.018951416,0.034317017,-0.027664185,1.6600647,0.50833976,9.651744
34.79421755,31.25845971,0.0,0.0,11-33-33,0.046144366,0.05386126,0.031923294,191.0,-2.9716754,9.260018,0.018951416,0.034317017,-0.027664185,1.6137433,0.52906895,9.6584835
34.79421755,31.25845971,0.0,0.0,11-33-33,0.046144366,0.05386126,0.031923294,191.0,-3.091312,9.225965,-0.032180786,0.019882202,-0.035690308,1.6137433,0.52906895,9.6584835
34.79421755,31.25845971,0.0,0.0,11-33-33,0.052503586,0.085184336,0.01210022,191.0,-3.4961169,9.193754,-0.032180786,0.019882202,-0.035690308,1.5825007,0.5598928,9.661915
34.79421755,31.25845971,0.0,0.0,11-33-33,0.052503586,0.085184336,0.01210022,191.0,-3.6550798,9.206718,0.030044556,0.0059814453,-0.018997192,1.5825007,0.5598928,9.661915
34.79421755,31.25845971,0.0,0.0,11-33-34,-0.0015981197,0.06177807,-0.03865719,191.0,-3.292139,9.091681,0.030044556,0.0059814453,-0.018997192,1.5600412,0.5870871,9.663953
34.79421755,31.25845971,0.0,0.0,11-33-34,-0.0015981197,0.06177807,-0.03865719,191.0,-3.6375747,9.106316,-0.03201294,0.018234253,-0.018829346,1.5600412,0.5870871,9.663953
