Longitude,Latitude,Speed,Distance,Time,Acc X,Acc Y,Acc Z,Heading,Pitch,Roll,gyro_x,gyro_y,gyro_z,gravity_x,gravity_y,gravity_z
34.80518976,31.26502081,0.0,0.806148,12-34-02,-0.032633066,0.06575173,-0.07117176,100.0,-3.8379703,-20.201666,-0.02355957,0.042785645,0.11294556,-3.4220212,0.6125114,9.169786
34.80518976,31.26502081,0.0,0.806148,12-34-02,-0.032633066,0.06575173,-0.07117176,100.0,-3.7982097,-20.191595,-0.02355957,0.042785645,0.11294556,-3.4220212,0.6125114,9.169786
34.80518976,31.26502081,0.0,0.806148,12-34-02,-0.032633066,0.06575173,-0.07117176,100.0,-3.7982097,-20.191595,-0.02355957,0.042785645,0.11294556,-3.4220212,0.6125114,9.169786
34.80518976,31.26502081,0.0,0.806148,12-34-02,-0.032633066,0.06575173,-0.07117176,100.0,-3.7982097,-20.191595,-0.02355957,0.042785645,0.11294556,-3.4220212,0.6125114,9.169786
34.80518976,31.26502081,0.0,0.806148,12-34-02,-0.032633066,0.06575173,-0.07117176,100.0,-3.7982097,-20.191595,-0.02355957,0.042785645,0.11294556,-3.4220212,0.6125114,9.169786
34.80518976,31.26502081,0.0,0.806148,12-34-02,-0.032633066,0.06575173,-0.07117176,100.0,-3.7982097,-20.191595,-0.02355957,0.042785645,0.11294556,-3.4220212,0.6125114,9.169786
34.80518976,31.26502081,0.0,0.806148,12-34-02,-0.032633066,0.06575173,-0.07117176,100.0,-3.7982097,-20.191595,-0.02355957,0.042785645,0.11294556,-3.4220212,0.6125114,9.169786
34.80518976,31.26502081,0.0,0.806148,12-34-02,-0.032633066,0.06575173,-0.07117176,100.0,-3.7982097,-20.191595,-0.02355957,0.042785645,0.11294556,-3.4220212,0.6125114,9.169786
34.80518976,31.26502081,0.0,0.806148,12-34-02,-0.032633066,0.06575173,-0.07117176,100.0,-3.7982097,-20.191595,-0.02355957,0.042785645,0.11294556,-3.4220212,0.6125114,9.169786
34.80518976,31.26502081,0.0,0.806148,12-34-02,-0.032633066,0.06575173,-0.07117176,100.0,-3.7982097,-20.191595,-0.02355957,0.042785645,0.11294556,-3.4220212,0.6125114,9.169786
34.80518976,31.26502081,0.0,0.806148,12-34-02,-0.032633066,0.06575173,-0.07117176,100.0,-4.01795,-19.636206,0.022781372,-0.08052063,-0.023468018,-3.4220212,0.6125114,9.169786
34.80518976,31.26502081,0.0,0.806148,12-34-02,-0.24312115,-0.17308038,0.37074852,100.0,-4.01795,-19.636206,0.022781372,-0.08052063,-0.023468018,-3.419835,0.5599125,9.173964
34.80518976,31.26502081,0.0,0.806148,12-34-02,-0.24312115,-0.17308038,0.37074852,101.0,-4.274424,-19.475492,0.022781372,-0.08052063,-0.023468018,-3.419835,0.5599125,9.173964
34.80518976,31.26502081,0.0,0.806148,12-34-02,-0.24312115,-0.17308038,0.37074852,100.0,-4.4476814,-19.396593,0.022781372,-0.08052063,-0.023468018,-3.419835,0.5599125,9.173964
34.80518976,31.26502081,0.0,0.806148,12-34-02,-0.24312115,-0.17308038,0.37074852,100.0,-4.4476814,-19.396593,0.022781372,-0.08052063,-0.023468018,-3.419835,0.5599125,9.173964
34.80518976,31.26502081,0.0,0.806148,12-34-02,-0.24312115,-0.17308038,0.37074852,100.0,-4.4476814,-19.396593,0.022781372,-0.08052063,-0.023468018,-3.419835,0.5599125,9.173964
34.80518976,31.26502081,0.0,0.806148,12-34-02,-0.24312115,-0.17308038,0.37074852,100.0,-4.4476814,-19.396593,0.022781372,-0.08052063,-0.023468018,-3.419835,0.5599125,9.173964
34.80518976,31.26502081,0.0,0.806148,12-34-02,-0.24312115,-0.17308038,0.37074852,100.0,-4.4476814,-19.396593,0.022781372,-0.08052063,-0.023468018,-3.419835,0.5599125,9.173964
34.80518976,31.26502081,0.0,0.806148,12-34-02,-0.24312115,-0.17308038,0.37074852,100.0,-4.6251116,-19.319109,0.022781372,-0.08052063,-0.023468018,-3.419835,0.5599125,9.173964
34.80518976,31.26502081,0.0,0.806148,12-34-02,-0.24312115,-0.17308038,0.37074852,100.0,-4.6251116,-19.319109,0.022781372,-0.08052063,-0.023468018,-3.419835,0.5599125,9.173964
34.80518976,31.26502081,0.0,0.806148,12-34-02,-0.24312115,-0.17308038,0.37074852,100.0,-4.6251116,-19.319109,0.022781372,-0.08052063,-0.023468018,-3.419835,0.5599125,9.173964
34.80518962,31.2650209,0.0,0.016653987,12-34-02,-0.24312115,-0.17308038,0.37074852,99.0,-4.786119,-19.21159,0.022781372,-0.08052063,-0.023468018,-3.419835,0.5599125,9.173964
34.80518962,31.2650209,0.0,0.016653987,12-34-02,-0.24312115,-0.17308038,0.37074852,99.0,-4.786119,-19.21159,0.022781372,-0.08052063,-0.023468018,-3.419835,0.5599125,9.173964
34.80518962,31.2650209,0.0,0.016653987,12-34-02,-0.24312115,-0.17308038,0.37074852,99.0,-5.0433583,-18.883808,0.022781372,-0.08052063,-0.023468018,-3.419835,0.5599125,9.173964
34.80518962,31.2650209,0.0,0.016653987,12-34-02,-0.24312115,-0.17308038,0.37074852,98.0,-5.154248,-18.5596,0.022781372,-0.08052063,-0.023468018,-3.419835,0.5599125,9.173964
34.80518962,31.2650209,0.0,0.016653987,12-34-02,-0.24312115,-0.17308038,0.37074852,98.0,-5.154248,-18.5596,0.022781372,-0.08052063,-0.023468018,-3.419835,0.5599125,9.173964
34.80518962,31.2650209,0.0,0.016653987,12-34-02,-0.24312115,-0.17308038,0.37074852,98.0,-5.154248,-18.5596,0.022781372,-0.08052063,-0.023468018,-3.419835,0.5599125,9.173964
34.80518962,31.2650209,0.0,0.016653987,12-34-02,-0.24312115,-0.17308038,0.37074852,98.0,-5.154248,-18.5596,0.022781372,-0.08052063,-0.023468018,-3.419835,0.5599125,9.173964
34.80518962,31.2650209,0.0,0.016653987,12-34-02,-0.24312115,-0.17308038,0.37074852,98.0,-5.154248,-18.5596,0.022781372,-0.08052063,-0.023468018,-3.419835,0.5599125,9.173964
34.80518962,31.2650209,0.0,0.016653987,12-34-02,-0.24312115,-0.17308038,0.37074852,98.0,-5.154248,-18.5596,0.022781372,-0.08052063,-0.023468018,-3.419835,0.5599125,9.173964
34.80518962,31.2650209,0.0,0.016653987,12-34-02,-0.24312115,-0.17308038,0.37074852,98.0,-5.206662,-18.24298,0.022781372,-0.08052063,-0.023468018,-3.419835,0.5599125,9.173964
34.80518962,31.2650209,0.0,0.016653987,12-34-02,-0.24312115,-0.17308038,0.37074852,98.0,-5.206662,-18.24298,0.022781372,-0.08052063,-0.023468018,-3.419835,0.5599125,9.173964
34.80518962,31.2650209,0.0,0.016653987,12-34-02,-0.24312115,-0.17308038,0.37074852,98.0,-5.1709805,-17.89181,0.018676758,-0.16133118,0.23469543,-3.419835,0.5599125,9.173964
34.80518962,31.2650209,0.0,0.016653987,12-34-02,-1.2711968,0.41481793,1.4942961,98.0,-5.0702763,-17.522478,0.018676758,-0.16133118,0.23469543,-3.1899521,0.6799425,9.248365
34.80518962,31.2650209,0.0,0.016653987,12-34-02,-1.2711968,0.41481793,1.4942961,98.0,-4.9511375,-17.226599,0.018676758,-0.16133118,0.23469543,-3.1899521,0.6799425,9.248365
34.80518962,31.2650209,0.0,0.016653987,12-34-02,-1.2711968,0.41481793,1.4942961,99.0,-4.8836675,-16.794836,0.018676758,-0.16133118,0.23469543,-3.1899521,0.6799425,9.248365
34.80518962,31.2650209,0.0,0.016653987,12-34-02,-1.2711968,0.41481793,1.4942961,99.0,-4.8836675,-16.794836,0.018676758,-0.16133118,0.23469543,-3.1899521,0.6799425,9.248365
34.80518962,31.2650209,0.0,0.016653987,12-34-02,-1.2711968,0.41481793,1.4942961,99.0,-4.8836675,-16.794836,0.018676758,-0.16133118,0.23469543,-3.1899521,0.6799425,9.248365
34.80518962,31.2650209,0.0,0.016653987,12-34-02,-1.2711968,0.41481793,1.4942961,99.0,-4.8836675,-16.794836,0.018676758,-0.16133118,0.23469543,-3.1899521,0.6799425,9.248365
34.80518962,31.2650209,0.0,0.016653987,12-34-02,-1.2711968,0.41481793,1.4942961,99.0,-4.8836675,-16.794836,0.018676758,-0.16133118,0.23469543,-3.1899521,0.6799425,9.248365
34.80518962,31.2650209,0.0,0.016653987,12-34-02,-1.2711968,0.41481793,1.4942961,99.0,-4.7801366,-16.155506,0.018676758,-0.16133118,0.23469543,-3.1899521,0.6799425,9.248365
34.80518962,31.2650209,0.0,0.016653987,12-34-02,-1.2711968,0.41481793,1.4942961,99.0,-4.7801366,-16.155506,0.018676758,-0.16133118,0.23469543,-3.1899521,0.6799425,9.248365
34.80518962,31.2650209,0.0,0.016653987,12-34-02,-1.2711968,0.41481793,1.4942961,99.0,-4.7801366,-16.155506,0.018676758,-0.16133118,0.23469543,-3.1899521,0.6799425,9.248365
34.80518962,31.2650209,0.0,0.016653987,12-34-02,-1.2711968,0.41481793,1.4942961,99.0,-4.5779657,-15.596834,0.018676758,-0.16133118,0.23469543,-3.1899521,0.6799425,9.248365
34.80518962,31.2650209,0.0,0.016653987,12-34-02,-1.2711968,0.41481793,1.4942961,98.0,-4.2821054,-14.966277,0.018676758,-0.16133118,0.23469543,-3.1899521,0.6799425,9.248365
34.80518962,31.2650209,0.0,0.016653987,12-34-02,-1.2711968,0.41481793,1.4942961,98.0,-4.0111227,-14.153928,0.018676758,-0.16133118,0.23469543,-3.1899521,0.6799425,9.248365
34.80518962,31.2650209,0.0,0.016653987,12-34-02,-1.2711968,0.41481793,1.4942961,98.0,-3.697261,-13.275783,0.018676758,-0.16133118,0.23469543,-3.1899521,0.6799425,9.248365
34.80518962,31.2650209,0.0,0.016653987,12-34-02,-1.2711968,0.41481793,1.4942961,98.0,-3.697261,-13.275783,0.018676758,-0.16133118,0.23469543,-3.1899521,0.6799425,9.248365
34.80518962,31.2650209,0.0,0.016653987,12-34-02,-1.2711968,0.41481793,1.4942961,98.0,-3.697261,-13.275783,0.018676758,-0.16133118,0.23469543,-3.1899521,0.6799425,9.248365
34.80518962,31.2650209,0.0,0.016653987,12-34-02,-1.2711968,0.41481793,1.4942961,98.0,-3.697261,-13.275783,0.018676758,-0.16133118,0.23469543,-3.1899521,0.6799425,9.248365
34.80518962,31.2650209,0.0,0.016653987,12-34-02,-1.2711968,0.41481793,1.4942961,98.0,-3.697261,-13.275783,0.018676758,-0.16133118,0.23469543,-3.1899521,0.6799425,9.248365
34.80518962,31.2650209,0.0,0.016653987,12-34-02,-1.2711968,0.41481793,1.4942961,97.0,-3.2586253,-12.550576,0.018676758,-0.16133118,0.23469543,-3.1899521,0.6799425,9.248365
34.80518962,31.2650209,0.0,0.016653987,12-34-02,-1.2711968,0.41481793,1.4942961,97.0,-3.2586253,-12.550576,0.018676758,-0.16133118,0.23469543,-3.1899521,0.6799425,9.248365
34.80518962,31.2650209,0.0,0.016653987,12-34-02,-1.2711968,0.41481793,1.4942961,97.0,-3.2586253,-12.550576,0.018676758,-0.16133118,0.23469543,-3.1899521,0.6799425,9.248365
34.80518962,31.2650209,0.0,0.016653987,12-34-02,-1.2711968,0.41481793,1.4942961,95.0,-2.6939976,-11.930249,-0.3030548,-0.5326538,0.31774902,-3.1899521,0.6799425,9.248365
34.80518962,31.2650209,0.0,0.016653987,12-34-02,-0.51274705,0.13245511,-0.17863464,95.0,-2.6939976,-11.930249,-0.3030548,-0.5326538,0.31774902,-2.4936094,0.5513357,9.46828
34.80518962,31.2650209,0.0,0.016653987,12-34-03,-0.51274705,0.13245511,-0.17863464,94.0,-1.6071959,-10.861701,-0.3030548,-0.5326538,0.31774902,-2.4936094,0.5513357,9.46828
34.80518962,31.2650209,0.0,0.016653987,12-34-03,-0.51274705,0.13245511,-0.17863464,95.0,-1.6450824,-10.549377,-0.3030548,-0.5326538,0.31774902,-2.4936094,0.5513357,9.46828
34.80518962,31.2650209,0.0,0.016653987,12-34-03,-0.51274705,0.13245511,-0.17863464,95.0,-1.6450824,-10.549377,-0.3030548,-0.5326538,0.31774902,-2.4936094,0.5513357,9.46828
34.80518962,31.2650209,0.0,0.016653987,12-34-03,-0.51274705,0.13245511,-0.17863464,95.0,-1.6450824,-10.549377,-0.3030548,-0.5326538,0.31774902,-2.4936094,0.5513357,9.46828
34.80518962,31.2650209,0.0,0.016653987,12-34-03,-0.51274705,0.13245511,-0.17863464,95.0,-1.6450824,-10.549377,-0.3030548,-0.5326538,0.31774902,-2.4936094,0.5513357,9.46828
34.80518962,31.2650209,0.0,0.016653987,12-34-03,-0.51274705,0.13245511,-0.17863464,95.0,-1.6450824,-10.549377,-0.3030548,-0.5326538,0.31774902,-2.4936094,0.5513357,9.46828
34.80518962,31.2650209,0.0,0.016653987,12-34-03,-0.51274705,0.13245511,-0.17863464,95.0,-1.6450824,-10.549377,-0.3030548,-0.5326538,0.31774902,-2.4936094,0.5513357,9.46828
34.80518962,31.2650209,0.0,0.016653987,12-34-03,-0.51274705,0.13245511,-0.17863464,95.0,-1.6450824,-10.549377,-0.3030548,-0.5326538,0.31774902,-2.4936094,0.5513357,9.46828
34.80518962,31.2650209,0.0,0.016653987,12-34-03,-0.51274705,0.13245511,-0.17863464,97.0,-2.139282,-10.460914,-0.3030548,-0.5326538,0.31774902,-2.4936094,0.5513357,9.46828
34.80518962,31.2650209,0.0,0.016653987,12-34-03,-0.51274705,0.13245511,-0.17863464,98.0,-2.6573818,-10.636595,-0.3030548,-0.5326538,0.31774902,-2.4936094,0.5513357,9.46828
34.80518962,31.2650209,0.0,0.016653987,12-34-03,-0.51274705,0.13245511,-0.17863464,99.0,-3.0836782,-10.962347,-0.3030548,-0.5326538,0.31774902,-2.4936094,0.5513357,9.46828
34.80518962,31.2650209,0.0,0.016653987,12-34-03,-0.51274705,0.13245511,-0.17863464,100.0,-3.423494,-11.228799,-0.3030548,-0.5326538,0.31774902,-2.4936094,0.5513357,9.46828
34.80518962,31.2650209,0.0,0.016653987,12-34-03,-0.51274705,0.13245511,-0.17863464,101.0,-3.626298,-11.505745,-0.3030548,-0.5326538,0.31774902,-2.4936094,0.5513357,9.46828
34.80518962,31.2650209,0.0,0.016653987,12-34-03,-0.51274705,0.13245511,-0.17863464,101.0,-3.626298,-11.505745,-0.3030548,-0.5326538,0.31774902,-2.4936094,0.5513357,9.46828
34.80518962,31.2650209,0.0,0.016653987,12-34-03,-0.51274705,0.13245511,-0.17863464,101.0,-3.626298,-11.505745,-0.3030548,-0.5326538,0.31774902,-2.4936094,0.5513357,9.46828
34.80518962,31.2650209,0.0,0.016653987,12-34-03,-0.51274705,0.13245511,-0.17863464,101.0,-3.626298,-11.505745,-0.3030548,-0.5326538,0.31774902,-2.4936094,0.5513357,9.46828
34.80518962,31.2650209,0.0,0.016653987,12-34-03,-0.51274705,0.13245511,-0.17863464,101.0,-3.626298,-11.505745,-0.3030548,-0.5326538,0.31774902,-2.4936094,0.5513357,9.46828
34.80518962,31.2650209,0.0,0.016653987,12-34-03,-0.51274705,0.13245511,-0.17863464,101.0,-3.626298,-11.505745,-0.3030548,-0.5326538,0.31774902,-2.4936094,0.5513357,9.46828
34.80518962,31.2650209,0.0,0.016653987,12-34-03,-0.51274705,0.13245511,-0.17863464,101.0,-3.7048233,-11.7631445,-0.3030548,-0.5326538,0.31774902,-2.4936094,0.5513357,9.46828
34.80518962,31.2650209,0.0,0.016653987,12-34-03,-0.51274705,0.13245511,-0.17863464,101.0,-3.7048233,-11.7631445,-0.3030548,-0.5326538,0.31774902,-2.4936094,0.5513357,9.46828
34.80518962,31.2650209,0.0,0.016653987,12-34-03,-0.51274705,0.13245511,-0.17863464,100.0,-3.655215,-11.904239,0.18263245,0.048568726,-0.3703766,-2.011444,0.38575947,9.590395
34.80518962,31.2650209,0.0,0.016653987,12-34-03,1.3981225,-0.7222621,-0.5424261,99.0,-3.4295084,-12.010179,0.18263245,0.048568726,-0.3703766,-2.011444,0.38575947,9.590395
34.80518962,31.2650209,0.0,0.016653987,12-34-03,1.3981225,-0.7222621,-0.5424261,97.0,-3.1627655,-12.255668,0.18263245,0.048568726,-0.3703766,-2.011444,0.38575947,9.590395
34.80518962,31.2650209,0.0,0.016653987,12-34-03,1.3981225,-0.7222621,-0.5424261,97.0,-3.0970323,-12.497603,0.18263245,0.048568726,-0.3703766,-2.011444,0.38575947,9.590395
34.80518962,31.2650209,0.0,0.016653987,12-34-03,1.3981225,-0.7222621,-0.5424261,97.0,-3.0970323,-12.497603,0.18263245,0.048568726,-0.3703766,-2.011444,0.38575947,9.590395
34.80518962,31.2650209,0.0,0.016653987,12-34-03,1.3981225,-0.7222621,-0.5424261,97.0,-3.0970323,-12.497603,0.18263245,0.048568726,-0.3703766,-2.011444,0.38575947,9.590395
34.80518962,31.2650209,0.0,0.016653987,12-34-03,1.3981225,-0.7222621,-0.5424261,97.0,-3.0970323,-12.497603,0.18263245,0.048568726,-0.3703766,-2.011444,0.38575947,9.590395
34.80518962,31.2650209,0.0,0.016653987,12-34-03,1.3981225,-0.7222621,-0.5424261,97.0,-3.0970323,-12.497603,0.18263245,0.048568726,-0.3703766,-2.011444,0.38575947,9.590395
34.80518962,31.2650209,0.0,0.016653987,12-34-03,1.3981225,-0.7222621,-0.5424261,97.0,-3.0970323,-12.497603,0.18263245,0.048568726,-0.3703766,-2.011444,0.38575947,9.590395
34.80518962,31.2650209,0.0,0.016653987,12-34-03,1.3981225,-0.7222621,-0.5424261,96.0,-3.1929483,-12.633828,0.18263245,0.048568726,-0.3703766,-2.011444,0.38575947,9.590395
34.80518962,31.2650209,0.0,0.016653987,12-34-03,1.3981225,-0.7222621,-0.5424261,96.0,-3.1929483,-12.633828,0.18263245,0.048568726,-0.3703766,-2.011444,0.38575947,9.590395
34.80518962,31.2650209,0.0,0.016653987,12-34-03,1.3981225,-0.7222621,-0.5424261,96.0,-3.6647058,-13.104497,0.18263245,0.048568726,-0.3703766,-2.011444,0.38575947,9.590395
34.80518962,31.2650209,0.0,0.016653987,12-34-03,1.3981225,-0.7222621,-0.5424261,96.0,-3.6647058,-13.104497,0.18263245,0.048568726,-0.3703766,-2.011444,0.38575947,9.590395
34.80518962,31.2650209,0.0,0.016653987,12-34-03,1.3981225,-0.7222621,-0.5424261,96.0,-3.8670218,-13.145732,0.18263245,0.048568726,-0.3703766,-2.011444,0.38575947,9.590395
34.80518962,31.2650209,0.0,0.016653987,12-34-03,1.3981225,-0.7222621,-0.5424261,95.0,-3.9038124,-13.019658,0.18263245,0.048568726,-0.3703766,-2.011444,0.38575947,9.590395
34.80518962,31.2650209,0.0,0.016653987,12-34-03,1.3981225,-0.7222621,-0.5424261,95.0,-3.9038124,-13.019658,0.18263245,0.048568726,-0.3703766,-2.011444,0.38575947,9.590395
34.80518962,31.2650209,0.0,0.016653987,12-34-03,1.3981225,-0.7222621,-0.5424261,95.0,-3.9038124,-13.019658,0.18263245,0.048568726,-0.3703766,-2.011444,0.38575947,9.590395
34.80518962,31.2650209,0.0,0.016653987,12-34-03,1.3981225,-0.7222621,-0.5424261,95.0,-3.8443596,-12.954613,0.18263245,0.048568726,-0.3703766,-2.011444,0.38575947,9.590395
34.80518962,31.2650209,0.0,0.016653987,12-34-03,1.3981225,-0.7222621,-0.5424261,95.0,-3.8443596,-12.954613,0.18263245,0.048568726,-0.3703766,-2.011444,0.38575947,9.590395
34.80518962,31.2650209,0.0,0.016653987,12-34-03,1.3981225,-0.7222621,-0.5424261,95.0,-3.8443596,-12.954613,0.18263245,0.048568726,-0.3703766,-2.011444,0.38575947,9.590395
34.80518962,31.2650209,0.0,0.016653987,12-34-03,1.3981225,-0.7222621,-0.5424261,95.0,-3.8443596,-12.954613,0.18263245,0.048568726,-0.3703766,-2.011444,0.38575947,9.590395
34.80518962,31.2650209,0.0,0.016653987,12-34-03,1.3981225,-0.7222621,-0.5424261,95.0,-3.705783,-13.009685,0.18263245,0.048568726,-0.3703766,-2.011444,0.38575947,9.590395
34.80518962,31.2650209,0.0,0.016653987,12-34-03,0.74084353,0.103645325,-0.9356947,94.0,-3.5332665,-13.079568,-0.0819397,0.13423157,0.36592102,-2.1971762,0.5254461,9.542888
34.80518962,31.2650209,0.0,0.016653987,12-34-03,0.74084353,0.103645325,-0.9356947,94.0,-3.5332665,-13.079568,-0.0819397,0.13423157,0.36592102,-2.1971762,0.5254461,9.542888
34.80518962,31.2650209,0.0,0.016653987,12-34-03,0.74084353,0.103645325,-0.9356947,94.0,-3.3385105,-13.432943,-0.0819397,0.13423157,0.36592102,-2.1971762,0.5254461,9.542888
34.80518962,31.2650209,0.0,0.016653987,12-34-03,0.74084353,0.103645325,-0.9356947,94.0,-3.3385105,-13.432943,-0.0819397,0.13423157,0.36592102,-2.1971762,0.5254461,9.542888
34.80518962,31.2650209,0.0,0.016653987,12-34-03,0.74084353,0.103645325,-0.9356947,94.0,-3.3385105,-13.432943,-0.0819397,0.13423157,0.36592102,-2.1971762,0.5254461,9.542888
34.80518962,31.2650209,0.0,0.016653987,12-34-03,0.74084353,0.103645325,-0.9356947,94.0,-3.3385105,-13.432943,-0.0819397,0.13423157,0.36592102,-2.1971762,0.5254461,9.542888
34.80518962,31.2650209,0.0,0.016653987,12-34-03,0.74084353,0.103645325,-0.9356947,94.0,-3.655253,-13.706918,-0.0819397,0.13423157,0.36592102,-2.1971762,0.5254461,9.542888
34.80518962,31.2650209,0.0,0.016653987,12-34-03,0.74084353,0.103645325,-0.9356947,94.0,-3.655253,-13.706918,-0.0819397,0.13423157,0.36592102,-2.1971762,0.5254461,9.542888
34.80518962,31.2650209,0.0,0.016653987,12-34-03,0.74084353,0.103645325,-0.9356947,94.0,-3.655253,-13.706918,-0.0819397,0.13423157,0.36592102,-2.1971762,0.5254461,9.542888
34.80518962,31.2650209,0.0,0.016653987,12-34-03,0.74084353,0.103645325,-0.9356947,95.0,-3.983888,-13.796255,-0.0819397,0.13423157,0.36592102,-2.1971762,0.5254461,9.542888
34.80518962,31.2650209,0.0,0.016653987,12-34-03,0.74084353,0.103645325,-0.9356947,95.0,-3.983888,-13.796255,-0.0819397,0.13423157,0.36592102,-2.1971762,0.5254461,9.542888
34.80518962,31.2650209,0.0,0.016653987,12-34-03,0.74084353,0.103645325,-0.9356947,95.0,-4.187085,-13.914013,-0.0819397,0.13423157,0.36592102,-2.1971762,0.5254461,9.542888
34.80518962,31.2650209,0.0,0.016653987,12-34-03,0.74084353,0.103645325,-0.9356947,95.0,-4.187085,-13.914013,-0.0819397,0.13423157,0.36592102,-2.1971762,0.5254461,9.542888
34.80518962,31.2650209,0.0,0.016653987,12-34-03,0.74084353,0.103645325,-0.9356947,96.0,-4.2380824,-14.344814,-0.0819397,0.13423157,0.36592102,-2.1971762,0.5254461,9.542888
34.80518962,31.2650209,0.0,0.016653987,12-34-03,0.74084353,0.103645325,-0.9356947,96.0,-4.2380824,-14.344814,-0.0819397,0.13423157,0.36592102,-2.1971762,0.5254461,9.542888
34.80518962,31.2650209,0.0,0.016653987,12-34-03,0.74084353,0.103645325,-0.9356947,96.0,-4.2380824,-14.344814,-0.0819397,0.13423157,0.36592102,-2.1971762,0.5254461,9.542888
34.80518962,31.2650209,0.0,0.016653987,12-34-03,0.74084353,0.103645325,-0.9356947,97.0,-4.480929,-14.6933775,-0.0819397,0.13423157,0.36592102,-2.1971762,0.5254461,9.542888
34.80518962,31.2650209,0.0,0.016653987,12-34-03,0.74084353,0.103645325,-0.9356947,97.0,-4.480929,-14.6933775,-0.0819397,0.13423157,0.36592102,-2.1971762,0.5254461,9.542888
34.80518962,31.2650209,0.0,0.016653987,12-34-03,0.74084353,0.103645325,-0.9356947,97.0,-4.480929,-14.6933775,-0.0819397,0.13423157,0.36592102,-2.1971762,0.5254461,9.542888
34.80518962,31.2650209,0.0,0.016653987,12-34-03,0.74084353,0.103645325,-0.9356947,97.0,-4.480929,-14.6933775,-0.0819397,0.13423157,0.36592102,-2.1971762,0.5254461,9.542888
34.80518962,31.2650209,0.0,0.016653987,12-34-03,0.74084353,0.103645325,-0.9356947,100.0,-4.8584394,-15.264537,-0.0819397,0.13423157,0.36592102,-2.1971762,0.5254461,9.542888
34.80518962,31.2650209,0.0,0.016653987,12-34-03,0.74084353,0.103645325,-0.9356947,100.0,-4.8584394,-15.264537,-0.0819397,0.13423157,0.36592102,-2.1971762,0.5254461,9.542888
34.80518962,31.2650209,0.0,0.016653987,12-34-03,-0.045523643,0.16504729,0.11241436,101.0,-5.183816,-15.75676,0.29449463,0.1927185,-0.59317017,-2.5096483,0.70125085,9.454116
34.80518962,31.2650209,0.0,0.016653987,12-34-03,-0.045523643,0.16504729,0.11241436,101.0,-5.183816,-15.75676,0.29449463,0.1927185,-0.59317017,-2.5096483,0.70125085,9.454116
34.80518962,31.2650209,0.0,0.016653987,12-34-03,-0.045523643,0.16504729,0.11241436,101.0,-5.099469,-15.464611,0.29449463,0.1927185,-0.59317017,-2.5096483,0.70125085,9.454116
34.80518962,31.2650209,0.0,0.016653987,12-34-03,-0.045523643,0.16504729,0.11241436,101.0,-5.099469,-15.464611,0.29449463,0.1927185,-0.59317017,-2.5096483,0.70125085,9.454116
34.80518962,31.2650209,0.0,0.016653987,12-34-03,-0.045523643,0.16504729,0.11241436,100.0,-4.9004607,-15.097695,0.29449463,0.1927185,-0.59317017,-2.5096483,0.70125085,9.454116
34.80518962,31.2650209,0.0,0.016653987,12-34-03,-0.045523643,0.16504729,0.11241436,100.0,-4.9004607,-15.097695,0.29449463,0.1927185,-0.59317017,-2.5096483,0.70125085,9.454116
34.80518962,31.2650209,0.0,0.016653987,12-34-03,-0.045523643,0.16504729,0.11241436,100.0,-4.9004607,-15.097695,0.29449463,0.1927185,-0.59317017,-2.5096483,0.70125085,9.454116
34.80518962,31.2650209,0.0,0.016653987,12-34-03,-0.045523643,0.16504729,0.11241436,100.0,-4.9004607,-15.097695,0.29449463,0.1927185,-0.59317017,-2.5096483,0.70125085,9.454116
34.80518962,31.2650209,0.0,0.016653987,12-34-03,-0.045523643,0.16504729,0.11241436,100.0,-4.9004607,-15.097695,0.29449463,0.1927185,-0.59317017,-2.5096483,0.70125085,9.454116
34.80518962,31.2650209,0.0,0.016653987,12-34-03,-0.045523643,0.16504729,0.11241436,99.0,-4.7734036,-14.842026,0.29449463,0.1927185,-0.59317017,-2.5096483,0.70125085,9.454116
34.80518962,31.2650209,0.0,0.016653987,12-34-03,-0.045523643,0.16504729,0.11241436,99.0,-4.7734036,-14.842026,0.29449463,0.1927185,-0.59317017,-2.5096483,0.70125085,9.454116
34.80518956,31.26502091,0.0,0.022039738,12-34-03,-0.045523643,0.16504729,0.11241436,99.0,-4.5971856,-14.474353,0.29449463,0.1927185,-0.59317017,-2.5096483,0.70125085,9.454116
34.80518956,31.26502091,0.0,0.022039738,12-34-03,-0.045523643,0.16504729,0.11241436,99.0,-4.5971856,-14.474353,0.29449463,0.1927185,-0.59317017,-2.5096483,0.70125085,9.454116
34.80518956,31.26502091,0.0,0.022039738,12-34-03,-0.045523643,0.16504729,0.11241436,99.0,-4.092144,-13.794848,0.29449463,0.1927185,-0.59317017,-2.5096483,0.70125085,9.454116
34.80518956,31.26502091,0.0,0.022039738,12-34-03,-0.045523643,0.16504729,0.11241436,99.0,-3.8994,-13.450135,0.29449463,0.1927185,-0.59317017,-2.5096483,0.70125085,9.454116
34.80518956,31.26502091,0.0,0.022039738,12-34-03,-0.045523643,0.16504729,0.11241436,99.0,-3.8994,-13.450135,0.29449463,0.1927185,-0.59317017,-2.5096483,0.70125085,9.454116
34.80518956,31.26502091,0.0,0.022039738,12-34-03,-0.045523643,0.16504729,0.11241436,99.0,-3.8994,-13.450135,0.29449463,0.1927185,-0.59317017,-2.5096483,0.70125085,9.454116
34.80518956,31.26502091,0.0,0.022039738,12-34-03,-0.045523643,0.16504729,0.11241436,99.0,-3.8994,-13.450135,0.29449463,0.1927185,-0.59317017,-2.5096483,0.70125085,9.454116
34.80518956,31.26502091,0.0,0.022039738,12-34-03,-0.045523643,0.16504729,0.11241436,99.0,-3.8994,-13.450135,0.29449463,0.1927185,-0.59317017,-2.5096483,0.70125085,9.454116
34.80518956,31.26502091,0.0,0.022039738,12-34-03,-0.045523643,0.16504729,0.11241436,99.0,-3.8994,-13.450135,0.29449463,0.1927185,-0.59317017,-2.5096483,0.70125085,9.454116
34.80518956,31.26502091,0.0,0.022039738,12-34-03,-0.045523643,0.16504729,0.11241436,99.0,-3.7091842,-13.130132,0.29449463,0.1927185,-0.59317017,-2.5096483,0.70125085,9.454116
34.80518956,31.26502091,0.0,0.022039738,12-34-03,-0.045523643,0.16504729,0.11241436,99.0,-3.7091842,-13.130132,0.29449463,0.1927185,-0.59317017,-2.5096483,0.70125085,9.454116
34.80518956,31.26502091,0.0,0.022039738,12-34-03,-0.44483328,0.4925772,0.21936321,99.0,-3.4479146,-12.869583,-0.22782898,-0.25708008,0.20054626,-2.4919543,0.69673836,9.459128
34.80518956,31.26502091,0.0,0.022039738,12-34-03,-0.44483328,0.4925772,0.21936321,99.0,-3.4479146,-12.869583,-0.22782898,-0.25708008,0.20054626,-2.4919543,0.69673836,9.459128
34.80518956,31.26502091,0.0,0.022039738,12-34-03,-0.44483328,0.4925772,0.21936321,99.0,-3.0597093,-12.403818,-0.22782898,-0.25708008,0.20054626,-2.4919543,0.69673836,9.459128
34.80518956,31.26502091,0.0,0.022039738,12-34-03,-0.44483328,0.4925772,0.21936321,99.0,-3.055056,-12.15585,-0.22782898,-0.25708008,0.20054626,-2.4919543,0.69673836,9.459128
34.80518956,31.26502091,0.0,0.022039738,12-34-03,-0.44483328,0.4925772,0.21936321,99.0,-3.055056,-12.15585,-0.22782898,-0.25708008,0.20054626,-2.4919543,0.69673836,9.459128
34.80518956,31.26502091,0.0,0.022039738,12-34-03,-0.44483328,0.4925772,0.21936321,99.0,-3.055056,-12.15585,-0.22782898,-0.25708008,0.20054626,-2.4919543,0.69673836,9.459128
34.80518956,31.26502091,0.0,0.022039738,12-34-03,-0.44483328,0.4925772,0.21936321,99.0,-3.055056,-12.15585,-0.22782898,-0.25708008,0.20054626,-2.4919543,0.69673836,9.459128
34.80518956,31.26502091,0.0,0.022039738,12-34-03,-0.44483328,0.4925772,0.21936321,99.0,-3.055056,-12.15585,-0.22782898,-0.25708008,0.20054626,-2.4919543,0.69673836,9.459128
34.80518956,31.26502091,0.0,0.022039738,12-34-03,-0.44483328,0.4925772,0.21936321,99.0,-3.055056,-12.15585,-0.22782898,-0.25708008,0.20054626,-2.4919543,0.69673836,9.459128
34.80518956,31.26502091,0.0,0.022039738,12-34-03,-0.44483328,0.4925772,0.21936321,100.0,-2.9863343,-12.018753,-0.22782898,-0.25708008,0.20054626,-2.4919543,0.69673836,9.459128
34.80518956,31.26502091,0.0,0.022039738,12-34-03,-0.44483328,0.4925772,0.21936321,100.0,-2.9863343,-12.018753,-0.22782898,-0.25708008,0.20054626,-2.4919543,0.69673836,9.459128
34.80518956,31.26502091,0.0,0.022039738,12-34-03,-0.44483328,0.4925772,0.21936321,100.0,-2.8198342,-11.90725,-0.22782898,-0.25708008,0.20054626,-2.4919543,0.69673836,9.459128
34.80518956,31.26502091,0.0,0.022039738,12-34-03,-0.44483328,0.4925772,0.21936321,100.0,-2.8198342,-11.90725,-0.22782898,-0.25708008,0.20054626,-2.4919543,0.69673836,9.459128
34.80518956,31.26502091,0.0,0.022039738,12-34-03,-0.44483328,0.4925772,0.21936321,99.0,-2.7400835,-11.52112,-0.22782898,-0.25708008,0.20054626,-2.4919543,0.69673836,9.459128
34.80518956,31.26502091,0.0,0.022039738,12-34-03,-0.44483328,0.4925772,0.21936321,100.0,-2.8264847,-11.396445,-0.22782898,-0.25708008,0.20054626,-2.4919543,0.69673836,9.459128
34.80518956,31.26502091,0.0,0.022039738,12-34-03,-0.44483328,0.4925772,0.21936321,100.0,-2.8264847,-11.396445,-0.22782898,-0.25708008,0.20054626,-2.4919543,0.69673836,9.459128
34.80518956,31.26502091,0.0,0.022039738,12-34-03,-0.44483328,0.4925772,0.21936321,100.0,-2.8264847,-11.396445,-0.22782898,-0.25708008,0.20054626,-2.4919543,0.69673836,9.459128
34.80518956,31.26502091,0.0,0.022039738,12-34-03,-0.44483328,0.4925772,0.21936321,100.0,-2.8264847,-11.396445,-0.22782898,-0.25708008,0.20054626,-2.4919543,0.69673836,9.459128
34.80518956,31.26502091,0.0,0.022039738,12-34-03,-0.44483328,0.4925772,0.21936321,100.0,-2.8264847,-11.396445,-0.22782898,-0.25708008,0.20054626,-2.4919543,0.69673836,9.459128
34.80518956,31.26502091,0.0,0.022039738,12-34-03,-0.44483328,0.4925772,0.21936321,100.0,-2.9092155,-11.277901,-0.22782898,-0.25708008,0.20054626,-2.4919543,0.69673836,9.459128
34.80518956,31.26502091,0.0,0.022039738,12-34-03,-0.44483328,0.4925772,0.21936321,100.0,-2.9092155,-11.277901,-0.22782898,-0.25708008,0.20054626,-2.4919543,0.69673836,9.459128
34.80518956,31.26502091,0.0,0.022039738,12-34-03,-0.44483328,0.4925772,0.21936321,100.0,-2.9092155,-11.277901,-0.22782898,-0.25708008,0.20054626,-2.4919543,0.69673836,9.459128
34.80518956,31.26502091,0.0,0.022039738,12-34-03,1.7844946,-0.70826846,-0.8166733,100.0,-2.8771524,-11.145199,-0.0090789795,-0.10505676,-0.08166504,-2.0584264,0.47465226,9.576427
34.80518956,31.26502091,0.0,0.022039738,12-34-03,1.7844946,-0.70826846,-0.8166733,100.0,-2.975728,-11.175379,-0.0090789795,-0.10505676,-0.08166504,-2.0584264,0.47465226,9.576427
34.80518956,31.26502091,0.0,0.022039738,12-34-04,1.7844946,-0.70826846,-0.8166733,101.0,-3.1522367,-11.273457,-0.0090789795,-0.10505676,-0.08166504,-2.0584264,0.47465226,9.576427
34.80518956,31.26502091,0.0,0.022039738,12-34-04,1.7844946,-0.70826846,-0.8166733,101.0,-3.2438834,-11.367593,-0.0090789795,-0.10505676,-0.08166504,-2.0584264,0.47465226,9.576427
34.80518956,31.26502091,0.0,0.022039738,12-34-04,1.7844946,-0.70826846,-0.8166733,101.0,-3.2438834,-11.367593,-0.0090789795,-0.10505676,-0.08166504,-2.0584264,0.47465226,9.576427
34.80518956,31.26502091,0.0,0.022039738,12-34-04,1.7844946,-0.70826846,-0.8166733,101.0,-3.2438834,-11.367593,-0.0090789795,-0.10505676,-0.08166504,-2.0584264,0.47465226,9.576427
34.80518956,31.26502091,0.0,0.022039738,12-34-04,1.7844946,-0.70826846,-0.8166733,101.0,-3.2438834,-11.367593,-0.0090789795,-0.10505676,-0.08166504,-2.0584264,0.47465226,9.576427
34.80518956,31.26502091,0.0,0.022039738,12-34-04,1.7844946,-0.70826846,-0.8166733,101.0,-3.5451348,-11.281453,-0.0090789795,-0.10505676,-0.08166504,-2.0584264,0.47465226,9.576427
34.80518956,31.26502091,0.0,0.022039738,12-34-04,1.7844946,-0.70826846,-0.8166733,101.0,-3.5451348,-11.281453,-0.0090789795,-0.10505676,-0.08166504,-2.0584264,0.47465226,9.576427
34.80518956,31.26502091,0.0,0.022039738,12-34-04,1.7844946,-0.70826846,-0.8166733,101.0,-3.5451348,-11.281453,-0.0090789795,-0.10505676,-0.08166504,-2.0584264,0.47465226,9.576427
34.80518956,31.26502091,0.0,0.022039738,12-34-04,1.7844946,-0.70826846,-0.8166733,101.0,-3.5451348,-11.281453,-0.0090789795,-0.10505676,-0.08166504,-2.0584264,0.47465226,9.576427
34.80518956,31.26502091,0.0,0.022039738,12-34-04,1.7844946,-0.70826846,-0.8166733,101.0,-3.9324918,-11.395901,-0.0090789795,-0.10505676,-0.08166504,-2.0584264,0.47465226,9.576427
34.80518956,31.26502091,0.0,0.022039738,12-34-04,1.7844946,-0.70826846,-0.8166733,102.0,-4.159905,-11.739276,-0.0090789795,-0.10505676,-0.08166504,-2.0584264,0.47465226,9.576427
34.80518956,31.26502091,0.0,0.022039738,12-34-04,1.7844946,-0.70826846,-0.8166733,101.0,-4.3330765,-11.941638,-0.0090789795,-0.10505676,-0.08166504,-2.0584264,0.47465226,9.576427
34.80518956,31.26502091,0.0,0.022039738,12-34-04,1.7844946,-0.70826846,-0.8166733,101.0,-4.646728,-12.104722,-0.0090789795,-0.10505676,-0.08166504,-2.0584264,0.47465226,9.576427
34.80518956,31.26502091,0.0,0.022039738,12-34-04,1.7844946,-0.70826846,-0.8166733,101.0,-4.646728,-12.104722,-0.0090789795,-0.10505676,-0.08166504,-2.0584264,0.47465226,9.576427
34.80518956,31.26502091,0.0,0.022039738,12-34-04,1.7844946,-0.70826846,-0.8166733,101.0,-4.646728,-12.104722,-0.0090789795,-0.10505676,-0.08166504,-2.0584264,0.47465226,9.576427
34.80518956,31.26502091,0.0,0.022039738,12-34-04,1.7844946,-0.70826846,-0.8166733,101.0,-4.646728,-12.104722,-0.0090789795,-0.10505676,-0.08166504,-2.0584264,0.47465226,9.576427
34.80518956,31.26502091,0.0,0.022039738,12-34-04,1.7844946,-0.70826846,-0.8166733,101.0,-4.646728,-12.104722,-0.0090789795,-0.10505676,-0.08166504,-2.0584264,0.47465226,9.576427
34.80518956,31.26502091,0.0,0.022039738,12-34-04,1.7844946,-0.70826846,-0.8166733,101.0,-4.646728,-12.104722,-0.0090789795,-0.10505676,-0.08166504,-2.0584264,0.47465226,9.576427
34.80518956,31.26502091,0.0,0.022039738,12-34-04,1.7844946,-0.70826846,-0.8166733,101.0,-5.0687237,-12.176525,-0.0090789795,-0.10505676,-0.08166504,-2.0584264,0.47465226,9.576427
34.80518956,31.26502091,0.0,0.022039738,12-34-04,0.5905976,-0.8225161,0.19521904,101.0,-5.0687237,-12.176525,-0.0090789795,-0.10505676,-0.08166504,-2.0375414,0.64866084,9.570687
34.80518956,31.26502091,0.0,0.022039738,12-34-04,0.5905976,-0.8225161,0.19521904,102.0,-5.4566236,-12.31772,0.3059845,0.12602234,-0.15571594,-2.0375414,0.64866084,9.570687
34.80518956,31.26502091,0.0,0.022039738,12-34-04,0.5905976,-0.8225161,0.19521904,102.0,-5.4566236,-12.31772,0.3059845,0.12602234,-0.15571594,-2.0375414,0.64866084,9.570687
34.80518956,31.26502091,0.0,0.022039738,12-34-04,0.5905976,-0.8225161,0.19521904,101.0,-6.1630425,-12.720551,0.3059845,0.12602234,-0.15571594,-2.0375414,0.64866084,9.570687
34.80518956,31.26502091,0.0,0.022039738,12-34-04,0.5905976,-0.8225161,0.19521904,101.0,-6.542223,-12.83122,0.3059845,0.12602234,-0.15571594,-2.0375414,0.64866084,9.570687
34.80518956,31.26502091,0.0,0.022039738,12-34-04,0.5905976,-0.8225161,0.19521904,101.0,-6.542223,-12.83122,0.3059845,0.12602234,-0.15571594,-2.0375414,0.64866084,9.570687
34.80518956,31.26502091,0.0,0.022039738,12-34-04,0.5905976,-0.8225161,0.19521904,101.0,-6.542223,-12.83122,0.3059845,0.12602234,-0.15571594,-2.0375414,0.64866084,9.570687
34.80518956,31.26502091,0.0,0.022039738,12-34-04,0.5905976,-0.8225161,0.19521904,101.0,-6.542223,-12.83122,0.3059845,0.12602234,-0.15571594,-2.0375414,0.64866084,9.570687
34.80518956,31.26502091,0.0,0.022039738,12-34-04,0.5905976,-0.8225161,0.19521904,101.0,-6.542223,-12.83122,0.3059845,0.12602234,-0.15571594,-2.0375414,0.64866084,9.570687
34.80518956,31.26502091,0.0,0.022039738,12-34-04,0.5905976,-0.8225161,0.19521904,101.0,-6.542223,-12.83122,0.3059845,0.12602234,-0.15571594,-2.0375414,0.64866084,9.570687
34.80518956,31.26502091,0.0,0.022039738,12-34-04,0.5905976,-0.8225161,0.19521904,101.0,-6.892443,-13.005374,0.3059845,0.12602234,-0.15571594,-2.0375414,0.64866084,9.570687
34.80518956,31.26502091,0.0,0.022039738,12-34-04,0.5905976,-0.8225161,0.19521904,101.0,-6.892443,-13.005374,0.3059845,0.12602234,-0.15571594,-2.0375414,0.64866084,9.570687
34.80518956,31.26502091,0.0,0.022039738,12-34-04,0.5905976,-0.8225161,0.19521904,101.0,-7.628213,-13.6194105,0.3059845,0.12602234,-0.15571594,-2.0375414,0.64866084,9.570687
34.80518956,31.26502091,0.0,0.022039738,12-34-04,0.5905976,-0.8225161,0.19521904,101.0,-7.628213,-13.6194105,0.3059845,0.12602234,-0.15571594,-2.0375414,0.64866084,9.570687
34.80518956,31.26502091,0.0,0.022039738,12-34-04,0.5905976,-0.8225161,0.19521904,101.0,-8.100991,-13.955547,0.3059845,0.12602234,-0.15571594,-2.0375414,0.64866084,9.570687
34.80518956,31.26502091,0.0,0.022039738,12-34-04,0.5905976,-0.8225161,0.19521904,101.0,-8.506152,-14.151149,0.3059845,0.12602234,-0.15571594,-2.0375414,0.64866084,9.570687
34.80518956,31.26502091,0.0,0.022039738,12-34-04,0.5905976,-0.8225161,0.19521904,101.0,-8.506152,-14.151149,0.3059845,0.12602234,-0.15571594,-2.0375414,0.64866084,9.570687
34.80518956,31.26502091,0.0,0.022039738,12-34-04,0.5905976,-0.8225161,0.19521904,101.0,-8.506152,-14.151149,0.3059845,0.12602234,-0.15571594,-2.0375414,0.64866084,9.570687
34.80518956,31.26502091,0.0,0.022039738,12-34-04,0.5905976,-0.8225161,0.19521904,101.0,-8.776624,-14.335982,0.3059845,0.12602234,-0.15571594,-2.0375414,0.64866084,9.570687
34.80518956,31.26502091,0.0,0.022039738,12-34-04,0.5905976,-0.8225161,0.19521904,101.0,-8.776624,-14.335982,0.3059845,0.12602234,-0.15571594,-2.0375414,0.64866084,9.570687
34.80518956,31.26502091,0.0,0.022039738,12-34-04,0.5905976,-0.8225161,0.19521904,101.0,-8.776624,-14.335982,0.3059845,0.12602234,-0.15571594,-2.0375414,0.64866084,9.570687
34.80518956,31.26502091,0.0,0.022039738,12-34-04,-0.08189869,0.6328486,-0.8663454,101.0,-8.776624,-14.335982,0.3059845,0.12602234,-0.15571594,-2.0375414,0.64866084,9.570687
34.80518956,31.26502091,0.0,0.022039738,12-34-04,-0.08189869,0.6328486,-0.8663454,101.0,-8.776624,-14.335982,0.3059845,0.12602234,-0.15571594,-2.3415296,1.1961459,9.447585
34.80518956,31.26502091,0.0,0.022039738,12-34-04,-0.08189869,0.6328486,-0.8663454,100.0,-9.349929,-14.395361,0.25325012,0.16682434,0.12557983,-2.3415296,1.1961459,9.447585
34.80518956,31.26502091,0.0,0.022039738,12-34-04,-0.08189869,0.6328486,-0.8663454,100.0,-9.349929,-14.395361,0.25325012,0.16682434,0.12557983,-2.3415296,1.1961459,9.447585
34.80518956,31.26502091,0.0,0.022039738,12-34-04,-0.08189869,0.6328486,-0.8663454,101.0,-9.773963,-14.292329,0.25325012,0.16682434,0.12557983,-2.3415296,1.1961459,9.447585
34.80518956,31.26502091,0.0,0.022039738,12-34-04,-0.08189869,0.6328486,-0.8663454,101.0,-9.773963,-14.292329,0.25325012,0.16682434,0.12557983,-2.3415296,1.1961459,9.447585
34.80518956,31.26502091,0.0,0.022039738,12-34-04,-0.08189869,0.6328486,-0.8663454,101.0,-9.773963,-14.292329,0.25325012,0.16682434,0.12557983,-2.3415296,1.1961459,9.447585
34.80518956,31.26502091,0.0,0.022039738,12-34-04,-0.08189869,0.6328486,-0.8663454,101.0,-9.773963,-14.292329,0.25325012,0.16682434,0.12557983,-2.3415296,1.1961459,9.447585
34.80518956,31.26502091,0.0,0.022039738,12-34-04,-0.08189869,0.6328486,-0.8663454,101.0,-9.829468,-14.284013,0.25325012,0.16682434,0.12557983,-2.3415296,1.1961459,9.447585
34.80518956,31.26502091,0.0,0.022039738,12-34-04,-0.08189869,0.6328486,-0.8663454,101.0,-9.829468,-14.284013,0.25325012,0.16682434,0.12557983,-2.3415296,1.1961459,9.447585
34.80518956,31.26502091,0.0,0.022039738,12-34-04,-0.08189869,0.6328486,-0.8663454,101.0,-9.829468,-14.284013,0.25325012,0.16682434,0.12557983,-2.3415296,1.1961459,9.447585
34.80518956,31.26502091,0.0,0.022039738,12-34-04,-0.08189869,0.6328486,-0.8663454,101.0,-9.829468,-14.284013,0.25325012,0.16682434,0.12557983,-2.3415296,1.1961459,9.447585
34.80518956,31.26502091,0.0,0.022039738,12-34-04,-0.08189869,0.6328486,-0.8663454,100.0,-9.828565,-14.12405,0.25325012,0.16682434,0.12557983,-2.3415296,1.1961459,9.447585
34.80518956,31.26502091,0.0,0.022039738,12-34-04,-0.08189869,0.6328486,-0.8663454,100.0,-9.844368,-14.09179,0.25325012,0.16682434,0.12557983,-2.3415296,1.1961459,9.447585
34.80518956,31.26502091,0.0,0.022039738,12-34-04,-0.08189869,0.6328486,-0.8663454,100.0,-9.844368,-14.09179,0.25325012,0.16682434,0.12557983,-2.3415296,1.1961459,9.447585
34.80518956,31.26502091,0.0,0.022039738,12-34-04,-0.08189869,0.6328486,-0.8663454,100.0,-9.752149,-14.240112,0.25325012,0.16682434,0.12557983,-2.3415296,1.1961459,9.447585
34.80518956,31.26502091,0.0,0.022039738,12-34-04,-0.08189869,0.6328486,-0.8663454,100.0,-9.752149,-14.240112,0.25325012,0.16682434,0.12557983,-2.3415296,1.1961459,9.447585
34.80518956,31.26502091,0.0,0.022039738,12-34-04,-0.08189869,0.6328486,-0.8663454,100.0,-9.752149,-14.240112,0.25325012,0.16682434,0.12557983,-2.3415296,1.1961459,9.447585
34.80518956,31.26502091,0.0,0.022039738,12-34-04,-0.08189869,0.6328486,-0.8663454,100.0,-9.752149,-14.240112,0.25325012,0.16682434,0.12557983,-2.3415296,1.1961459,9.447585
34.80518956,31.26502091,0.0,0.022039738,12-34-04,-0.08189869,0.6328486,-0.8663454,100.0,-9.550287,-14.193591,0.25325012,0.16682434,0.12557983,-2.3415296,1.1961459,9.447585
34.80518956,31.26502091,0.0,0.022039738,12-34-04,-0.08189869,0.6328486,-0.8663454,100.0,-9.550287,-14.193591,0.25325012,0.16682434,0.12557983,-2.3415296,1.1961459,9.447585
34.80518956,31.26502091,0.0,0.022039738,12-34-04,-0.08189869,0.6328486,-0.8663454,100.0,-9.550287,-14.193591,0.25325012,0.16682434,0.12557983,-2.3415296,1.1961459,9.447585
34.80518956,31.26502091,0.0,0.022039738,12-34-04,-0.08189869,0.6328486,-0.8663454,100.0,-9.550287,-14.193591,0.25325012,0.16682434,0.12557983,-2.3415296,1.1961459,9.447585
34.80518956,31.26502091,0.0,0.022039738,12-34-04,0.5737567,0.8787559,-0.2143364,99.0,-9.307913,-14.170494,0.25325012,0.16682434,0.12557983,-2.4703891,1.5053731,9.370241
34.80518956,31.26502091,0.0,0.022039738,12-34-04,0.5737567,0.8787559,-0.2143364,99.0,-9.114863,-14.160251,-0.056854248,0.003921509,0.067596436,-2.4703891,1.5053731,9.370241
34.80518956,31.26502091,0.0,0.022039738,12-34-04,0.5737567,0.8787559,-0.2143364,99.0,-9.114863,-14.160251,-0.056854248,0.003921509,0.067596436,-2.4703891,1.5053731,9.370241
34.80518956,31.26502091,0.0,0.022039738,12-34-04,0.5737567,0.8787559,-0.2143364,99.0,-8.774154,-14.201756,-0.056854248,0.003921509,0.067596436,-2.4703891,1.5053731,9.370241
34.80518956,31.26502091,0.0,0.022039738,12-34-04,0.5737567,0.8787559,-0.2143364,99.0,-8.774154,-14.201756,-0.056854248,0.003921509,0.067596436,-2.4703891,1.5053731,9.370241
34.80518956,31.26502091,0.0,0.022039738,12-34-04,0.5737567,0.8787559,-0.2143364,99.0,-8.774154,-14.201756,-0.056854248,0.003921509,0.067596436,-2.4703891,1.5053731,9.370241
34.80518956,31.26502091,0.0,0.022039738,12-34-04,0.5737567,0.8787559,-0.2143364,99.0,-8.538455,-14.125858,-0.056854248,0.003921509,0.067596436,-2.4703891,1.5053731,9.370241
34.80518956,31.26502091,0.0,0.022039738,12-34-04,0.5737567,0.8787559,-0.2143364,99.0,-8.538455,-14.125858,-0.056854248,0.003921509,0.067596436,-2.4703891,1.5053731,9.370241
34.80518956,31.26502091,0.0,0.022039738,12-34-04,0.5737567,0.8787559,-0.2143364,99.0,-8.538455,-14.125858,-0.056854248,0.003921509,0.067596436,-2.4703891,1.5053731,9.370241
34.80518956,31.26502091,0.0,0.022039738,12-34-04,0.5737567,0.8787559,-0.2143364,99.0,-8.538455,-14.125858,-0.056854248,0.003921509,0.067596436,-2.4703891,1.5053731,9.370241
34.80518956,31.26502091,0.0,0.022039738,12-34-04,0.5737567,0.8787559,-0.2143364,99.0,-8.538455,-14.125858,-0.056854248,0.003921509,0.067596436,-2.4703891,1.5053731,9.370241
34.80518956,31.26502091,0.0,0.022039738,12-34-04,0.5737567,0.8787559,-0.2143364,99.0,-8.371989,-14.081021,-0.056854248,0.003921509,0.067596436,-2.4703891,1.5053731,9.370241
34.80518953,31.26502095,0.0,0.02684721,12-34-04,0.5737567,0.8787559,-0.2143364,99.0,-8.293748,-14.121136,-0.056854248,0.003921509,0.067596436,-2.4703891,1.5053731,9.370241
34.80518953,31.26502095,0.0,0.02684721,12-34-04,0.5737567,0.8787559,-0.2143364,99.0,-8.293748,-14.121136,-0.056854248,0.003921509,0.067596436,-2.4703891,1.5053731,9.370241
34.80518953,31.26502095,0.0,0.02684721,12-34-04,0.5737567,0.8787559,-0.2143364,99.0,-8.133669,-14.232354,-0.056854248,0.003921509,0.067596436,-2.4703891,1.5053731,9.370241
34.80518953,31.26502095,0.0,0.02684721,12-34-04,0.5737567,0.8787559,-0.2143364,99.0,-8.133669,-14.232354,-0.056854248,0.003921509,0.067596436,-2.4703891,1.5053731,9.370241
34.80518953,31.26502095,0.0,0.02684721,12-34-04,0.5737567,0.8787559,-0.2143364,99.0,-8.133669,-14.232354,-0.056854248,0.003921509,0.067596436,-2.4703891,1.5053731,9.370241
34.80518953,31.26502095,0.0,0.02684721,12-34-04,0.5737567,0.8787559,-0.2143364,99.0,-8.064874,-14.2254925,-0.056854248,0.003921509,0.067596436,-2.4703891,1.5053731,9.370241
34.80518953,31.26502095,0.0,0.02684721,12-34-04,0.5737567,0.8787559,-0.2143364,99.0,-8.064874,-14.2254925,-0.056854248,0.003921509,0.067596436,-2.4703891,1.5053731,9.370241
34.80518953,31.26502095,0.0,0.02684721,12-34-04,0.17101192,-0.8253956,-0.85062885,99.0,-8.064874,-14.2254925,-0.056854248,0.003921509,0.067596436,-2.4442484,1.385262,9.395589
34.80518953,31.26502095,0.0,0.02684721,12-34-04,0.17101192,-0.8253956,-0.85062885,99.0,-8.064874,-14.2254925,-0.056854248,0.003921509,0.067596436,-2.4442484,1.385262,9.395589
34.80518953,31.26502095,0.0,0.02684721,12-34-04,0.17101192,-0.8253956,-0.85062885,99.0,-8.07298,-14.132089,-0.056854248,0.003921509,0.067596436,-2.4442484,1.385262,9.395589
34.80518953,31.26502095,0.0,0.02684721,12-34-04,0.17101192,-0.8253956,-0.85062885,99.0,-8.07298,-14.132089,-0.056854248,0.003921509,0.067596436,-2.4442484,1.385262,9.395589
34.80518953,31.26502095,0.0,0.02684721,12-34-04,0.17101192,-0.8253956,-0.85062885,98.0,-8.175434,-13.925966,-0.073638916,-0.02154541,0.083221436,-2.4442484,1.385262,9.395589
34.80518953,31.26502095,0.0,0.02684721,12-34-04,0.17101192,-0.8253956,-0.85062885,98.0,-8.175434,-13.925966,-0.073638916,-0.02154541,0.083221436,-2.4442484,1.385262,9.395589
34.80518953,31.26502095,0.0,0.02684721,12-34-04,0.17101192,-0.8253956,-0.85062885,98.0,-8.386522,-13.555275,-0.073638916,-0.02154541,0.083221436,-2.4442484,1.385262,9.395589
34.80518953,31.26502095,0.0,0.02684721,12-34-04,0.17101192,-0.8253956,-0.85062885,98.0,-8.386522,-13.555275,-0.073638916,-0.02154541,0.083221436,-2.4442484,1.385262,9.395589
34.80518953,31.26502095,0.0,0.02684721,12-34-04,0.17101192,-0.8253956,-0.85062885,99.0,-8.413115,-13.426113,-0.073638916,-0.02154541,0.083221436,-2.4442484,1.385262,9.395589
34.80518953,31.26502095,0.0,0.02684721,12-34-04,0.17101192,-0.8253956,-0.85062885,99.0,-8.413115,-13.426113,-0.073638916,-0.02154541,0.083221436,-2.4442484,1.385262,9.395589
34.80518953,31.26502095,0.0,0.02684721,12-34-04,0.17101192,-0.8253956,-0.85062885,99.0,-8.413115,-13.426113,-0.073638916,-0.02154541,0.083221436,-2.4442484,1.385262,9.395589
34.80518953,31.26502095,0.0,0.02684721,12-34-04,0.17101192,-0.8253956,-0.85062885,99.0,-8.413115,-13.426113,-0.073638916,-0.02154541,0.083221436,-2.4442484,1.385262,9.395589
34.80518953,31.26502095,0.0,0.02684721,12-34-04,0.17101192,-0.8253956,-0.85062885,99.0,-8.413115,-13.426113,-0.073638916,-0.02154541,0.083221436,-2.4442484,1.385262,9.395589
34.80518953,31.26502095,0.0,0.02684721,12-34-04,0.17101192,-0.8253956,-0.85062885,99.0,-8.444125,-13.238185,-0.073638916,-0.02154541,0.083221436,-2.4442484,1.385262,9.395589
34.80518953,31.26502095,0.0,0.02684721,12-34-04,0.17101192,-0.8253956,-0.85062885,99.0,-8.444125,-13.238185,-0.073638916,-0.02154541,0.083221436,-2.4442484,1.385262,9.395589
34.80518953,31.26502095,0.0,0.02684721,12-34-04,0.17101192,-0.8253956,-0.85062885,99.0,-8.504818,-12.950764,-0.073638916,-0.02154541,0.083221436,-2.4442484,1.385262,9.395589
34.80518953,31.26502095,0.0,0.02684721,12-34-04,0.17101192,-0.8253956,-0.85062885,99.0,-8.504818,-12.950764,-0.073638916,-0.02154541,0.083221436,-2.4442484,1.385262,9.395589
34.80518953,31.26502095,0.0,0.02684721,12-34-04,0.17101192,-0.8253956,-0.85062885,99.0,-8.68322,-12.298585,-0.073638916,-0.02154541,0.083221436,-2.4442484,1.385262,9.395589
34.80518953,31.26502095,0.0,0.02684721,12-34-04,0.17101192,-0.8253956,-0.85062885,99.0,-8.740003,-11.899696,-0.073638916,-0.02154541,0.083221436,-2.4442484,1.385262,9.395589
34.80518953,31.26502095,0.0,0.02684721,12-34-04,0.17101192,-0.8253956,-0.85062885,99.0,-8.740003,-11.899696,-0.073638916,-0.02154541,0.083221436,-2.4442484,1.385262,9.395589
34.80518953,31.26502095,0.0,0.02684721,12-34-04,0.3010223,-0.1250664,0.36541748,99.0,-8.740003,-11.899696,-0.073638916,-0.02154541,0.083221436,-2.2053921,1.3724145,9.456379
34.80518953,31.26502095,0.0,0.02684721,12-34-04,0.3010223,-0.1250664,0.36541748,99.0,-8.740003,-11.899696,-0.073638916,-0.02154541,0.083221436,-2.2053921,1.3724145,9.456379
34.80518953,31.26502095,0.0,0.02684721,12-34-04,0.3010223,-0.1250664,0.36541748,99.0,-8.740003,-11.899696,-0.073638916,-0.02154541,0.083221436,-2.2053921,1.3724145,9.456379
34.80518953,31.26502095,0.0,0.02684721,12-34-04,0.3010223,-0.1250664,0.36541748,99.0,-8.79714,-11.538822,-0.073638916,-0.02154541,0.083221436,-2.2053921,1.3724145,9.456379
34.80518953,31.26502095,0.0,0.02684721,12-34-04,0.3010223,-0.1250664,0.36541748,99.0,-8.79714,-11.538822,-0.073638916,-0.02154541,0.083221436,-2.2053921,1.3724145,9.456379
34.80518953,31.26502095,0.0,0.02684721,12-34-04,0.3010223,-0.1250664,0.36541748,99.0,-8.79714,-11.538822,-0.073638916,-0.02154541,0.083221436,-2.2053921,1.3724145,9.456379
34.80518953,31.26502095,0.0,0.02684721,12-34-04,0.3010223,-0.1250664,0.36541748,99.0,-8.874348,-11.296365,0.07196045,-0.21769714,-0.0040283203,-2.2053921,1.3724145,9.456379
34.80518953,31.26502095,0.0,0.02684721,12-34-05,0.3010223,-0.1250664,0.36541748,99.0,-8.874348,-11.296365,0.07196045,-0.21769714,-0.0040283203,-2.2053921,1.3724145,9.456379
34.80518953,31.26502095,0.0,0.02684721,12-34-05,0.3010223,-0.1250664,0.36541748,99.0,-8.991427,-11.109302,0.07196045,-0.21769714,-0.0040283203,-2.2053921,1.3724145,9.456379
34.80518953,31.26502095,0.0,0.02684721,12-34-05,0.3010223,-0.1250664,0.36541748,99.0,-8.994567,-11.110273,0.07196045,-0.21769714,-0.0040283203,-2.2053921,1.3724145,9.456379
34.80518953,31.26502095,0.0,0.02684721,12-34-05,0.3010223,-0.1250664,0.36541748,99.0,-8.994567,-11.110273,0.07196045,-0.21769714,-0.0040283203,-2.2053921,1.3724145,9.456379
34.80518953,31.26502095,0.0,0.02684721,12-34-05,0.3010223,-0.1250664,0.36541748,99.0,-8.994567,-11.110273,0.07196045,-0.21769714,-0.0040283203,-2.2053921,1.3724145,9.456379
34.80518953,31.26502095,0.0,0.02684721,12-34-05,0.3010223,-0.1250664,0.36541748,99.0,-8.994567,-11.110273,0.07196045,-0.21769714,-0.0040283203,-2.2053921,1.3724145,9.456379
34.80518953,31.26502095,0.0,0.02684721,12-34-05,0.3010223,-0.1250664,0.36541748,100.0,-8.9778,-11.204792,0.07196045,-0.21769714,-0.0040283203,-2.2053921,1.3724145,9.456379
34.80518953,31.26502095,0.0,0.02684721,12-34-05,0.3010223,-0.1250664,0.36541748,100.0,-8.9778,-11.204792,0.07196045,-0.21769714,-0.0040283203,-2.2053921,1.3724145,9.456379
34.80518953,31.26502095,0.0,0.02684721,12-34-05,0.3010223,-0.1250664,0.36541748,100.0,-8.9778,-11.204792,0.07196045,-0.21769714,-0.0040283203,-2.2053921,1.3724145,9.456379
34.80518953,31.26502095,0.0,0.02684721,12-34-05,0.3010223,-0.1250664,0.36541748,100.0,-8.9778,-11.204792,0.07196045,-0.21769714,-0.0040283203,-2.2053921,1.3724145,9.456379
34.80518953,31.26502095,0.0,0.02684721,12-34-05,0.3010223,-0.1250664,0.36541748,100.0,-8.928535,-11.292525,0.07196045,-0.21769714,-0.0040283203,-2.2053921,1.3724145,9.456379
34.80518953,31.26502095,0.0,0.02684721,12-34-05,0.3010223,-0.1250664,0.36541748,100.0,-8.837632,-11.248339,0.07196045,-0.21769714,-0.0040283203,-2.2053921,1.3724145,9.456379
34.80518953,31.26502095,0.0,0.02684721,12-34-05,0.3010223,-0.1250664,0.36541748,100.0,-8.746772,-11.123107,0.07196045,-0.21769714,-0.0040283203,-2.2053921,1.3724145,9.456379
34.80518953,31.26502095,0.0,0.02684721,12-34-05,0.3010223,-0.1250664,0.36541748,100.0,-8.668095,-11.018136,0.07196045,-0.21769714,-0.0040283203,-2.2053921,1.3724145,9.456379
34.80518953,31.26502095,0.0,0.02684721,12-34-05,0.3010223,-0.1250664,0.36541748,100.0,-8.668095,-11.018136,0.07196045,-0.21769714,-0.0040283203,-2.2053921,1.3724145,9.456379
34.80518953,31.26502095,0.0,0.02684721,12-34-05,0.3010223,-0.1250664,0.36541748,100.0,-8.668095,-11.018136,0.07196045,-0.21769714,-0.0040283203,-1.937105,1.43282,9.506052
34.80518953,31.26502095,0.0,0.02684721,12-34-05,0.34279633,0.5426856,0.69362736,100.0,-8.572269,-10.971396,0.07196045,-0.21769714,-0.0040283203,-1.937105,1.43282,9.506052
34.80518953,31.26502095,0.0,0.02684721,12-34-05,0.34279633,0.5426856,0.69362736,100.0,-8.572269,-10.971396,0.07196045,-0.21769714,-0.0040283203,-1.937105,1.43282,9.506052
34.80518953,31.26502095,0.0,0.02684721,12-34-05,0.34279633,0.5426856,0.69362736,100.0,-8.572269,-10.971396,0.07196045,-0.21769714,-0.0040283203,-1.937105,1.43282,9.506052
34.80518953,31.26502095,0.0,0.02684721,12-34-05,0.34279633,0.5426856,0.69362736,100.0,-8.572269,-10.971396,0.07196045,-0.21769714,-0.0040283203,-1.937105,1.43282,9.506052
34.80518953,31.26502095,0.0,0.02684721,12-34-05,0.34279633,0.5426856,0.69362736,100.0,-8.572269,-10.971396,0.07196045,-0.21769714,-0.0040283203,-1.937105,1.43282,9.506052
34.80518953,31.26502095,0.0,0.02684721,12-34-05,0.34279633,0.5426856,0.69362736,100.0,-8.468456,-10.9481735,-0.029251099,-0.039794922,-0.12825012,-1.937105,1.43282,9.506052
34.80518953,31.26502095,0.0,0.02684721,12-34-05,0.34279633,0.5426856,0.69362736,100.0,-8.388467,-10.911443,-0.029251099,-0.039794922,-0.12825012,-1.937105,1.43282,9.506052
34.80518953,31.26502095,0.0,0.02684721,12-34-05,0.34279633,0.5426856,0.69362736,100.0,-8.339321,-10.892363,-0.029251099,-0.039794922,-0.12825012,-1.937105,1.43282,9.506052
34.80518953,31.26502095,0.0,0.02684721,12-34-05,0.34279633,0.5426856,0.69362736,100.0,-8.313359,-10.879091,-0.029251099,-0.039794922,-0.12825012,-1.937105,1.43282,9.506052
34.80518953,31.26502095,0.0,0.02684721,12-34-05,0.34279633,0.5426856,0.69362736,100.0,-8.313359,-10.879091,-0.029251099,-0.039794922,-0.12825012,-1.937105,1.43282,9.506052
34.80518953,31.26502095,0.0,0.02684721,12-34-05,0.34279633,0.5426856,0.69362736,100.0,-8.313359,-10.879091,-0.029251099,-0.039794922,-0.12825012,-1.937105,1.43282,9.506052
34.80518953,31.26502095,0.0,0.02684721,12-34-05,0.34279633,0.5426856,0.69362736,101.0,-8.327495,-10.892002,-0.029251099,-0.039794922,-0.12825012,-1.937105,1.43282,9.506052
34.80518953,31.26502095,0.0,0.02684721,12-34-05,0.34279633,0.5426856,0.69362736,101.0,-8.327495,-10.892002,-0.029251099,-0.039794922,-0.12825012,-1.937105,1.43282,9.506052
34.80518953,31.26502095,0.0,0.02684721,12-34-05,0.34279633,0.5426856,0.69362736,101.0,-8.327495,-10.892002,-0.029251099,-0.039794922,-0.12825012,-1.937105,1.43282,9.506052
34.80518953,31.26502095,0.0,0.02684721,12-34-05,0.34279633,0.5426856,0.69362736,101.0,-8.327495,-10.892002,-0.029251099,-0.039794922,-0.12825012,-1.937105,1.43282,9.506052
34.80518953,31.26502095,0.0,0.02684721,12-34-05,0.34279633,0.5426856,0.69362736,101.0,-8.327495,-10.892002,-0.029251099,-0.039794922,-0.12825012,-1.937105,1.43282,9.506052
34.80518953,31.26502095,0.0,0.02684721,12-34-05,0.34279633,0.5426856,0.69362736,101.0,-8.370575,-10.981202,-0.029251099,-0.039794922,-0.12825012,-1.937105,1.43282,9.506052
34.80518953,31.26502095,0.0,0.02684721,12-34-05,0.34279633,0.5426856,0.69362736,101.0,-8.3998575,-11.12175,-0.029251099,-0.039794922,-0.12825012,-1.937105,1.43282,9.506052
34.80518953,31.26502095,0.0,0.02684721,12-34-05,0.34279633,0.5426856,0.69362736,101.0,-8.393022,-11.235309,-0.029251099,-0.039794922,-0.12825012,-1.937105,1.43282,9.506052
34.80518953,31.26502095,0.0,0.02684721,12-34-05,0.34279633,0.5426856,0.69362736,101.0,-8.35867,-11.329063,-0.029251099,-0.039794922,-0.12825012,-1.937105,1.43282,9.506052
34.80518953,31.26502095,0.0,0.02684721,12-34-05,0.34279633,0.5426856,0.69362736,101.0,-8.35867,-11.329063,-0.029251099,-0.039794922,-0.12825012,-1.937105,1.43282,9.506052
34.80518953,31.26502095,0.0,0.02684721,12-34-05,0.34279633,0.5426856,0.69362736,101.0,-8.35867,-11.329063,-0.029251099,-0.039794922,-0.12825012,-1.9294267,1.3823168,9.515088
34.80518953,31.26502095,0.0,0.02684721,12-34-05,0.34279633,0.5426856,0.69362736,101.0,-8.35867,-11.329063,-0.029251099,-0.039794922,-0.12825012,-1.9294267,1.3823168,9.515088
34.80518953,31.26502095,0.0,0.02684721,12-34-05,0.34279633,0.5426856,0.69362736,101.0,-8.35867,-11.329063,-0.029251099,-0.039794922,-0.12825012,-1.9294267,1.3823168,9.515088
34.80518953,31.26502095,0.0,0.02684721,12-34-05,0.9013399,0.021557331,-0.11817169,100.0,-8.322216,-11.472526,-0.029251099,-0.039794922,-0.12825012,-1.9294267,1.3823168,9.515088
34.80518953,31.26502095,0.0,0.02684721,12-34-05,0.9013399,0.021557331,-0.11817169,100.0,-8.322216,-11.472526,-0.029251099,-0.039794922,-0.12825012,-1.9294267,1.3823168,9.515088
34.80518953,31.26502095,0.0,0.02684721,12-34-05,0.9013399,0.021557331,-0.11817169,100.0,-8.322216,-11.472526,-0.029251099,-0.039794922,-0.12825012,-1.9294267,1.3823168,9.515088
34.80518953,31.26502095,0.0,0.02684721,12-34-05,0.9013399,0.021557331,-0.11817169,100.0,-8.266994,-11.906438,-0.01979065,0.11402893,0.018829346,-1.9294267,1.3823168,9.515088
34.80518953,31.26502095,0.0,0.02684721,12-34-05,0.9013399,0.021557331,-0.11817169,100.0,-8.266994,-11.906438,-0.01979065,0.11402893,0.018829346,-1.9294267,1.3823168,9.515088
34.80518953,31.26502095,0.0,0.02684721,12-34-05,0.9013399,0.021557331,-0.11817169,100.0,-8.217163,-12.190465,-0.01979065,0.11402893,0.018829346,-1.9294267,1.3823168,9.515088
34.80518953,31.26502095,0.0,0.02684721,12-34-05,0.9013399,0.021557331,-0.11817169,99.0,-8.175128,-12.341903,-0.01979065,0.11402893,0.018829346,-1.9294267,1.3823168,9.515088
34.80518953,31.26502095,0.0,0.02684721,12-34-05,0.9013399,0.021557331,-0.11817169,99.0,-8.188335,-12.439604,-0.01979065,0.11402893,0.018829346,-1.9294267,1.3823168,9.515088
34.80518953,31.26502095,0.0,0.02684721,12-34-05,0.9013399,0.021557331,-0.11817169,99.0,-8.188335,-12.439604,-0.01979065,0.11402893,0.018829346,-1.9294267,1.3823168,9.515088
34.80518953,31.26502095,0.0,0.02684721,12-34-05,0.9013399,0.021557331,-0.11817169,99.0,-8.188335,-12.439604,-0.01979065,0.11402893,0.018829346,-1.9294267,1.3823168,9.515088
34.80518953,31.26502095,0.0,0.02684721,12-34-05,0.9013399,0.021557331,-0.11817169,99.0,-8.188335,-12.439604,-0.01979065,0.11402893,0.018829346,-1.9294267,1.3823168,9.515088
34.80518953,31.26502095,0.0,0.02684721,12-34-05,0.9013399,0.021557331,-0.11817169,99.0,-8.188335,-12.439604,-0.01979065,0.11402893,0.018829346,-1.9294267,1.3823168,9.515088
34.80518953,31.26502095,0.0,0.02684721,12-34-05,0.9013399,0.021557331,-0.11817169,99.0,-8.188335,-12.439604,-0.01979065,0.11402893,0.018829346,-1.9294267,1.3823168,9.515088
34.80518953,31.26502095,0.0,0.02684721,12-34-05,0.9013399,0.021557331,-0.11817169,99.0,-8.235059,-12.572213,-0.01979065,0.11402893,0.018829346,-1.9294267,1.3823168,9.515088
34.80518953,31.26502095,0.0,0.02684721,12-34-05,0.9013399,0.021557331,-0.11817169,99.0,-8.267551,-12.62228,-0.01979065,0.11402893,0.018829346,-1.9294267,1.3823168,9.515088
34.80518953,31.26502095,0.0,0.02684721,12-34-05,0.9013399,0.021557331,-0.11817169,99.0,-8.267551,-12.62228,-0.01979065,0.11402893,0.018829346,-1.9294267,1.3823168,9.515088
34.80518953,31.26502095,0.0,0.02684721,12-34-05,0.9013399,0.021557331,-0.11817169,99.0,-8.293676,-12.6293125,-0.01979065,0.11402893,0.018829346,-1.9294267,1.3823168,9.515088
34.80518953,31.26502095,0.0,0.02684721,12-34-05,0.9013399,0.021557331,-0.11817169,99.0,-8.321724,-12.721893,-0.01979065,0.11402893,0.018829346,-1.9294267,1.3823168,9.515088
34.80518953,31.26502095,0.0,0.02684721,12-34-05,0.9013399,0.021557331,-0.11817169,99.0,-8.321724,-12.721893,-0.01979065,0.11402893,0.018829346,-1.9294267,1.3823168,9.515088
34.80518953,31.26502095,0.0,0.02684721,12-34-05,-0.26908922,0.19761515,-0.06446457,99.0,-8.293993,-12.838839,-0.01979065,0.11402893,0.018829346,-2.1143029,1.3594797,9.479026
34.80518953,31.26502095,0.0,0.02684721,12-34-05,-0.26908922,0.19761515,-0.06446457,99.0,-8.293993,-12.838839,-0.01979065,0.11402893,0.018829346,-2.1143029,1.3594797,9.479026
34.80518953,31.26502095,0.0,0.02684721,12-34-05,-0.26908922,0.19761515,-0.06446457,99.0,-8.293993,-12.838839,-0.01979065,0.11402893,0.018829346,-2.1143029,1.3594797,9.479026
34.80518953,31.26502095,0.0,0.02684721,12-34-05,-0.26908922,0.19761515,-0.06446457,99.0,-8.293993,-12.838839,-0.01979065,0.11402893,0.018829346,-2.1143029,1.3594797,9.479026
34.80518953,31.26502095,0.0,0.02684721,12-34-05,-0.26908922,0.19761515,-0.06446457,99.0,-8.293993,-12.838839,-0.01979065,0.11402893,0.018829346,-2.1143029,1.3594797,9.479026
34.80518953,31.26502095,0.0,0.02684721,12-34-05,-0.26908922,0.19761515,-0.06446457,99.0,-8.195769,-12.908934,-0.01979065,0.11402893,0.018829346,-2.1143029,1.3594797,9.479026
34.80518953,31.26502095,0.0,0.02684721,12-34-05,-0.26908922,0.19761515,-0.06446457,99.0,-8.07274,-12.979399,-0.044570923,0.09500122,0.086624146,-2.1143029,1.3594797,9.479026
34.80518953,31.26502095,0.0,0.02684721,12-34-05,-0.26908922,0.19761515,-0.06446457,99.0,-8.07274,-12.979399,-0.044570923,0.09500122,0.086624146,-2.1143029,1.3594797,9.479026
34.80518953,31.26502095,0.0,0.02684721,12-34-05,-0.26908922,0.19761515,-0.06446457,99.0,-7.9648647,-13.025495,-0.044570923,0.09500122,0.086624146,-2.1143029,1.3594797,9.479026
34.80518953,31.26502095,0.0,0.02684721,12-34-05,-0.26908922,0.19761515,-0.06446457,99.0,-7.869382,-13.056594,-0.044570923,0.09500122,0.086624146,-2.1143029,1.3594797,9.479026
34.80518953,31.26502095,0.0,0.02684721,12-34-05,-0.26908922,0.19761515,-0.06446457,98.0,-7.7732964,-13.097825,-0.044570923,0.09500122,0.086624146,-2.1143029,1.3594797,9.479026
