Longitude,Latitude,Speed,Distance,Time,Acc X,Acc Y,Acc Z,Heading,Pitch,Roll,gyro_x,gyro_y,gyro_z,gravity_x,gravity_y,gravity_z
34.8005895,31.26168892,0.0,5043029.0,10-26-43,-3.1942463,-0.030656934,0.19099426,253.0,-1.083441,-43.398174,-0.058929443,-0.5891571,0.010284424,-7.3719296,0.25820684,6.4620714
34.80059149,31.26168951,0.0,0.0,10-26-43,1.3222027,0.5209229,-0.35032177,258.0,-1.4893911,-32.560772,0.16569519,-0.05445862,-0.27444458,-5.5196958,0.21338794,8.102951
34.80059149,31.26168951,0.0,0.0,10-26-44,1.3222027,0.5209229,-0.35032177,267.0,-4.0589437,-29.29845,0.16569519,-0.05445862,-0.27444458,-5.5196958,0.21338794,8.102951
34.80059149,31.26168951,0.0,0.0,10-26-44,-0.20382404,0.043437123,0.5751343,266.0,-3.1806073,-28.611938,0.7822876,-0.39761353,-0.8895569,-5.071557,0.40891382,8.383466
34.80059149,31.26168951,0.0,0.0,10-26-44,-0.20382404,0.043437123,0.5751343,265.0,-3.6781194,-26.062553,0.7822876,-0.39761353,-0.8895569,-5.071557,0.40891382,8.383466
34.80059149,31.26168951,0.0,0.0,10-26-44,-1.3213696,-1.2884283,-1.5985641,262.0,-4.294867,-23.07664,-0.26464844,-0.43525696,0.5010071,-4.475173,0.5734777,8.707143
34.80059149,31.26168951,0.0,0.0,10-26-44,-1.3213696,-1.2884283,-1.5985641,257.0,-3.517596,-20.775787,-0.26464844,-0.43525696,0.5010071,-4.475173,0.5734777,8.707143
34.80059149,31.26168951,0.0,0.0,10-26-44,0.433136,-0.22938955,-0.8742056,253.0,-2.5926998,-18.367409,-0.28953552,-0.38768005,0.6350708,-3.698444,0.54425126,9.066183
34.80059149,31.26168951,0.0,0.0,10-26-44,0.433136,-0.22938955,-0.8742056,249.0,-1.1725513,-16.63297,-0.28953552,-0.38768005,0.6350708,-3.698444,0.54425126,9.066183
34.80059149,31.26168951,0.0,0.0,10-26-44,1.0599473,0.42478487,-0.25686455,250.0,-1.4811252,-14.539881,-0.33651733,-0.2808075,0.4032135,-2.9470603,0.37614772,9.345787
34.80059073,31.26168929,0.0,0.07638367,10-26-44,1.0599473,0.42478487,-0.25686455,251.0,-1.8555216,-12.927307,-0.33651733,-0.2808075,0.4032135,-2.9470603,0.37614772,9.345787
34.80059073,31.26168929,0.0,0.07638367,10-26-44,0.7994783,-0.044921964,1.831399,253.0,-3.1131716,-12.749869,0.24113464,-0.19857788,-0.2713623,-2.3741462,0.2509839,9.511615
34.80059073,31.26168929,0.0,0.07638367,10-26-45,0.7994783,-0.044921964,1.831399,254.0,-4.039474,-14.262373,0.24113464,-0.19857788,-0.2713623,-2.3741462,0.2509839,9.511615
34.80059073,31.26168929,0.0,0.07638367,10-26-45,1.0036571,-0.037956953,0.3629036,255.0,-5.089608,-15.403322,0.22041321,0.23361206,-0.15977478,-2.2825174,0.55594236,9.521105
34.80059073,31.26168929,0.0,0.07638367,10-26-45,1.0036571,-0.037956953,0.3629036,255.0,-5.062287,-15.425114,0.22041321,0.23361206,-0.15977478,-2.2825174,0.55594236,9.521105
34.80059073,31.26168929,0.0,0.07638367,10-26-45,-0.49316978,0.12550241,-1.6768093,255.0,-4.68003,-15.087698,-0.017456055,-0.038894653,-0.04875183,-2.5384588,0.7779911,9.440411
34.80059073,31.26168929,0.0,0.07638367,10-26-45,-0.49316978,0.12550241,-1.6768093,255.0,-3.7165315,-14.918115,-0.017456055,-0.038894653,-0.04875183,-2.5384588,0.7779911,9.440411
34.80059073,31.26168929,0.0,0.07638367,10-26-45,-0.22072768,0.072805524,0.05140686,255.0,-3.3792968,-14.2017,-0.10700989,-0.06097412,-0.010848999,-2.5220876,0.69453275,9.451301
34.80059073,31.26168929,0.0,0.07638367,10-26-45,-0.22072768,0.072805524,0.05140686,255.0,-3.8251808,-14.325885,-0.10700989,-0.06097412,-0.010848999,-2.5220876,0.69453275,9.451301
34.80059073,31.26168929,0.0,0.07638367,10-26-45,0.72570777,-0.3098514,0.4624939,254.0,-4.6293797,-14.538948,0.071136475,0.03993225,0.078323364,-2.421547,0.59780455,9.484152
34.80059081,31.26168937,0.0,0.06659904,10-26-45,0.26489282,0.34724265,-0.32381058,254.0,-5.72035,-13.980585,0.071136475,0.03993225,0.078323364,-2.3634198,0.80712956,9.483311
34.80059081,31.26168937,0.0,0.06659904,10-26-45,0.26489282,0.34724265,-0.32381058,254.0,-6.381466,-13.63105,0.13923645,-0.060958862,0.047195435,-2.3634198,0.80712956,9.483311
34.80059081,31.26168937,0.0,0.06659904,10-26-46,0.7766912,-0.272686,0.1565733,254.0,-6.5629554,-13.4833975,0.13923645,-0.060958862,0.047195435,-2.2732718,1.0114254,9.48576
34.80059081,31.26168937,0.0,0.06659904,10-26-46,0.7766912,-0.272686,0.1565733,253.0,-6.7096367,-13.095216,0.05052185,-0.027236938,0.05493164,-2.2732718,1.0114254,9.48576
34.80059081,31.26168937,0.0,0.06659904,10-26-46,0.5483823,-0.3061036,0.5749502,253.0,-6.6069384,-12.804391,0.05052185,-0.027236938,0.05493164,-2.183134,1.0764555,9.499766
34.80059081,31.26168937,0.0,0.06659904,10-26-46,0.5483823,-0.3061036,0.5749502,253.0,-6.6539235,-12.553823,-0.015411377,-0.014923096,0.06864929,-2.183134,1.0764555,9.499766
34.80059081,31.26168937,0.0,0.06659904,10-26-46,0.45849562,0.031974196,0.79682446,252.0,-6.1857576,-13.183185,-0.015411377,-0.014923096,0.06864929,-2.1704726,1.0519314,9.505413
34.80059081,31.26168937,0.0,0.06659904,10-26-46,0.45849562,0.031974196,0.79682446,252.0,-6.2107368,-13.473706,-0.05142212,0.08459473,0.039749146,-2.1704726,1.0519314,9.505413
34.80059081,31.26168937,0.0,0.06659904,10-26-46,0.3086965,0.1545316,-0.11363697,251.0,-6.876057,-13.978017,-0.05142212,0.08459473,0.039749146,-2.2759416,1.0665388,9.47908
34.80059081,31.26168937,0.0,0.06659904,10-26-46,0.3086965,0.1545316,-0.11363697,251.0,-8.204197,-14.47661,0.112197876,0.09661865,0.085876465,-2.2759416,1.0665388,9.47908
34.80059112,31.26168932,0.0,0.041056253,10-26-46,0.2249558,1.1813366,-0.8247576,251.0,-7.7386374,-15.029277,0.112197876,0.09661865,0.085876465,-2.4278598,1.2279303,9.421681
34.80059112,31.26168932,0.0,0.041056253,10-26-46,0.2249558,1.1813366,-0.8247576,251.0,-7.0204735,-14.856799,-0.10017395,0.056259155,0.0047302246,-2.4278598,1.2279303,9.421681
34.80059112,31.26168932,0.0,0.041056253,10-26-47,-0.36610556,0.08519602,-0.14801598,251.0,-6.3839583,-14.108866,-0.10017395,0.056259155,0.0047302246,-2.4552042,1.1692361,9.422062
34.80059112,31.26168932,0.0,0.041056253,10-26-47,-0.36610556,0.08519602,-0.14801598,251.0,-6.0850945,-13.980546,-0.065597534,-0.096343994,-0.0061035156,-2.4552042,1.1692361,9.422062
34.80059112,31.26168932,0.0,0.041056253,10-26-47,0.017209768,-0.5369288,0.9145546,251.0,-5.5246153,-14.270456,-0.065597534,-0.096343994,-0.0061035156,-2.378589,0.9704874,9.464189
34.80059112,31.26168932,0.0,0.041056253,10-26-47,0.017209768,-0.5369288,0.9145546,252.0,-5.520674,-15.025518,-0.056167603,0.10171509,0.014709473,-2.378589,0.9704874,9.464189
34.80059112,31.26168932,0.0,0.041056253,10-26-47,0.5504768,-0.18708074,-0.45241642,253.0,-5.2005496,-15.835859,-0.056167603,0.10171509,0.014709473,-2.515218,0.8868771,9.437029
34.80059112,31.26168932,0.0,0.041056253,10-26-47,0.5504768,-0.18708074,-0.45241642,254.0,-4.431502,-16.10539,-0.02885437,0.08691406,-0.15359497,-2.515218,0.8868771,9.437029
34.80059112,31.26168932,0.0,0.041056253,10-26-47,0.17481565,-0.8164685,-0.36097145,254.0,-4.0980773,-16.159258,-0.02885437,0.08691406,-0.15359497,-2.6812036,0.762098,9.402167
34.80059112,31.26168932,0.0,0.041056253,10-26-47,0.17481565,-0.8164685,-0.36097145,254.0,-4.4101634,-15.434795,0.009613037,-0.0683136,-0.018463135,-2.6812036,0.762098,9.402167
34.80059136,31.26168951,0.0,0.01238152,10-26-47,-1.0324392,-0.269552,0.08683205,254.0,-4.740514,-15.174246,0.009613037,-0.0683136,-0.018463135,-2.6662502,0.71373,9.410212
34.80059136,31.26168951,0.0,0.01238152,10-26-47,-1.0324392,-0.269552,0.08683205,254.0,-5.511591,-13.799064,0.061340332,-0.14567566,0.056747437,-2.6662502,0.71373,9.410212
34.80059136,31.26168951,0.0,0.01238152,10-26-48,0.24669027,0.39634,-0.035601616,254.0,-5.688321,-13.24467,0.061340332,-0.14567566,0.056747437,-2.4011958,0.85432136,9.469677
34.80059136,31.26168951,0.0,0.01238152,10-26-48,0.24669027,0.39634,-0.035601616,253.0,-5.801728,-14.241586,0.011489868,0.052124023,0.09107971,-2.4011958,0.85432136,9.469677
34.80059136,31.26168951,0.0,0.01238152,10-26-48,-0.67673683,0.32874048,0.17135811,253.0,-5.664947,-13.920146,0.011489868,0.052124023,0.09107971,-2.3220012,0.94171,9.4811325
34.80059136,31.26168951,0.0,0.01238152,10-26-48,-0.67673683,0.32874048,0.17135811,254.0,-5.389487,-13.73406,-0.047470093,-0.06462097,-0.0043029785,-2.3220012,0.94171,9.4811325
34.80059136,31.26168951,0.0,0.01238152,10-26-48,-0.2096448,0.116202116,0.26682472,255.0,-5.244529,-13.294618,-0.047470093,-0.06462097,-0.0043029785,-2.3233082,0.9027441,9.484602
34.80059136,31.26168951,0.0,0.01238152,10-26-48,-0.2096448,0.116202116,0.26682472,255.0,-5.962516,-13.614118,0.070251465,-0.0071411133,-0.08085632,-2.3233082,0.9027441,9.484602
34.80059136,31.26168951,0.0,0.01238152,10-26-48,0.6119106,-0.25276357,-0.28672695,256.0,-5.9556713,-13.619971,0.070251465,-0.0071411133,-0.08085632,-2.2691617,0.9471136,9.493381
34.80059136,31.26168951,0.0,0.01238152,10-26-48,0.6119106,-0.25276357,-0.28672695,257.0,-5.1152306,-14.155233,-0.021469116,0.031814575,-0.09106445,-2.2691617,0.9471136,9.493381
34.80059156,31.26168968,0.0,0.019992933,10-26-48,-0.43076634,0.38448173,0.21222115,257.0,-3.9286866,-14.01604,-0.021469116,0.031814575,-0.09106445,-2.3540049,0.88265437,9.478923
34.80059156,31.26168968,0.0,0.019992933,10-26-48,-0.43076634,0.38448173,0.21222115,257.0,-3.2645917,-13.821481,-0.20223999,-0.037612915,0.020401001,-2.3540049,0.88265437,9.478923
34.80059156,31.26168968,0.0,0.019992933,10-26-49,-0.5594249,-0.097381175,-0.2527361,257.0,-4.046367,-12.922577,-0.20223999,-0.037612915,0.020401001,-2.3471763,0.6566691,9.498944
34.80059156,31.26168968,0.0,0.019992933,10-26-49,-0.5594249,-0.097381175,-0.2527361,256.0,-4.4859033,-13.482364,0.10279846,-0.010986328,0.041900635,-2.3471763,0.6566691,9.498944
34.80059156,31.26168968,0.0,0.019992933,10-26-49,1.1405935,0.14641744,-0.18373585,255.0,-4.854477,-14.605621,0.10279846,-0.010986328,0.041900635,-2.3030143,0.69960314,9.506685
34.80059156,31.26168968,0.0,0.019992933,10-26-49,1.1405935,0.14641744,-0.18373585,255.0,-4.651203,-14.681199,-0.02848816,0.08747864,0.08842468,-2.3030143,0.69960314,9.506685
34.80059156,31.26168968,0.0,0.019992933,10-26-49,-1.1394093,0.76145416,-0.12654686,255.0,-3.6098576,-14.827286,-0.02848816,0.08747864,0.08842468,-2.4574265,0.77947056,9.461705
34.80059156,31.26168968,0.0,0.019992933,10-26-49,-1.1394093,0.76145416,-0.12654686,256.0,-3.240036,-13.658685,-0.09588623,-0.09370422,-0.04660034,-2.4574265,0.77947056,9.461705
34.80059156,31.26168968,0.0,0.019992933,10-26-49,-0.32371998,-0.9668875,-0.2115097,256.0,-3.3590522,-13.654184,-0.09588623,-0.09370422,-0.04660034,-2.3945792,0.61869925,9.489657
34.80059156,31.26168968,0.0,0.019992933,10-26-49,-0.32371998,-0.9668875,-0.2115097,256.0,-4.128742,-13.767911,0.08805847,0.013397217,0.0038604736,-2.3945792,0.61869925,9.489657
34.80058453,31.26168909,1.1101803,0.66452116,10-26-49,0.33218098,-0.1825183,0.4499836,257.0,-3.9003074,-15.152093,0.08805847,0.013397217,0.0038604736,-2.3366745,0.6272217,9.503522
34.80058453,31.26168909,1.1101803,0.66452116,10-26-49,0.33218098,-0.1825183,0.4499836,256.0,-3.6862116,-13.982359,-0.036590576,-0.009353638,0.013015747,-2.3366745,0.6272217,9.503522
34.80058453,31.26168909,1.1101803,0.66452116,10-26-50,-0.9802146,0.20120144,-0.48959637,257.0,-3.4715993,-13.630367,-0.036590576,-0.009353638,0.013015747,-2.4014785,0.6527751,9.48563
34.80058453,31.26168909,1.1101803,0.66452116,10-26-50,-0.9802146,0.20120144,-0.48959637,256.0,-3.695496,-12.554988,0.0053253174,-0.120162964,0.011245728,-2.4014785,0.6527751,9.48563
34.80058453,31.26168909,1.1101803,0.66452116,10-26-50,0.15025568,-0.37683368,-0.33302498,255.0,-3.9480584,-12.189077,0.0053253174,-0.120162964,0.011245728,-2.2308884,0.5896737,9.531307
34.80058453,31.26168909,1.1101803,0.66452116,10-26-50,0.15025568,-0.37683368,-0.33302498,254.0,-4.1462016,-12.323361,-0.01210022,-4.5776367E-5,0.18736267,-2.2308884,0.5896737,9.531307
34.80058453,31.26168909,1.1101803,0.66452116,10-26-50,0.11239004,0.34051198,0.80094147,254.0,-4.5423236,-12.337619,-0.01210022,-4.5776367E-5,0.18736267,-2.0996428,0.68195575,9.554937
34.80058453,31.26168909,1.1101803,0.66452116,10-26-50,0.11239004,0.34051198,0.80094147,255.0,-4.5494576,-12.843986,0.02897644,0.04360962,-0.017852783,-2.0996428,0.68195575,9.554937
34.80058453,31.26168909,1.1101803,0.66452116,10-26-50,-0.33441567,0.31779313,0.27849674,256.0,-4.4873633,-13.507221,0.02897644,0.04360962,-0.017852783,-2.1637747,0.7553483,9.535089
34.80058453,31.26168909,1.1101803,0.66452116,10-26-50,-0.33441567,0.31779313,0.27849674,256.0,-4.430315,-14.771477,0.02619934,0.17410278,-0.118255615,-2.1637747,0.7553483,9.535089
34.80055706,31.26169603,1.112205,3.357934,10-26-50,0.581887,-0.36696452,-0.47555923,258.0,-4.9782767,-15.65278,0.02619934,0.17410278,-0.118255615,-2.3640363,0.7456073,9.488193
34.80055706,31.26169603,1.112205,3.357934,10-26-50,-1.0467355,-0.046235263,-0.86612606,258.0,-4.422137,-15.299159,0.040863037,-0.0049438477,-0.15673828,-2.584876,0.7448213,9.430485
34.80055706,31.26169603,1.112205,3.357934,10-26-51,-1.0467355,-0.046235263,-0.86612606,258.0,-4.4450045,-14.609504,0.040863037,-0.0049438477,-0.15673828,-2.584876,0.7448213,9.430485
34.80055706,31.26169603,1.112205,3.357934,10-26-51,-0.8261385,-0.11137366,-0.9362011,259.0,-5.263689,-12.787239,0.1003418,-0.25439453,-0.08857727,-2.3643262,0.8188166,9.482082
34.80055706,31.26169603,1.112205,3.357934,10-26-51,-0.8261385,-0.11137366,-0.9362011,259.0,-5.7072716,-10.769459,0.1003418,-0.25439453,-0.08857727,-2.3643262,0.8188166,9.482082
34.80055706,31.26169603,1.112205,3.357934,10-26-51,1.029747,0.25631046,0.6812744,259.0,-5.807743,-10.139426,0.02279663,-0.19042969,0.10612488,-1.8804059,0.95256144,9.577426
34.80055706,31.26169603,1.112205,3.357934,10-26-51,1.029747,0.25631046,0.6812744,258.0,-6.335302,-9.054897,0.02279663,-0.19042969,0.10612488,-1.8804059,0.95256144,9.577426
34.80055706,31.26169603,1.112205,3.357934,10-26-51,-0.53902996,0.21108627,0.93190956,258.0,-6.838427,-8.943509,0.08590698,-0.11627197,0.059173584,-1.6129043,1.0880677,9.611713
34.80055706,31.26169603,1.112205,3.357934,10-26-51,-0.53902996,0.21108627,0.93190956,259.0,-7.385641,-8.368382,0.08590698,-0.11627197,0.059173584,-1.6129043,1.0880677,9.611713
34.80054265,31.26169131,0.9364828,4.655921,10-26-51,1.0921718,0.07615638,-0.037035942,260.0,-6.834438,-9.272618,0.01083374,0.04940796,-0.094696045,-1.5024731,1.182379,9.618469
34.80054265,31.26169131,0.9364828,4.655921,10-26-51,1.0921718,0.07615638,-0.037035942,260.0,-5.995822,-9.692937,0.01083374,0.04940796,-0.094696045,-1.5024731,1.182379,9.618469
34.80054265,31.26169131,0.9364828,4.655921,10-26-51,0.5391681,-0.39738142,0.045781136,261.0,-5.2483935,-10.530663,-0.11402893,0.11004639,-0.11125183,-1.655707,1.0353619,9.610258
34.80054265,31.26169131,0.9364828,4.655921,10-26-52,0.5391681,-0.39738142,0.045781136,261.0,-4.3196335,-10.619346,-0.11402893,0.11004639,-0.11125183,-1.655707,1.0353619,9.610258
34.80054265,31.26169131,0.9364828,4.655921,10-26-52,-1.2146626,0.06498724,-0.25666904,261.0,-4.3472176,-10.222564,-0.08042908,-0.05747986,-0.027526855,-1.784365,0.8268856,9.607429
34.80054265,31.26169131,0.9364828,4.655921,10-26-52,-1.2146626,0.06498724,-0.25666904,262.0,-4.393227,-9.848394,-0.08042908,-0.05747986,-0.027526855,-1.784365,0.8268856,9.607429
34.80054265,31.26169131,0.9364828,4.655921,10-26-52,0.31192386,0.04453063,-0.20648003,261.0,-4.0497375,-9.758172,-0.026748657,-0.028411865,-0.00592041,-1.6913084,0.71948075,9.632872
34.80054265,31.26169131,0.9364828,4.655921,10-26-52,0.31192386,0.04453063,-0.20648003,261.0,-3.5992846,-10.124599,-0.026748657,-0.028411865,-0.00592041,-1.6913084,0.71948075,9.632872
34.80054265,31.26169131,0.9364828,4.655921,10-26-52,0.1543839,-0.4211893,0.9625988,260.0,-4.764355,-11.445139,0.051330566,0.14222717,0.113601685,-1.739327,0.7103032,9.624998
34.80054265,31.26169131,0.9364828,4.655921,10-26-52,0.1543839,-0.4211893,0.9625988,258.0,-5.2063985,-12.369152,0.051330566,0.14222717,0.113601685,-1.739327,0.7103032,9.624998
34.80054265,31.26169131,0.9364828,4.655921,10-26-52,-1.1750464,-0.15400302,-0.8270788,259.0,-6.1896234,-11.598777,0.1006012,0.017410278,0.11412048,-1.9400522,0.8666086,9.573691
34.80053593,31.26170016,0.9408507,5.421816,10-26-52,-1.1750464,-0.15400302,-0.8270788,259.0,-6.75657,-11.678244,0.1006012,0.017410278,0.11412048,-1.9400522,0.8666086,9.573691
34.80053593,31.26170016,0.9408507,5.421816,10-26-52,1.2426524,0.34647238,-0.009250641,260.0,-6.463466,-12.501376,0.04534912,0.08670044,-0.14674377,-2.003622,1.0588301,9.541214
34.80053593,31.26170016,0.9408507,5.421816,10-26-53,1.2426524,0.34647238,-0.009250641,261.0,-5.563166,-12.824522,0.04534912,0.08670044,-0.14674377,-2.003622,1.0588301,9.541214
34.80053593,31.26170016,0.9408507,5.421816,10-26-53,-0.6494551,-0.33826762,-0.9606924,261.0,-4.629354,-11.988353,-0.13421631,-0.09561157,-0.053085327,-2.1231697,0.93890506,9.527906
34.80053593,31.26170016,0.9408507,5.421816,10-26-53,-0.6494551,-0.33826762,-0.9606924,261.0,-4.2707214,-10.957568,-0.13421631,-0.09561157,-0.053085327,-2.1231697,0.93890506,9.527906
34.80053593,31.26170016,0.9408507,5.421816,10-26-53,-0.35632813,0.17909181,0.0532341,261.0,-4.091582,-9.680053,-0.042175293,-0.21250916,-0.010437012,-1.9197737,0.74390745,9.58809
34.80053593,31.26170016,0.9408507,5.421816,10-26-53,-0.35632813,0.17909181,0.0532341,261.0,-4.3571615,-8.633797,-0.042175293,-0.21250916,-0.010437012,-1.9197737,0.74390745,9.58809
34.80053593,31.26170016,0.9408507,5.421816,10-26-53,1.0057315,-0.51242656,0.85381603,259.0,-4.8006644,-8.777515,0.039398193,-0.015075684,0.19889832,-1.5605128,0.727028,9.654357
34.80053593,31.26170016,0.9408507,5.421816,10-26-53,1.0057315,-0.51242656,0.85381603,258.0,-5.5921125,-9.660145,0.039398193,-0.015075684,0.19889832,-1.5605128,0.727028,9.654357
34.80052573,31.26170419,0.9304837,6.4711785,10-26-53,-0.17609656,0.5033237,0.8633776,258.0,-6.170486,-9.939963,0.08518982,0.111068726,0.10990906,-1.5690562,0.89612925,9.638744
34.80052573,31.26170419,0.9304837,6.4711785,10-26-53,-0.17609656,0.5033237,0.8633776,258.0,-6.826661,-9.734735,0.08518982,0.111068726,0.10990906,-1.5690562,0.89612925,9.638744
34.80052573,31.26170419,0.9304837,6.4711785,10-26-53,0.6292316,-0.19403374,-0.4479475,258.0,-7.54133,-10.408211,0.12057495,0.06390381,-0.0040283203,-1.6652651,1.1202272,9.599082
34.80052573,31.26170419,0.9304837,6.4711785,10-26-54,0.6292316,-0.19403374,-0.4479475,259.0,-7.74931,-10.899113,0.12057495,0.06390381,-0.0040283203,-1.6652651,1.1202272,9.599082
34.80052573,31.26170419,0.9304837,6.4711785,10-26-54,0.54109204,0.46287394,0.32906055,259.0,-7.204438,-12.051249,-0.036453247,0.15014648,-0.13667297,-1.7923546,1.2976536,9.55374
34.80052573,31.26170419,0.9304837,6.4711785,10-26-54,0.54109204,0.46287394,0.32906055,259.0,-5.799193,-13.558008,-0.036453247,0.15014648,-0.13667297,-1.7923546,1.2976536,9.55374
34.80052573,31.26170419,0.9304837,6.4711785,10-26-54,-1.0288992,0.686592,-0.42299652,260.0,-4.563812,-13.930957,-0.22286987,0.08784485,-0.13694763,-2.1679854,1.0995792,9.5005865
34.80052573,31.26170419,0.9304837,6.4711785,10-26-54,-1.0288992,0.686592,-0.42299652,261.0,-3.4382887,-13.447489,-0.22286987,0.08784485,-0.13694763,-2.1679854,1.0995792,9.5005865
34.80052573,31.26170419,0.9304837,6.4711785,10-26-54,0.3209064,-0.21130824,-0.09194851,262.0,-2.6632128,-13.793869,-0.104385376,0.03703308,-0.07009888,-2.3202224,0.6701313,9.504624
34.80052573,31.26170419,0.9304837,6.4711785,10-26-54,0.3209064,-0.21130824,-0.09194851,261.0,-3.0134997,-15.124142,-0.104385376,0.03703308,-0.07009888,-2.3202224,0.6701313,9.504624
34.80051403,31.26169908,1.1710678,7.453394,10-26-54,0.5996547,-0.5893475,0.39800072,260.0,-3.683561,-16.917566,0.04878235,0.26567078,0.13568115,-2.44989,0.50916654,9.482045
34.80051403,31.26169908,1.1710678,7.453394,10-26-54,0.5996547,-0.5893475,0.39800072,259.0,-3.9568155,-17.39992,0.04878235,0.26567078,0.13568115,-2.44989,0.50916654,9.482045
34.80051403,31.26169908,1.1710678,7.453394,10-26-54,-1.7877393,-0.18528193,-0.5308018,259.0,-4.8840322,-16.442099,0.11483765,-0.06526184,0.027160645,-2.8052018,0.62452877,9.376097
34.80051403,31.26169908,1.1710678,7.453394,10-26-55,-1.7877393,-0.18528193,-0.5308018,260.0,-5.475079,-16.904125,0.11483765,-0.06526184,0.027160645,-2.8052018,0.62452877,9.376097
34.80051403,31.26169908,1.1710678,7.453394,10-26-55,1.4273012,0.2629012,-0.19344234,260.0,-4.7725277,-17.527916,-0.03199768,0.097213745,-0.057159424,-2.8552117,0.80428284,9.34726
34.80051403,31.26169908,1.1710678,7.453394,10-26-55,1.4273012,0.2629012,-0.19344234,261.0,-4.2150087,-17.716267,-0.03199768,0.097213745,-0.057159424,-2.8552117,0.80428284,9.34726
34.80051403,31.26169908,1.1710678,7.453394,10-26-55,-0.05788827,-0.11303538,-0.3599062,261.0,-3.437731,-17.268566,-0.068115234,-0.055130005,-0.047973633,-2.9571528,0.752829,9.319811
34.80051403,31.26169908,1.1710678,7.453394,10-26-55,-0.05788827,-0.11303538,-0.3599062,261.0,-3.4481764,-16.598019,-0.068115234,-0.055130005,-0.047973633,-2.9571528,0.752829,9.319811
34.80051403,31.26169908,1.1710678,7.453394,10-26-55,-0.72227573,-0.21310443,-0.14188099,261.0,-4.173499,-15.685509,0.07019043,-0.15240479,0.004425049,-2.9015589,0.6049025,9.348018
34.80051403,31.26169908,1.1710678,7.453394,10-26-55,-0.72227573,-0.21310443,-0.14188099,261.0,-4.552623,-14.987152,0.07019043,-0.15240479,0.004425049,-2.9015589,0.6049025,9.348018
34.80051403,31.26169908,1.1710678,7.453394,10-26-55,0.8416407,0.07317984,-0.20809174,260.0,-4.659796,-15.228979,0.07019043,-0.15240479,0.004425049,-2.6317394,0.69326055,9.421451
34.80050202,31.26170883,1.1000454,8.786455,10-26-55,-0.67953753,0.050240695,0.91929626,259.0,-5.1772475,-14.920913,0.0027770996,-0.014953613,0.119125366,-2.551335,0.82630324,9.432831
34.80050202,31.26170883,1.1000454,8.786455,10-26-55,-0.67953753,0.050240695,0.91929626,258.0,-5.1932673,-15.257334,0.028747559,-0.0039367676,0.09994507,-2.551335,0.82630324,9.432831
34.80050202,31.26170883,1.1000454,8.786455,10-26-56,-0.22117901,-0.32607955,-0.23794556,259.0,-6.0420265,-14.211737,0.028747559,-0.0039367676,0.09994507,-2.4764802,0.9378474,9.442345
34.80050202,31.26170883,1.1000454,8.786455,10-26-56,-0.22117901,-0.32607955,-0.23794556,259.0,-6.1717477,-14.664017,0.08332825,0.0014038086,-0.060913086,-2.4764802,0.9378474,9.442345
34.80050202,31.26170883,1.1000454,8.786455,10-26-56,0.7613468,0.031503856,-0.07234001,260.0,-5.434289,-15.066195,0.08332825,0.0014038086,-0.060913086,-2.4557352,0.96980333,9.444534
34.80050202,31.26170883,1.1000454,8.786455,10-26-56,0.7613468,0.031503856,-0.07234001,260.0,-5.379493,-15.071717,0.08332825,0.0014038086,-0.060913086,-2.4557352,0.96980333,9.444534
34.80050202,31.26170883,1.1000454,8.786455,10-26-56,-0.29830098,0.19599241,0.25734234,261.0,-4.3479257,-15.760237,-0.04396057,0.040222168,-0.103652954,-2.6100965,0.8322613,9.416216
34.80050202,31.26170883,1.1000454,8.786455,10-26-56,-0.29830098,0.19599241,0.25734234,261.0,-3.9483724,-15.392179,-0.04396057,0.040222168,-0.103652954,-2.6100965,0.8322613,9.416216
34.80050202,31.26170883,1.1000454,8.786455,10-26-56,-0.2328825,0.5083575,-0.06714344,262.0,-3.9968636,-15.095104,-0.10437012,-0.026550293,-0.06047058,-2.6065614,0.71597147,9.426749
34.80049671,31.26171743,0.9625487,9.543108,10-26-56,-0.2328825,0.5083575,-0.06714344,262.0,-3.425781,-15.5621,-0.10437012,-0.026550293,-0.06047058,-2.6065614,0.71597147,9.426749
34.80049671,31.26171743,0.9625487,9.543108,10-26-56,1.1484389,-0.22939038,-0.1355114,262.0,-3.5744774,-16.663673,-0.03263855,0.05319214,-0.087631226,-2.6447597,0.6240394,9.422643
34.80049671,31.26171743,0.9625487,9.543108,10-26-56,1.1484389,-0.22939038,-0.1355114,261.0,-3.4243789,-16.915771,-0.039749146,0.077178955,0.16558838,-2.6447597,0.6240394,9.422643
34.80049671,31.26171743,0.9625487,9.543108,10-26-57,-1.4708087,-0.72070163,-0.58771896,259.0,-3.6151347,-15.763537,-0.039749146,0.077178955,0.16558838,-2.7799542,0.5731459,9.386892
34.80049671,31.26171743,0.9625487,9.543108,10-26-57,-1.4708087,-0.72070163,-0.58771896,259.0,-4.5863166,-14.159558,0.11909485,-0.2583313,0.10501099,-2.7799542,0.5731459,9.386892
34.80049671,31.26171743,0.9625487,9.543108,10-26-57,0.7243233,-0.17969054,1.2890244,259.0,-5.8015366,-13.612404,0.11909485,-0.2583313,0.10501099,-2.470108,0.7661219,9.459493
34.80049671,31.26171743,0.9625487,9.543108,10-26-57,0.7243233,-0.17969054,1.2890244,260.0,-6.3782754,-15.114763,0.11909485,-0.2583313,0.10501099,-2.470108,0.7661219,9.459493
34.80049671,31.26171743,0.9625487,9.543108,10-26-57,0.9743116,0.5522113,0.27544975,260.0,-6.2599483,-16.06343,0.121520996,0.1837616,-0.03303528,-2.4772706,1.0069598,9.435017
34.80049671,31.26171743,0.9625487,9.543108,10-26-57,0.9743116,0.5522113,0.27544975,260.0,-5.3931317,-17.78866,0.121520996,0.1837616,-0.03303528,-2.4772706,1.0069598,9.435017
34.80049671,31.26171743,0.9625487,9.543108,10-26-57,-0.8547964,-0.22942281,-0.2995119,260.0,-5.5114503,-17.981537,-0.062072754,0.18417358,-0.0940094,-2.8800647,0.9570887,9.3252125
34.80047838,31.26171873,1.0601885,11.2494755,10-26-57,-0.8547964,-0.22942281,-0.2995119,261.0,-4.978974,-18.328794,-0.062072754,0.18417358,-0.0940094,-2.8800647,0.9570887,9.3252125
34.80047838,31.26171873,1.0601885,11.2494755,10-26-57,-0.24126577,0.5076597,-0.64553165,261.0,-4.438638,-18.03039,-0.03981018,0.014434814,-0.057662964,-3.0383654,0.8392273,9.286249
34.80047838,31.26171873,1.0601885,11.2494755,10-26-57,-0.24126577,0.5076597,-0.64553165,261.0,-4.262974,-17.96698,-0.03981018,0.014434814,-0.057662964,-3.0383654,0.8392273,9.286249
34.80047838,31.26171873,1.0601885,11.2494755,10-26-58,0.42492318,-0.80822945,0.15559864,259.0,-4.690999,-18.391405,-0.03538513,-0.017623901,-0.0016479492,-3.0406742,0.72423154,9.29517
34.80047838,31.26171873,1.0601885,11.2494755,10-26-58,0.42492318,-0.80822945,0.15559864,258.0,-6.0545483,-18.751398,-0.03538513,-0.017623901,-0.0016479492,-3.0406742,0.72423154,9.29517
34.80047838,31.26171873,1.0601885,11.2494755,10-26-58,-0.96168923,0.020751357,-0.6171417,257.0,-6.4520793,-18.243721,0.084854126,0.09500122,0.24153137,-3.1200364,0.8841804,9.254944
34.80047838,31.26171873,1.0601885,11.2494755,10-26-58,-0.96168923,0.020751357,-0.6171417,257.0,-6.4092073,-16.896511,0.084854126,0.09500122,0.24153137,-3.1200364,0.8841804,9.254944
34.80047838,31.26171873,1.0601885,11.2494755,10-26-58,0.8072305,0.23555541,-0.1300106,258.0,-6.1016045,-16.815458,-0.0066986084,-0.17553711,0.051879883,-2.9579966,1.0345646,9.292487
34.80047838,31.26171873,1.0601885,11.2494755,10-26-58,0.8072305,0.23555541,-0.1300106,258.0,-5.7598524,-16.376106,-0.0066986084,-0.17553711,0.051879883,-2.9579966,1.0345646,9.292487
34.80047838,31.26171873,1.0601885,11.2494755,10-26-58,0.5526943,0.13427472,0.1031065,259.0,-4.759392,-16.515467,-0.022155762,-0.020065308,-0.10935974,-2.8073025,0.9416294,9.348945
34.80046754,31.26171618,1.0107918,12.170006,10-26-58,0.5526943,0.13427472,0.1031065,259.0,-4.883203,-15.218245,-0.022155762,-0.020065308,-0.10935974,-2.8073025,0.9416294,9.348945
34.80046754,31.26171618,1.0107918,12.170006,10-26-58,-1.0818124,0.10325664,-0.054073334,260.0,-4.5319805,-14.043416,-0.05908203,-0.1569519,-0.037704468,-2.6655738,0.8209744,9.401654
34.80046754,31.26171618,1.0107918,12.170006,10-26-58,-1.0818124,0.10325664,-0.054073334,260.0,-4.433134,-13.181136,-0.05908203,-0.1569519,-0.037704468,-2.6655738,0.8209744,9.401654
34.80046754,31.26171618,1.0107918,12.170006,10-26-59,1.5209272,-0.2349447,0.6312895,260.0,-4.696344,-13.791205,-0.023147583,-0.11868286,-0.023010254,-2.333738,0.7611071,9.49446
34.80046754,31.26171618,1.0107918,12.170006,10-26-59,1.5209272,-0.2349447,0.6312895,258.0,-4.7183714,-14.37053,-0.023147583,-0.11868286,-0.023010254,-2.333738,0.7611071,9.49446
34.80046754,31.26171618,1.0107918,12.170006,10-26-59,-0.26629424,0.056137502,0.69623184,258.0,-5.290544,-14.424867,-0.0030670166,0.11305237,0.15696716,-2.3676696,0.79717165,9.483092
34.80046754,31.26171618,1.0107918,12.170006,10-26-59,-0.26629424,0.056137502,0.69623184,258.0,-6.2028475,-14.464679,-0.0030670166,0.11305237,0.15696716,-2.3676696,0.79717165,9.483092
34.80046754,31.26171618,1.0107918,12.170006,10-26-59,0.2267642,-0.3091548,0.1989193,258.0,-6.759977,-14.954045,0.14984131,0.023605347,-0.0068359375,-2.461103,0.95571095,9.444573
34.80046754,31.26171618,1.0107918,12.170006,10-26-59,0.2267642,-0.3091548,0.1989193,258.0,-6.8087068,-16.19569,0.14984131,0.023605347,-0.0068359375,-2.461103,0.95571095,9.444573
34.80046754,31.26171618,1.0107918,12.170006,10-26-59,1.225328,0.37942195,-0.28415108,259.0,-5.8510814,-17.874949,-0.010299683,0.21182251,-0.0067443848,-2.6407387,1.0784848,9.38263
34.80045403,31.26171475,1.16,13.387776,10-26-59,1.225328,0.37942195,-0.28415108,258.0,-4.0823255,-18.432852,-0.010299683,0.21182251,-0.0067443848,-2.6407387,1.0784848,9.38263
34.80045403,31.26171475,1.16,13.387776,10-26-59,-1.8360689,-0.08431947,-0.50050354,258.0,-2.872133,-17.839489,-0.24107361,0.09333801,-0.013763428,-3.011466,0.809,9.297687
34.80045403,31.26171475,1.16,13.387776,10-27-00,-1.8360689,-0.08431947,-0.50050354,258.0,-2.3098304,-17.53336,-0.24107361,0.09333801,-0.013763428,-3.011466,0.809,9.297687
34.80045403,31.26171475,1.16,13.387776,10-27-00,-0.03740692,-0.0052474737,0.103012085,258.0,-2.380173,-18.110332,-0.13197327,-0.0778656,0.018798828,-3.012823,0.47203374,9.320433
34.80045403,31.26171475,1.16,13.387776,10-27-00,-0.03740692,-0.0052474737,0.103012085,256.0,-2.3904302,-18.872656,-0.13197327,-0.0778656,0.018798828,-3.012823,0.47203374,9.320433
34.80045403,31.26171475,1.16,13.387776,10-27-00,-0.28769898,-0.20727599,-0.2793789,255.0,-3.1673717,-18.805056,-0.033996582,0.105529785,0.19412231,-3.050526,0.3851219,9.312161
34.80045403,31.26171475,1.16,13.387776,10-27-00,-0.28769898,-0.20727599,-0.2793789,255.0,-2.750222,-18.836576,-0.033996582,0.105529785,0.19412231,-3.050526,0.3851219,9.312161
34.80045403,31.26171475,1.16,13.387776,10-27-00,-0.86574316,0.49504936,-0.3313341,255.0,-2.6375687,-17.443804,-0.020828247,-0.044830322,0.056427002,-3.1392267,0.43536782,9.280415
34.80045403,31.26171475,1.16,13.387776,10-27-00,-0.86574316,0.49504936,-0.3313341,256.0,-2.6899066,-18.10197,-0.020828247,-0.044830322,0.056427002,-3.1392267,0.43536782,9.280415
34.80045403,31.26171475,1.16,13.387776,10-27-00,1.4609146,-0.23639292,0.24455547,257.0,-2.718671,-18.509832,0.03453064,0.019180298,-0.081100464,-3.0400777,0.42708835,9.313748
34.80043781,31.26170933,1.0301942,14.800904,10-27-00,1.4609146,-0.23639292,0.24455547,258.0,-2.7200108,-18.947607,0.03453064,0.019180298,-0.081100464,-3.0400777,0.42708835,9.313748
34.80043781,31.26170933,1.0301942,14.800904,10-27-00,-0.033717632,-0.29730687,-0.20232677,258.0,-2.3791986,-19.069187,0.035583496,0.064575195,-0.1179657,-3.1215837,0.4237517,9.286901
34.80043781,31.26170933,1.0301942,14.800904,10-27-01,-0.90635395,0.96380305,-0.24062824,259.0,-1.3525543,-18.245253,0.035583496,0.064575195,-0.1179657,-3.1413357,0.33218992,9.283967
34.80043781,31.26170933,1.0301942,14.800904,10-27-01,-0.90635395,0.96380305,-0.24062824,260.0,-0.5422867,-17.75783,-0.11489868,-0.118255615,-0.13070679,-3.1413357,0.33218992,9.283967
34.80043781,31.26170933,1.0301942,14.800904,10-27-01,0.8674445,-0.49484676,0.4939623,261.0,-0.05797161,-18.140856,-0.11489868,-0.118255615,-0.13070679,-3.0364928,0.089526236,9.324274
34.80043781,31.26170933,1.0301942,14.800904,10-27-01,0.8674445,-0.49484676,0.4939623,260.0,-0.6942312,-18.90733,-0.031188965,0.060653687,-0.06437683,-3.0364928,0.089526236,9.324274
34.80043781,31.26170933,1.0301942,14.800904,10-27-01,-0.6987705,-0.90065396,-0.39207363,258.0,-1.7912607,-18.967463,-0.031188965,0.060653687,-0.06437683,-3.1327841,0.14455204,9.291672
34.80043781,31.26170933,1.0301942,14.800904,10-27-01,-0.6987705,-0.90065396,-0.39207363,256.0,-4.0272737,-18.098295,0.1334076,-0.0037231445,0.2629242,-3.1327841,0.14455204,9.291672
34.80043781,31.26170933,1.0301942,14.800904,10-27-01,-0.1371324,1.0226889,-0.030780792,257.0,-5.758617,-17.30153,0.1334076,-0.0037231445,0.2629242,-3.0306613,0.6604512,9.303186
34.80043781,31.26170933,1.0301942,14.800904,10-27-01,-0.1371324,1.0226889,-0.030780792,258.0,-5.66216,-17.27854,0.25534058,-0.12701416,0.030136108,-3.0306613,0.6604512,9.303186
34.80042596,31.26170609,0.980816,15.872296,10-27-01,0.9440646,0.15922362,-0.2992487,259.0,-4.818894,-17.529404,0.25534058,-0.12701416,0.030136108,-2.8974326,0.8677431,9.328574
34.80042596,31.26170609,0.980816,15.872296,10-27-01,0.9440646,0.15922362,-0.2992487,260.0,-4.3961463,-17.132854,-0.062286377,0.049484253,-0.17677307,-2.8974326,0.8677431,9.328574
34.80042596,31.26170609,0.980816,15.872296,10-27-02,-0.316324,-0.9092095,0.14899445,259.0,-4.5171366,-16.435518,-0.062286377,0.049484253,-0.17677307,-2.8682516,0.72475916,9.349772
34.80042596,31.26170609,0.980816,15.872296,10-27-02,-0.316324,-0.9092095,0.14899445,260.0,-5.328026,-15.624843,0.05732727,-0.17156982,0.013626099,-2.8682516,0.72475916,9.349772
34.80042596,31.26170609,0.980816,15.872296,10-27-02,-0.021147966,0.82049143,0.20265579,260.0,-4.6376405,-15.563392,0.05732727,-0.17156982,0.013626099,-2.698318,0.7640885,9.397108
34.80042596,31.26170609,0.980816,15.872296,10-27-02,-0.021147966,0.82049143,0.20265579,260.0,-4.304445,-14.506666,-0.059753418,-0.06643677,-0.014877319,-2.698318,0.7640885,9.397108
34.80042596,31.26170609,0.980816,15.872296,10-27-02,1.1853318,-0.57137716,0.21827602,259.0,-4.53677,-14.880891,-0.059753418,-0.06643677,-0.014877319,-2.5274503,0.7397389,9.446437
34.80042596,31.26170609,0.980816,15.872296,10-27-02,1.1853318,-0.57137716,0.21827602,257.0,-5.4781265,-15.804668,0.022918701,0.05671692,0.124816895,-2.5274503,0.7397389,9.446437
34.80042596,31.26170609,0.980816,15.872296,10-27-02,-1.3239055,0.37110347,-0.08162403,257.0,-6.2625866,-14.644822,0.022918701,0.05671692,0.124816895,-2.522315,0.8850044,9.43531
34.80042596,31.26170609,0.980816,15.872296,10-27-02,-1.3239055,0.37110347,-0.08162403,258.0,-6.611028,-13.438789,0.12402344,-0.13404846,0.026748657,-2.522315,0.8850044,9.43531
34.80041494,31.26170666,0.92541885,16.922226,10-27-02,1.4560747,-0.2163024,0.8049364,258.0,-6.9212294,-14.380122,0.12402344,-0.13404846,0.026748657,-2.380198,1.0653148,9.453579
34.80041494,31.26170666,0.92541885,16.922226,10-27-02,1.4560747,-0.2163024,0.8049364,258.0,-6.5578666,-15.643384,0.03062439,0.11967468,0.015594482,-2.380198,1.0653148,9.453579
34.80041494,31.26170666,0.92541885,16.922226,10-27-03,0.26516128,0.055263758,-0.46883488,259.0,-5.5549736,-16.127928,0.03062439,0.11967468,0.015594482,-2.5226774,1.0480657,9.418495
34.80041494,31.26170666,0.92541885,16.922226,10-27-03,0.26516128,0.055263758,-0.46883488,259.0,-4.63103,-16.135687,-0.13264465,0.108306885,-0.07601929,-2.5226774,1.0480657,9.418495
34.80041494,31.26170666,0.92541885,16.922226,10-27-03,-0.7905898,-0.23653513,-0.232584,259.0,-4.3232045,-15.868706,-0.13264465,0.108306885,-0.07601929,-2.7040706,0.83190924,9.389692
34.80041494,31.26170666,0.92541885,16.922226,10-27-03,-0.7905898,-0.23653513,-0.232584,259.0,-4.104543,-16.076008,-0.079818726,-0.04322815,-0.009643555,-2.7040706,0.83190924,9.389692
34.80041494,31.26170666,0.92541885,16.922226,10-27-03,-0.66187763,0.061965287,0.17269993,260.0,-4.3021855,-15.050019,-0.079818726,-0.04322815,-0.009643555,-2.6376958,0.7049855,9.418914
34.80041494,31.26170666,0.92541885,16.922226,10-27-03,-0.66187763,0.061965287,0.17269993,259.0,-4.4730477,-15.919428,0.02809143,-0.0388031,0.001739502,-2.6376958,0.7049855,9.418914
34.80041494,31.26170666,0.92541885,16.922226,10-27-03,0.5629878,-0.38304108,0.44163132,258.0,-4.736253,-16.455301,0.02809143,-0.0388031,0.001739502,-2.6508472,0.69742554,9.415785
34.80041494,31.26170666,0.92541885,16.922226,10-27-03,0.5629878,-0.38304108,0.44163132,257.0,-5.6357226,-16.793503,0.011795044,0.1158905,0.17433167,-2.6508472,0.69742554,9.415785
34.80040055,31.26170771,1.1022251,18.297207,10-27-03,-0.81429696,-0.010755062,0.24202633,257.0,-6.831684,-16.132961,0.011795044,0.1158905,0.17433167,-2.7791657,0.8904105,9.36236
34.80040055,31.26170771,1.1022251,18.297207,10-27-03,-0.81429696,-0.010755062,0.24202633,258.0,-7.5932198,-17.552483,0.204422,-0.016281128,-0.031539917,-2.7791657,0.8904105,9.36236
34.80040055,31.26170771,1.1022251,18.297207,10-27-04,1.8697641,0.09518945,0.40165997,258.0,-7.5433908,-19.899883,0.204422,-0.016281128,-0.031539917,-2.9114747,1.1437237,9.294385
34.80040055,31.26170771,1.1022251,18.297207,10-27-04,1.8697641,0.09518945,0.40165997,259.0,-7.144783,-21.10663,0.0019683838,0.36621094,-0.08332825,-2.9114747,1.1437237,9.294385
34.80040055,31.26170771,1.1022251,18.297207,10-27-04,-0.96680474,0.40740573,-1.1289997,259.0,-6.014656,-21.452518,0.0019683838,0.36621094,-0.08332825,-3.415871,1.1399019,9.121559
34.80040055,31.26170771,1.1022251,18.297207,10-27-04,-0.96680474,0.40740573,-1.1289997,260.0,-5.235563,-20.340618,-0.102264404,-0.03315735,-0.118377686,-3.415871,1.1399019,9.121559
34.80040055,31.26170771,1.1022251,18.297207,10-27-04,-0.76635456,0.23259515,-0.055477142,260.0,-4.245811,-19.781694,-0.102264404,-0.03315735,-0.118377686,-3.4955533,0.90393436,9.117806
34.80040055,31.26170771,1.1022251,18.297207,10-27-04,-0.76635456,0.23259515,-0.055477142,260.0,-3.2441483,-20.61164,-0.16828918,-0.05381775,-0.03565979,-3.4955533,0.90393436,9.117806
34.80040055,31.26170771,1.1022251,18.297207,10-27-04,1.1488175,0.09900886,-0.026495934,260.0,-2.977784,-21.370804,-0.16828918,-0.05381775,-0.03565979,-3.3976974,0.63566715,9.177253
34.80040055,31.26170771,1.1022251,18.297207,10-27-04,1.1488175,0.09900886,-0.026495934,259.0,-2.6493464,-20.953056,-0.10017395,0.113098145,0.035507202,-3.3976974,0.63566715,9.177253
34.80039029,31.26170926,1.0507616,19.287489,10-27-04,-0.9064274,-0.6547246,-0.14757824,259.0,-3.6445599,-20.284311,-0.10017395,0.113098145,0.035507202,-3.4841623,0.4801387,9.15426
34.80039029,31.26170926,1.0507616,19.287489,10-27-04,-0.9064274,-0.6547246,-0.14757824,258.0,-5.076667,-20.33044,0.15185547,-0.08868408,0.10688782,-3.4841623,0.4801387,9.15426
34.80039029,31.26170926,1.0507616,19.287489,10-27-05,-0.5265503,-0.5729423,-0.104317665,258.0,-6.504421,-19.045479,0.15185547,-0.08868408,0.10688782,-3.3821456,0.7000335,9.178313
34.80039029,31.26170926,1.0507616,19.287489,10-27-05,-0.5265503,-0.5729423,-0.104317665,258.0,-6.374892,-19.080734,0.14732361,-0.11160278,0.075149536,-3.3821456,0.7000335,9.178313
34.80039029,31.26170926,1.0507616,19.287489,10-27-05,1.6925359,0.5577473,-0.09321499,258.0,-5.4824514,-19.533104,0.14732361,-0.11160278,0.075149536,-3.2410214,0.96913415,9.204724
34.80039029,31.26170926,1.0507616,19.287489,10-27-05,1.6925359,0.5577473,-0.09321499,259.0,-4.999961,-19.157064,-0.09402466,0.05343628,-0.070632935,-3.2410214,0.96913415,9.204724
34.80039029,31.26170926,1.0507616,19.287489,10-27-05,-0.93293285,-0.03909242,-0.33668137,259.0,-5.0446453,-17.737345,-0.09402466,0.05343628,-0.070632935,-3.20568,0.89114624,9.224958
34.80039029,31.26170926,1.0507616,19.287489,10-27-05,-0.93293285,-0.03909242,-0.33668137,260.0,-4.990373,-16.972248,-0.013244629,-0.20355225,-0.041259766,-3.20568,0.89114624,9.224958
34.80039029,31.26170926,1.0507616,19.287489,10-27-05,-0.23070168,0.7003447,0.45176125,261.0,-4.8700705,-15.724049,-0.013244629,-0.20355225,-0.041259766,-2.971392,0.818937,9.309703
34.80039029,31.26170926,1.0507616,19.287489,10-27-05,-0.23070168,0.7003447,0.45176125,260.0,-5.125767,-15.765429,0.0049438477,-0.13470459,-0.049468994,-2.971392,0.818937,9.309703
34.80037646,31.26170014,1.0104455,20.51387,10-27-05,1.3920486,-0.48423982,0.5665684,260.0,-5.280603,-16.354986,0.0049438477,-0.13470459,-0.049468994,-2.7202592,0.82173806,9.385911
34.80037646,31.26170014,1.0104455,20.51387,10-27-05,1.3920486,-0.48423982,0.5665684,258.0,-5.3994823,-16.648293,-0.012435913,0.10081482,0.17808533,-2.7202592,0.82173806,9.385911
34.80037646,31.26170014,1.0104455,20.51387,10-27-06,-0.7655802,-0.34418178,-0.2814083,257.0,-6.086016,-16.06613,-0.012435913,0.10081482,0.17808533,-2.7653694,0.8790947,9.367514
34.80037646,31.26170014,1.0104455,20.51387,10-27-06,-0.13024712,0.12271774,0.089362144,258.0,-6.550998,-15.088771,0.07499695,-0.12890625,0.063827515,-2.6717446,0.9955751,9.383017
34.80037646,31.26170014,1.0104455,20.51387,10-27-06,-0.13024712,0.12271774,0.089362144,258.0,-6.5730824,-15.58756,0.07499695,-0.12890625,0.063827515,-2.6717446,0.9955751,9.383017
34.80037646,31.26170014,1.0104455,20.51387,10-27-06,1.1155944,-0.18006921,0.02734375,258.0,-6.2208138,-16.701313,0.024291992,0.12475586,-0.05682373,-2.655153,1.0356127,9.383392
34.80037646,31.26170014,1.0104455,20.51387,10-27-06,1.1155944,-0.18006921,0.02734375,259.0,-5.8089724,-16.874165,0.024291992,0.12475586,-0.05682373,-2.655153,1.0356127,9.383392
34.80037646,31.26170014,1.0104455,20.51387,10-27-06,-0.9578886,-0.0218997,-0.26283932,258.0,-4.960366,-16.464146,-0.07345581,0.014205933,-0.06695557,-2.8141842,0.8936141,9.351588
34.80037646,31.26170014,1.0104455,20.51387,10-27-06,-0.9578886,-0.0218997,-0.26283932,259.0,-4.8263464,-15.1599245,-0.07345581,0.014205933,-0.06695557,-2.8141842,0.8936141,9.351588
34.80037646,31.26170014,1.0104455,20.51387,10-27-06,0.4493034,0.26771384,0.82602024,260.0,-5.4381075,-14.859039,-0.016845703,-0.19854736,-0.048217773,-2.6200273,0.83749574,9.412993
34.80036261,31.26169322,1.0607544,21.802975,10-27-06,0.4493034,0.26771384,0.82602024,260.0,-5.4416966,-16.35526,-0.016845703,-0.19854736,-0.048217773,-2.6200273,0.83749574,9.412993
34.80036261,31.26169322,1.0607544,21.802975,10-27-06,0.1691308,0.00628078,-0.6307678,259.0,-5.6791763,-16.990826,0.025024414,0.22634888,0.032348633,-2.6875193,0.89941704,9.38822
34.80036261,31.26169322,1.0607544,21.802975,10-27-07,0.1691308,0.00628078,-0.6307678,258.0,-6.2818675,-16.793613,0.025024414,0.22634888,0.032348633,-2.6875193,0.89941704,9.38822
34.80036261,31.26169322,1.0607544,21.802975,10-27-07,-0.23928833,0.33372843,0.47730827,258.0,-6.4643216,-16.99239,0.05239868,-0.011169434,0.06098938,-2.8606334,0.9840638,9.328386
34.80036261,31.26169322,1.0607544,21.802975,10-27-07,-0.23928833,0.33372843,0.47730827,258.0,-6.7249904,-17.203495,0.05239868,-0.011169434,0.06098938,-2.8606334,0.9840638,9.328386
34.80036261,31.26169322,1.0607544,21.802975,10-27-07,0.47143102,0.073681235,-0.07678032,259.0,-6.954422,-17.537954,0.07609558,0.03729248,-0.07722473,-2.887293,1.0857537,9.30887
34.80036261,31.26169322,1.0607544,21.802975,10-27-07,0.47143102,0.073681235,-0.07678032,260.0,-6.76056,-18.513807,0.07609558,0.03729248,-0.07722473,-2.887293,1.0857537,9.30887
34.80036261,31.26169322,1.0607544,21.802975,10-27-07,0.042243004,0.15687704,-0.45213032,260.0,-6.1145263,-18.911287,-0.024353027,0.13478088,-0.0922699,-3.056892,1.0682395,9.256601
34.80036261,31.26169322,1.0607544,21.802975,10-27-07,0.042243004,0.15687704,-0.45213032,261.0,-5.178753,-17.64102,-0.024353027,0.13478088,-0.0922699,-3.056892,1.0682395,9.256601
34.80036261,31.26169322,1.0607544,21.802975,10-27-07,-0.9835949,-0.39705384,-0.035147667,261.0,-4.67976,-16.027678,-0.08683777,-0.24336243,-0.12030029,-2.9818609,0.8721748,9.301517
34.80035048,31.26168972,1.0800463,22.954397,10-27-07,-0.9835949,-0.39705384,-0.035147667,261.0,-4.660173,-16.535309,-0.08683777,-0.24336243,-0.12030029,-2.9818609,0.8721748,9.301517
34.80035048,31.26168972,1.0800463,22.954397,10-27-07,1.1792378,9.81152E-4,0.78536034,261.0,-4.651915,-17.96359,-0.029663086,0.11001587,0.033203125,-2.8302348,0.75922847,9.358618
34.80035048,31.26168972,1.0800463,22.954397,10-27-08,1.1792378,9.81152E-4,0.78536034,260.0,-4.4801207,-18.347563,-0.029663086,0.11001587,0.033203125,-2.8302348,0.75922847,9.358618
34.80035048,31.26168972,1.0800463,22.954397,10-27-08,-0.36376214,0.053765237,-0.4127884,259.0,-4.514645,-18.442337,-0.067108154,0.08149719,0.14216614,-3.0530746,0.73404545,9.290334
34.80035048,31.26168972,1.0800463,22.954397,10-27-08,-0.36376214,0.053765237,-0.4127884,259.0,-5.0182486,-17.980207,-0.067108154,0.08149719,0.14216614,-3.0530746,0.73404545,9.290334
34.80035048,31.26168972,1.0800463,22.954397,10-27-08,-0.20827794,-0.40896618,-0.27537537,260.0,-5.3421316,-17.090303,0.09069824,-0.10421753,-0.040237427,-3.0073807,0.77466154,9.301932
34.80035048,31.26168972,1.0800463,22.954397,10-27-08,-0.20827794,-0.40896618,-0.27537537,260.0,-5.792786,-17.548372,0.09069824,-0.10421753,-0.040237427,-3.0073807,0.77466154,9.301932
34.80035048,31.26168972,1.0800463,22.954397,10-27-08,0.7809253,0.05827248,0.15284252,261.0,-5.81981,-17.790617,0.07286072,0.049118042,-0.063812256,-2.915868,0.9001364,9.3197565
34.80035048,31.26168972,1.0800463,22.954397,10-27-08,0.7809253,0.05827248,0.15284252,261.0,-6.1853237,-18.5195,0.07286072,0.049118042,-0.063812256,-2.915868,0.9001364,9.3197565
34.80035048,31.26168972,1.0800463,22.954397,10-27-08,-1.1184275,-0.07693994,0.26599693,262.0,-6.0642505,-18.639208,0.0705719,0.048736572,-0.14396667,-3.07481,0.96093315,9.262426
34.8003418,31.26169069,1.0700468,23.78145,10-27-08,-1.1184275,-0.07693994,0.26599693,262.0,-6.173721,-17.653452,0.0705719,0.048736572,-0.14396667,-3.07481,0.96093315,9.262426
34.8003418,31.26169069,1.0700468,23.78145,10-27-08,-0.2242477,-0.81556535,0.027859688,261.0,-7.0927477,-16.924675,0.06652832,-0.14994812,0.07270813,-2.997299,1.0248293,9.280965
34.8003418,31.26169069,1.0700468,23.78145,10-27-09,-0.2242477,-0.81556535,0.027859688,259.0,-7.8591495,-18.228584,0.06652832,-0.14994812,0.07270813,-2.997299,1.0248293,9.280965
34.8003418,31.26169069,1.0700468,23.78145,10-27-09,0.88001084,0.71163917,-1.1215153,258.0,-7.746331,-17.873669,-0.019821167,0.15924072,0.24333191,-2.9509087,1.2059768,9.274057
34.8003418,31.26169069,1.0700468,23.78145,10-27-09,0.88001084,0.71163917,-1.1215153,257.0,-7.613691,-15.959682,-0.019821167,0.15924072,0.24333191,-2.9509087,1.2059768,9.274057
34.8003418,31.26169069,1.0700468,23.78145,10-27-09,-1.1977682,-0.11719215,0.16734314,257.0,-8.186035,-13.8224535,-0.0041046143,-0.33590698,0.10832214,-2.8085635,1.2712923,9.309467
34.8003418,31.26169069,1.0700468,23.78145,10-27-09,-1.1977682,-0.11719215,0.16734314,258.0,-8.793346,-13.504024,-0.0041046143,-0.33590698,0.10832214,-2.8085635,1.2712923,9.309467
34.8003418,31.26169069,1.0700468,23.78145,10-27-09,1.9223762,0.66794944,0.98062897,258.0,-8.222533,-15.102826,0.052383423,0.04899597,-0.047546387,-2.405924,1.3753892,9.406924
34.8003418,31.26169069,1.0700468,23.78145,10-27-09,1.9223762,0.66794944,0.98062897,260.0,-6.465181,-15.181228,0.052383423,0.04899597,-0.047546387,-2.405924,1.3753892,9.406924
34.8003418,31.26169069,1.0700468,23.78145,10-27-09,0.016060352,-0.021449447,-0.66480255,261.0,-4.750172,-14.861884,-0.2159729,-0.022125244,-0.25968933,-2.4663866,1.1705573,9.418977
34.80032819,31.26169134,0.99005055,25.078161,10-27-09,0.016060352,-0.021449447,-0.66480255,261.0,-4.012106,-15.021132,-0.2159729,-0.022125244,-0.25968933,-2.4663866,1.1705573,9.418977
34.80032819,31.26169134,0.99005055,25.078161,10-27-09,-0.6988394,-0.509521,0.27718067,261.0,-3.7086432,-14.382449,-0.09259033,-0.0287323,-0.036346436,-2.5135381,0.7613707,9.44843
34.80032819,31.26169134,0.99005055,25.078161,10-27-10,-0.6988394,-0.509521,0.27718067,262.0,-3.7949617,-13.776364,-0.09259033,-0.0287323,-0.036346436,-2.5135381,0.7613707,9.44843
34.80032819,31.26169134,0.99005055,25.078161,10-27-10,0.17241001,0.54862106,0.6433687,263.0,-3.475527,-14.731767,-0.021392822,-0.026748657,-0.07701111,-2.419485,0.6386605,9.482014
34.80032819,31.26169134,0.99005055,25.078161,10-27-10,0.17241001,0.54862106,0.6433687,262.0,-3.897653,-16.265368,-0.021392822,-0.026748657,-0.07701111,-2.419485,0.6386605,9.482014
34.80032819,31.26169134,0.99005055,25.078161,10-27-10,0.64062595,-0.6780954,-0.41432476,260.0,-4.199466,-16.620745,0.007980347,0.23480225,0.14416504,-2.5674,0.60745156,9.445097
34.80032819,31.26169134,0.99005055,25.078161,10-27-10,0.64062595,-0.6780954,-0.41432476,260.0,-5.4435863,-15.516253,0.007980347,0.23480225,0.14416504,-2.5674,0.60745156,9.445097
34.80032819,31.26169134,0.99005055,25.078161,10-27-10,-0.8572793,-0.17112589,-0.010199547,260.0,-6.799481,-14.991573,0.18676758,-0.15126038,0.07266235,-2.7106624,0.80212605,9.390383
34.80032819,31.26169134,0.99005055,25.078161,10-27-10,-0.8572793,-0.17112589,-0.010199547,260.0,-7.8827066,-15.843944,0.18676758,-0.15126038,0.07266235,-2.7106624,0.80212605,9.390383
34.80032819,31.26169134,0.99005055,25.078161,10-27-10,1.0446932,0.4802178,0.036554337,260.0,-7.7923794,-16.262506,0.102508545,0.12634277,0.011566162,-2.6272497,1.1403804,9.379098
34.80031843,31.26169505,1.020196,26.014158,10-27-10,1.0446932,0.4802178,0.036554337,261.0,-7.5785813,-16.045134,0.102508545,0.12634277,0.011566162,-2.6272497,1.1403804,9.379098
34.80031843,31.26169505,1.020196,26.014158,10-27-10,-0.25598383,-0.20077252,-0.18304253,261.0,-7.3580146,-15.802482,0.007736206,-0.056854248,-0.09614563,-2.725587,1.2490886,9.337094
34.80031843,31.26169505,1.020196,26.014158,10-27-11,-0.25598383,-0.20077252,-0.18304253,261.0,-6.767944,-14.804146,0.007736206,-0.056854248,-0.09614563,-2.725587,1.2490886,9.337094
34.80031843,31.26169505,1.020196,26.014158,10-27-11,-1.2098744,0.36426163,-0.36231995,262.0,-6.7382646,-12.802139,-0.055923462,-0.27545166,-0.043884277,-2.5766172,1.167028,9.38986
34.80031843,31.26169505,1.020196,26.014158,10-27-11,-1.2098744,0.36426163,-0.36231995,262.0,-6.6290674,-13.139846,-0.055923462,-0.27545166,-0.043884277,-2.5766172,1.167028,9.38986
34.80031843,31.26169505,1.020196,26.014158,10-27-11,1.9903109,-0.14562881,1.1432924,261.0,-6.30696,-14.375715,-0.056640625,0.16079712,0.09892273,-2.2927191,1.0774125,9.473806
34.80031843,31.26169505,1.020196,26.014158,10-27-11,-1.104981,-0.3488443,-0.27929878,259.0,-6.434071,-15.341282,-0.056640625,0.16079712,0.09892273,-2.4674819,1.0434003,9.433623
34.80031843,31.26169505,1.020196,26.014158,10-27-11,-1.104981,-0.3488443,-0.27929878,258.0,-6.528717,-14.492596,-0.02482605,0.032821655,0.15731812,-2.4674819,1.0434003,9.433623
34.80031843,31.26169505,1.020196,26.014158,10-27-11,1.0832794,0.36907983,0.4302826,260.0,-7.366671,-14.006298,-0.02482605,0.032821655,0.15731812,-2.4575255,1.1326524,9.425924
34.80031843,31.26169505,1.020196,26.014158,10-27-11,1.0832794,0.36907983,0.4302826,260.0,-6.9403467,-15.83667,0.07180786,0.08615112,-0.10072327,-2.4575255,1.1326524,9.425924
34.80030631,31.26169076,1.0916501,27.161598,10-27-11,0.020276785,-0.45654714,-1.0354567,261.0,-6.147673,-16.706123,0.07180786,0.08615112,-0.10072327,-2.6135173,1.0920862,9.388678
34.80030631,31.26169076,1.0916501,27.161598,10-27-11,0.020276785,-0.45654714,-1.0354567,261.0,-6.0335646,-16.30391,-0.037734985,0.042144775,-0.1365509,-2.6135173,1.0920862,9.388678
34.80030631,31.26169076,1.0916501,27.161598,10-27-12,-0.9008069,0.008406997,-0.110899925,262.0,-5.5394106,-16.000374,-0.037734985,0.042144775,-0.1365509,-2.7685707,0.9312861,9.361523
34.80030631,31.26169076,1.0916501,27.161598,10-27-12,-0.9008069,0.008406997,-0.110899925,263.0,-4.93483,-15.825176,-0.06565857,-0.08253479,-0.102371216,-2.7685707,0.9312861,9.361523
34.80030631,31.26169076,1.0916501,27.161598,10-27-12,-0.87195945,-0.18601787,0.6294651,263.0,-4.830195,-14.5859,-0.06565857,-0.08253479,-0.102371216,-2.5994499,0.8265322,9.419665
34.80030631,31.26169076,1.0916501,27.161598,10-27-12,-0.87195945,-0.18601787,0.6294651,263.0,-5.224018,-15.17154,0.028152466,-0.06274414,-0.020477295,-2.5994499,0.8265322,9.419665
34.80030631,31.26169076,1.0916501,27.161598,10-27-12,0.71697974,-0.02320379,-0.050540924,262.0,-5.1942286,-15.752945,0.028152466,-0.06274414,-0.020477295,-2.550369,0.8265184,9.433073
34.80030631,31.26169076,1.0916501,27.161598,10-27-12,0.71697974,-0.02320379,-0.050540924,262.0,-5.653368,-15.643019,0.025299072,0.0826416,0.037109375,-2.550369,0.8265184,9.433073
34.80030631,31.26169076,1.0916501,27.161598,10-27-12,-0.16491604,0.22264868,-0.32716084,263.0,-6.179617,-14.248297,0.025299072,0.0826416,0.037109375,-2.544645,0.9444133,9.423548
34.80030631,31.26169076,1.0916501,27.161598,10-27-12,-0.16491604,0.22264868,-0.32716084,263.0,-6.516312,-13.998097,0.0909729,-0.15324402,-0.03378296,-2.544645,0.9444133,9.423548
34.80029188,31.26169508,1.0401922,28.542274,10-27-12,1.3542325,0.13048613,0.38575268,264.0,-6.3685956,-14.631679,0.0909729,-0.15324402,-0.03378296,-2.409715,1.0333037,9.449653
34.80029188,31.26169508,1.0401922,28.542274,10-27-12,1.3542325,0.13048613,0.38575268,265.0,-5.6066995,-15.679084,-0.030380249,0.13816833,-0.10682678,-2.409715,1.0333037,9.449653
34.80029188,31.26169508,1.0401922,28.542274,10-27-13,-1.396812,-0.24630612,-0.9557667,263.0,-4.5035214,-14.361132,-0.030380249,0.13816833,-0.10682678,-2.4966342,0.8869091,9.441959
34.80029188,31.26169508,1.0401922,28.542274,10-27-13,-1.396812,-0.24630612,-0.9557667,264.0,-4.080842,-12.697246,-0.16403198,-0.26087952,0.043533325,-2.4966342,0.8869091,9.441959
34.80029188,31.26169508,1.0401922,28.542274,10-27-13,0.43349218,-0.17129296,0.7793398,264.0,-4.2555904,-11.209688,-0.16403198,-0.26087952,0.043533325,-2.1651986,0.7153017,9.537853
34.80029188,31.26169508,1.0401922,28.542274,10-27-13,0.43349218,-0.17129296,0.7793398,262.0,-4.996487,-12.685088,0.045776367,-0.00894165,0.134552,-2.1651986,0.7153017,9.537853
34.80029188,31.26169508,1.0401922,28.542274,10-27-13,0.59960485,0.23639196,0.46441746,260.0,-5.0801053,-13.636674,0.045776367,-0.00894165,0.134552,-2.089406,0.7862822,9.549164
34.80029188,31.26169508,1.0401922,28.542274,10-27-13,0.59960485,0.23639196,0.46441746,259.0,-5.4754424,-13.849375,-0.006881714,0.1329956,0.19593811,-2.089406,0.7862822,9.549164
34.80029188,31.26169508,1.0401922,28.542274,10-27-13,-1.1314051,0.018580794,-0.55212593,258.0,-5.99709,-12.962198,-0.006881714,0.1329956,0.19593811,-2.2980828,0.9036034,9.4906645
34.80029188,31.26169508,1.0401922,28.542274,10-27-13,-1.1314051,0.018580794,-0.55212593,259.0,-6.3770103,-12.98307,0.052841187,-0.06765747,0.092178345,-2.2980828,0.9036034,9.4906645
34.80028161,31.26169751,1.040769,29.527058,10-27-13,0.630831,0.8546195,0.22577667,260.0,-6.2547407,-13.176262,0.052841187,-0.06765747,0.092178345,-2.2141037,1.0258617,9.498197
34.80028161,31.26169751,1.040769,29.527058,10-27-13,0.630831,0.8546195,0.22577667,261.0,-5.0734873,-13.510992,-0.06765747,0.043640137,-0.16773987,-2.2141037,1.0258617,9.498197
34.80028161,31.26169751,1.040769,29.527058,10-27-14,0.60834026,-0.72764075,-0.33499336,261.0,-3.9944465,-14.079651,-0.06765747,0.043640137,-0.16773987,-2.2771883,0.86983085,9.498853
34.80028161,31.26169751,1.040769,29.527058,10-27-14,0.60834026,-0.72764075,-0.33499336,260.0,-3.3343666,-13.754072,-0.15060425,0.0071105957,0.044769287,-2.2771883,0.86983085,9.498853
34.80028161,31.26169751,1.040769,29.527058,10-27-14,-1.0756254,-0.22073537,-0.6472664,260.0,-3.455431,-12.811848,-0.15060425,0.0071105957,0.044769287,-2.3106048,0.63116276,9.509633
34.80028161,31.26169751,1.040769,29.527058,10-27-14,-1.0756254,-0.22073537,-0.6472664,261.0,-3.4365213,-12.223373,-5.187988E-4,-0.1356659,-0.028167725,-2.3106048,0.63116276,9.509633
34.80028161,31.26169751,1.040769,29.527058,10-27-14,0.47285414,0.46677423,0.59352493,261.0,-3.4844337,-11.7140255,-5.187988E-4,-0.1356659,-0.028167725,-2.099137,0.5703856,9.562357
34.80028161,31.26169751,1.040769,29.527058,10-27-14,0.47285414,0.46677423,0.59352493,260.0,-4.4663057,-12.232388,0.08328247,0.008407593,0.055236816,-2.099137,0.5703856,9.562357
34.80028161,31.26169751,1.040769,29.527058,10-27-14,0.8010967,-0.5895308,0.56289864,259.0,-5.0190268,-12.69659,0.08328247,0.008407593,0.055236816,-2.0565586,0.66540235,9.565469
34.80028161,31.26169751,1.040769,29.527058,10-27-14,0.8010967,-0.5895308,0.56289864,258.0,-5.640151,-11.548519,0.044158936,-0.025146484,0.2542572,-2.0565586,0.66540235,9.565469
34.80027259,31.26169722,0.98005104,30.384848,10-27-14,-0.5139952,0.5446629,0.08685112,258.0,-5.820312,-11.680065,0.044158936,-0.025146484,0.2542572,-2.0429235,0.8968075,9.549481
34.80027259,31.26169722,0.98005104,30.384848,10-27-14,-0.5139952,0.5446629,0.08685112,259.0,-5.247168,-12.91768,-0.014556885,0.12541199,-0.10494995,-2.0429235,0.8968075,9.549481
34.80027259,31.26169722,0.98005104,30.384848,10-27-15,1.0232918,0.09687215,0.18237877,260.0,-5.0684605,-14.477476,-0.014556885,0.12541199,-0.10494995,-2.0964978,0.9028517,9.5372925
34.80027259,31.26169722,0.98005104,30.384848,10-27-15,1.0232918,0.09687215,0.18237877,260.0,-4.5605745,-15.024228,-0.018844604,0.15304565,-0.13926697,-2.0964978,0.9028517,9.5372925
34.80027259,31.26169722,0.98005104,30.384848,10-27-15,-1.2230918,-0.529022,-0.73261356,260.0,-4.7557235,-14.541232,-0.018844604,0.15304565,-0.13926697,-2.4495878,0.7821524,9.463516
34.80027259,31.26169722,0.98005104,30.384848,10-27-15,-1.2230918,-0.529022,-0.73261356,261.0,-4.6221976,-14.130109,0.010818481,-0.08842468,-0.090148926,-2.4495878,0.7821524,9.463516
34.80027259,31.26169722,0.98005104,30.384848,10-27-15,0.17438293,0.7058117,0.21632671,262.0,-3.8674142,-14.301544,0.010818481,-0.08842468,-0.090148926,-2.4536355,0.73946345,9.465899
34.80027259,31.26169722,0.98005104,30.384848,10-27-15,0.17438293,0.7058117,0.21632671,261.0,-3.2251809,-15.003401,-0.11819458,0.079422,0.04321289,-2.4536355,0.73946345,9.465899
34.80027259,31.26169722,0.98005104,30.384848,10-27-15,0.2897935,-0.67085665,0.16155624,260.0,-4.021729,-15.609673,-0.11819458,0.079422,0.04321289,-2.482673,0.59757286,9.4683485
34.80027259,31.26169722,0.98005104,30.384848,10-27-15,0.2897935,-0.67085665,0.16155624,259.0,-5.6784887,-14.991808,0.17288208,0.0021972656,0.1580658,-2.482673,0.59757286,9.4683485
34.80026152,31.26169123,0.92,31.427734,10-27-15,-0.9699502,-0.399624,-0.3154726,259.0,-7.3869576,-14.061624,0.17288208,0.0021972656,0.1580658,-2.5486813,0.7748587,9.437913
34.80026152,31.26169123,0.92,31.427734,10-27-15,-0.9699502,-0.399624,-0.3154726,260.0,-8.496998,-14.323744,0.23730469,-0.032104492,-0.0029449463,-2.5486813,0.7748587,9.437913
34.80026152,31.26169123,0.92,31.427734,10-27-16,1.6060581,0.9412656,0.60829353,261.0,-8.537503,-15.369315,0.23730469,-0.032104492,-0.0029449463,-2.4285567,1.2449476,9.419268
34.80026152,31.26169123,0.92,31.427734,10-27-16,1.6060581,0.9412656,0.60829353,262.0,-8.286002,-16.688467,0.016784668,0.19813538,-0.1796112,-2.4285567,1.2449476,9.419268
34.80026152,31.26169123,0.92,31.427734,10-27-16,0.34603214,0.090257525,-0.6911526,262.0,-7.405563,-16.905945,0.016784668,0.19813538,-0.1796112,-2.654797,1.3427277,9.344492
34.80026152,31.26169123,0.92,31.427734,10-27-16,0.34603214,0.090257525,-0.6911526,263.0,-7.261853,-16.124651,-0.052124023,-0.08656311,-0.08303833,-2.654797,1.3427277,9.344492
34.80026152,31.26169123,0.92,31.427734,10-27-16,-1.1887579,-0.2875533,-0.31174278,263.0,-7.084204,-15.138578,-0.052124023,-0.08656311,-0.08303833,-2.7998898,1.2112927,9.320074
34.80026152,31.26169123,0.92,31.427734,10-27-16,-1.1887579,-0.2875533,-0.31174278,263.0,-6.7951403,-14.644648,-0.029876709,-0.12451172,0.028320313,-2.7998898,1.2112927,9.320074
34.80026152,31.26169123,0.92,31.427734,10-27-16,0.50534415,-0.44184005,0.44332886,262.0,-6.837571,-14.851565,-0.029876709,-0.12451172,0.028320313,-2.5617392,1.1380051,9.3974905
34.80026152,31.26169123,0.92,31.427734,10-27-16,-0.32999253,-0.38797915,0.5117979,260.0,-7.2410045,-16.08647,-0.0041046143,0.13969421,0.17466736,-2.5957353,1.1414105,9.387743
34.80025339,31.26169753,0.9213577,32.21375,10-27-16,-0.32999253,-0.38797915,0.5117979,259.0,-7.7489657,-15.928721,-0.0041046143,0.13969421,0.17466736,-2.5957353,1.1414105,9.387743
34.80025339,31.26169753,0.9213577,32.21375,10-27-16,-0.7505226,-0.64171374,-0.3859253,258.0,-8.249188,-15.920947,0.0521698,-0.00982666,0.18663025,-2.7231107,1.256998,9.336756
34.80025339,31.26169753,0.9213577,32.21375,10-27-17,-0.7505226,-0.64171374,-0.3859253,256.0,-8.528496,-16.366724,0.0521698,-0.00982666,0.18663025,-2.7231107,1.256998,9.336756
34.80025339,31.26169753,0.9213577,32.21375,10-27-17,-0.21510124,0.5182668,-0.08838272,256.0,-9.491093,-16.755253,0.043304443,0.079055786,0.16744995,-2.7516587,1.4609745,9.298619
34.80025339,31.26169753,0.9213577,32.21375,10-27-17,-0.21510124,0.5182668,-0.08838272,256.0,-8.93823,-17.663157,0.043304443,0.079055786,0.16744995,-2.7516587,1.4609745,9.298619
34.80025339,31.26169753,0.9213577,32.21375,10-27-17,-0.98667336,1.0714492,-0.47810555,256.0,-7.8595557,-17.277042,-0.14546204,0.03326416,-0.059768677,-2.8828888,1.4419063,9.261763
34.80025339,31.26169753,0.9213577,32.21375,10-27-17,-0.98667336,1.0714492,-0.47810555,257.0,-6.8697515,-16.786615,-0.14546204,0.03326416,-0.059768677,-2.8828888,1.4419063,9.261763
