Longitude,Latitude,Speed,Distance,Time,Acc X,Acc Y,Acc Z,Heading,Pitch,Roll,gyro_x,gyro_y,gyro_z,gravity_x,gravity_y,gravity_z
34.8052662,31.26505506,0.0,4.9859767,12-19-12,-0.55947185,0.066039085,0.44395256,237.0,-3.9946282,-14.248943,4.5776367E-4,-0.05328369,0.02394104,-2.52542,0.6782614,9.451592
34.8052662,31.26505506,0.0,4.9859767,12-19-12,-0.55947185,0.066039085,0.44395256,236.0,-3.9449668,-14.179077,4.5776367E-4,-0.05328369,0.02394104,-2.52542,0.6782614,9.451592
34.8052662,31.26505506,0.0,4.9859767,12-19-12,-0.55947185,0.066039085,0.44395256,236.0,-3.9449668,-14.179077,4.5776367E-4,-0.05328369,0.02394104,-2.52542,0.6782614,9.451592
34.8052662,31.26505506,0.0,4.9859767,12-19-12,-0.55947185,0.066039085,0.44395256,236.0,-3.9449668,-14.179077,4.5776367E-4,-0.05328369,0.02394104,-2.52542,0.6782614,9.451592
34.8052662,31.26505506,0.0,4.9859767,12-19-12,-0.55947185,0.066039085,0.44395256,234.0,-4.010148,-13.997417,4.5776367E-4,-0.05328369,0.02394104,-2.52542,0.6782614,9.451592
34.80526788,31.26505735,0.0,0.30011085,12-19-12,-0.55947185,0.066039085,0.44395256,234.0,-4.18987,-13.919644,4.5776367E-4,-0.05328369,0.02394104,-2.52542,0.6782614,9.451592
34.80526788,31.26505735,0.0,0.30011085,12-19-12,-0.7425785,0.32410014,1.1934357,234.0,-4.18987,-13.919644,4.5776367E-4,-0.05328369,0.02394104,-2.434238,0.71065074,9.473112
34.80526788,31.26505735,0.0,0.30011085,12-19-12,-0.7425785,0.32410014,1.1934357,235.0,-4.4054155,-13.991312,-0.057388306,-0.03744507,0.28138733,-2.434238,0.71065074,9.473112
34.80526788,31.26505735,0.0,0.30011085,12-19-12,-0.7425785,0.32410014,1.1934357,235.0,-4.5882616,-14.274995,-0.057388306,-0.03744507,0.28138733,-2.434238,0.71065074,9.473112
34.80526788,31.26505735,0.0,0.30011085,12-19-12,-0.7425785,0.32410014,1.1934357,235.0,-4.7428403,-14.846372,-0.057388306,-0.03744507,0.28138733,-2.434238,0.71065074,9.473112
34.80526788,31.26505735,0.0,0.30011085,12-19-12,-0.7425785,0.32410014,1.1934357,236.0,-4.8088336,-15.0524845,-0.057388306,-0.03744507,0.28138733,-2.434238,0.71065074,9.473112
34.80526788,31.26505735,0.0,0.30011085,12-19-12,-0.7425785,0.32410014,1.1934357,236.0,-4.8088336,-15.0524845,-0.057388306,-0.03744507,0.28138733,-2.434238,0.71065074,9.473112
34.80526788,31.26505735,0.0,0.30011085,12-19-12,-0.7425785,0.32410014,1.1934357,236.0,-4.8680096,-15.231119,-0.057388306,-0.03744507,0.28138733,-2.434238,0.71065074,9.473112
34.80526788,31.26505735,0.0,0.30011085,12-19-12,-0.7425785,0.32410014,1.1934357,236.0,-4.8680096,-15.231119,-0.057388306,-0.03744507,0.28138733,-2.434238,0.71065074,9.473112
34.80526788,31.26505735,0.0,0.30011085,12-19-12,-0.7425785,0.32410014,1.1934357,236.0,-4.623388,-16.298563,-0.057388306,-0.03744507,0.28138733,-2.434238,0.71065074,9.473112
34.80526788,31.26505735,0.0,0.30011085,12-19-12,-0.7425785,0.32410014,1.1934357,236.0,-4.4360414,-16.199831,-0.057388306,-0.03744507,0.28138733,-2.434238,0.71065074,9.473112
34.80526788,31.26505735,0.0,0.30011085,12-19-12,-1.146105,0.29550773,1.081275,236.0,-4.2705574,-16.007938,-0.057388306,-0.03744507,0.28138733,-2.5595644,0.70932734,9.440121
34.80526788,31.26505735,0.0,0.30011085,12-19-12,-1.146105,0.29550773,1.081275,236.0,-4.2705574,-16.007938,-0.009185791,0.14364624,-0.11495972,-2.5595644,0.70932734,9.440121
34.80526788,31.26505735,0.0,0.30011085,12-19-12,-1.146105,0.29550773,1.081275,236.0,-4.2705574,-16.007938,-0.009185791,0.14364624,-0.11495972,-2.5595644,0.70932734,9.440121
34.80526788,31.26505735,0.0,0.30011085,12-19-12,-1.146105,0.29550773,1.081275,236.0,-3.3144646,-16.38019,-0.009185791,0.14364624,-0.11495972,-2.5595644,0.70932734,9.440121
34.80526788,31.26505735,0.0,0.30011085,12-19-13,-1.146105,0.29550773,1.081275,237.0,-3.0063088,-16.00311,-0.009185791,0.14364624,-0.11495972,-2.5595644,0.70932734,9.440121
34.80526788,31.26505735,0.0,0.30011085,12-19-13,-1.146105,0.29550773,1.081275,237.0,-3.0063088,-16.00311,-0.009185791,0.14364624,-0.11495972,-2.5595644,0.70932734,9.440121
34.80526788,31.26505735,0.0,0.30011085,12-19-13,-1.146105,0.29550773,1.081275,238.0,-2.7140567,-15.584584,-0.009185791,0.14364624,-0.11495972,-2.5595644,0.70932734,9.440121
34.80526788,31.26505735,0.0,0.30011085,12-19-13,-1.146105,0.29550773,1.081275,238.0,-2.7140567,-15.584584,-0.009185791,0.14364624,-0.11495972,-2.5595644,0.70932734,9.440121
34.80526788,31.26505735,0.0,0.30011085,12-19-13,-1.146105,0.29550773,1.081275,239.0,-1.6804185,-15.611658,-0.009185791,0.14364624,-0.11495972,-2.5595644,0.70932734,9.440121
34.80526788,31.26505735,0.0,0.30011085,12-19-13,-1.146105,0.29550773,1.081275,239.0,-1.396307,-15.05217,-0.009185791,0.14364624,-0.11495972,-2.5595644,0.70932734,9.440121
34.80526788,31.26505735,0.0,0.30011085,12-19-13,0.2099793,-0.27526456,0.8328848,239.0,-1.1946166,-14.621022,-0.009185791,0.14364624,-0.11495972,-2.5814157,0.42506573,9.451243
34.80526788,31.26505735,0.0,0.30011085,12-19-13,0.2099793,-0.27526456,0.8328848,239.0,-1.1946166,-14.621022,-0.17858887,-0.11732483,-0.22514343,-2.5814157,0.42506573,9.451243
34.80526788,31.26505735,0.0,0.30011085,12-19-13,0.2099793,-0.27526456,0.8328848,239.0,-1.2396138,-14.523206,-0.17858887,-0.11732483,-0.22514343,-2.5814157,0.42506573,9.451243
34.80526788,31.26505735,0.0,0.30011085,12-19-13,0.2099793,-0.27526456,0.8328848,239.0,-1.4131979,-14.353835,-0.17858887,-0.11732483,-0.22514343,-2.5814157,0.42506573,9.451243
34.80526788,31.26505735,0.0,0.30011085,12-19-13,0.2099793,-0.27526456,0.8328848,239.0,-1.7600361,-14.100882,-0.17858887,-0.11732483,-0.22514343,-2.5814157,0.42506573,9.451243
34.80526788,31.26505735,0.0,0.30011085,12-19-13,0.2099793,-0.27526456,0.8328848,239.0,-2.333034,-14.146033,-0.17858887,-0.11732483,-0.22514343,-2.5814157,0.42506573,9.451243
34.80526788,31.26505735,0.0,0.30011085,12-19-13,0.2099793,-0.27526456,0.8328848,239.0,-2.333034,-14.146033,-0.17858887,-0.11732483,-0.22514343,-2.5814157,0.42506573,9.451243
34.80526788,31.26505735,0.0,0.30011085,12-19-13,0.2099793,-0.27526456,0.8328848,239.0,-2.6601076,-14.08336,-0.17858887,-0.11732483,-0.22514343,-2.5814157,0.42506573,9.451243
34.80526788,31.26505735,0.0,0.30011085,12-19-13,0.2099793,-0.27526456,0.8328848,238.0,-3.038823,-14.22869,-0.17858887,-0.11732483,-0.22514343,-2.5814157,0.42506573,9.451243
34.80526788,31.26505735,0.0,0.30011085,12-19-13,1.4532082,0.07261032,-0.67641354,238.0,-3.038823,-14.22869,-0.17858887,-0.11732483,-0.22514343,-2.4421418,0.34148827,9.49156
34.80526788,31.26505735,0.0,0.30011085,12-19-13,1.4532082,0.07261032,-0.67641354,238.0,-3.0352085,-14.459257,-0.17858887,-0.11732483,-0.22514343,-2.4421418,0.34148827,9.49156
34.80526788,31.26505735,0.0,0.30011085,12-19-13,1.4532082,0.07261032,-0.67641354,238.0,-3.0352085,-14.459257,0.13638306,0.05491638,0.040252686,-2.4421418,0.34148827,9.49156
34.80526788,31.26505735,0.0,0.30011085,12-19-13,1.4532082,0.07261032,-0.67641354,239.0,-2.9910793,-14.763965,0.13638306,0.05491638,0.040252686,-2.4421418,0.34148827,9.49156
34.80526788,31.26505735,0.0,0.30011085,12-19-13,1.4532082,0.07261032,-0.67641354,242.0,-2.7239718,-16.513006,0.13638306,0.05491638,0.040252686,-2.4421418,0.34148827,9.49156
34.80526788,31.26505735,0.0,0.30011085,12-19-13,1.4532082,0.07261032,-0.67641354,242.0,-2.7239718,-16.513006,0.13638306,0.05491638,0.040252686,-2.4421418,0.34148827,9.49156
34.80526788,31.26505735,0.0,0.30011085,12-19-13,1.4532082,0.07261032,-0.67641354,243.0,-2.752637,-16.305262,0.13638306,0.05491638,0.040252686,-2.4421418,0.34148827,9.49156
34.80526788,31.26505735,0.0,0.30011085,12-19-13,1.4532082,0.07261032,-0.67641354,243.0,-2.752637,-16.305262,0.13638306,0.05491638,0.040252686,-2.4421418,0.34148827,9.49156
34.80526788,31.26505735,0.0,0.30011085,12-19-13,1.4532082,0.07261032,-0.67641354,244.0,-2.7760458,-15.789475,0.13638306,0.05491638,0.040252686,-2.4421418,0.34148827,9.49156
34.80526788,31.26505735,0.0,0.30011085,12-19-13,1.4532082,0.07261032,-0.67641354,246.0,-2.383573,-15.931127,0.13638306,0.05491638,0.040252686,-2.4421418,0.34148827,9.49156
34.80526788,31.26505735,0.0,0.30011085,12-19-13,0.6270654,-0.48492804,-1.0085163,246.0,-2.383573,-15.931127,0.13638306,0.05491638,0.040252686,-2.5761535,0.4586669,9.451108
34.80526788,31.26505735,0.0,0.30011085,12-19-13,0.6270654,-0.48492804,-1.0085163,246.0,-2.4906778,-15.990242,0.13638306,0.05491638,0.040252686,-2.5761535,0.4586669,9.451108
34.80526788,31.26505735,0.0,0.30011085,12-19-13,0.6270654,-0.48492804,-1.0085163,245.0,-2.6811879,-15.896747,0.13874817,0.051315308,-0.5044403,-2.5761535,0.4586669,9.451108
34.80526788,31.26505735,0.0,0.30011085,12-19-13,0.6270654,-0.48492804,-1.0085163,245.0,-2.6811879,-15.896747,0.13874817,0.051315308,-0.5044403,-2.5761535,0.4586669,9.451108
34.80526788,31.26505735,0.0,0.30011085,12-19-13,0.6270654,-0.48492804,-1.0085163,243.0,-2.3566177,-15.980005,0.13874817,0.051315308,-0.5044403,-2.5761535,0.4586669,9.451108
34.80526788,31.26505735,0.0,0.30011085,12-19-13,0.6270654,-0.48492804,-1.0085163,243.0,-2.412867,-16.525473,0.13874817,0.051315308,-0.5044403,-2.5761535,0.4586669,9.451108
34.80526788,31.26505735,0.0,0.30011085,12-19-13,0.6270654,-0.48492804,-1.0085163,243.0,-2.412867,-16.525473,0.13874817,0.051315308,-0.5044403,-2.5761535,0.4586669,9.451108
34.80526788,31.26505735,0.0,0.30011085,12-19-13,0.6270654,-0.48492804,-1.0085163,244.0,-2.492032,-17.138773,0.13874817,0.051315308,-0.5044403,-2.5761535,0.4586669,9.451108
34.80526788,31.26505735,0.0,0.30011085,12-19-13,0.6270654,-0.48492804,-1.0085163,244.0,-2.492032,-17.138773,0.13874817,0.051315308,-0.5044403,-2.5761535,0.4586669,9.451108
34.80526711,31.26505893,0.0,0.43774772,12-19-13,-0.28704023,-0.0932045,-0.68082714,246.0,-3.396231,-16.987932,0.13874817,0.051315308,-0.5044403,-2.7926474,0.51065886,9.386732
34.80526711,31.26505893,0.0,0.43774772,12-19-13,-0.28704023,-0.0932045,-0.68082714,246.0,-3.396231,-16.987932,0.13874817,0.051315308,-0.5044403,-2.7926474,0.51065886,9.386732
34.80526711,31.26505893,0.0,0.43774772,12-19-13,-0.28704023,-0.0932045,-0.68082714,246.0,-3.396231,-16.987932,0.13874817,0.051315308,-0.5044403,-2.7926474,0.51065886,9.386732
34.80526711,31.26505893,0.0,0.43774772,12-19-13,-0.28704023,-0.0932045,-0.68082714,246.0,-3.2672167,-17.066542,0.07815552,0.11602783,-0.14759827,-2.7926474,0.51065886,9.386732
34.80526711,31.26505893,0.0,0.43774772,12-19-13,-0.28704023,-0.0932045,-0.68082714,246.0,-3.2672167,-17.066542,0.07815552,0.11602783,-0.14759827,-2.7926474,0.51065886,9.386732
34.80526711,31.26505893,0.0,0.43774772,12-19-13,-0.28704023,-0.0932045,-0.68082714,250.0,-3.9158912,-16.08437,0.07815552,0.11602783,-0.14759827,-2.7926474,0.51065886,9.386732
34.80526711,31.26505893,0.0,0.43774772,12-19-13,-0.28704023,-0.0932045,-0.68082714,250.0,-4.1525097,-15.812387,0.07815552,0.11602783,-0.14759827,-2.7926474,0.51065886,9.386732
34.80526711,31.26505893,0.0,0.43774772,12-19-13,-0.28704023,-0.0932045,-0.68082714,250.0,-4.1525097,-15.812387,0.07815552,0.11602783,-0.14759827,-2.7926474,0.51065886,9.386732
34.80526711,31.26505893,0.0,0.43774772,12-19-13,-0.28704023,-0.0932045,-0.68082714,251.0,-4.3219767,-15.525765,0.07815552,0.11602783,-0.14759827,-2.7926474,0.51065886,9.386732
34.80526711,31.26505893,0.0,0.43774772,12-19-13,-0.28704023,-0.0932045,-0.68082714,251.0,-4.3219767,-15.525765,0.07815552,0.11602783,-0.14759827,-2.7926474,0.51065886,9.386732
34.80526711,31.26505893,0.0,0.43774772,12-19-13,-0.77975464,-0.140428,-0.08934784,250.0,-4.9836097,-14.445762,0.07815552,0.11602783,-0.14759827,-2.6694605,0.71807885,9.408971
34.80526711,31.26505893,0.0,0.43774772,12-19-13,-0.77975464,-0.140428,-0.08934784,250.0,-4.9836097,-14.445762,0.07815552,0.11602783,-0.14759827,-2.6694605,0.71807885,9.408971
34.80526711,31.26505893,0.0,0.43774772,12-19-13,-0.77975464,-0.140428,-0.08934784,250.0,-5.0871654,-14.1184225,0.07815552,0.11602783,-0.14759827,-2.6694605,0.71807885,9.408971
34.80526711,31.26505893,0.0,0.43774772,12-19-13,-0.77975464,-0.140428,-0.08934784,250.0,-5.0871654,-14.1184225,0.26271057,-0.31661987,-0.25091553,-2.6694605,0.71807885,9.408971
34.80526711,31.26505893,0.0,0.43774772,12-19-13,-0.77975464,-0.140428,-0.08934784,250.0,-5.0871654,-14.1184225,0.26271057,-0.31661987,-0.25091553,-2.6694605,0.71807885,9.408971
34.80526711,31.26505893,0.0,0.43774772,12-19-14,-0.77975464,-0.140428,-0.08934784,250.0,-5.1366987,-13.343434,0.26271057,-0.31661987,-0.25091553,-2.6694605,0.71807885,9.408971
34.80526711,31.26505893,0.0,0.43774772,12-19-14,-0.77975464,-0.140428,-0.08934784,251.0,-5.108399,-13.105235,0.26271057,-0.31661987,-0.25091553,-2.6694605,0.71807885,9.408971
34.80526711,31.26505893,0.0,0.43774772,12-19-14,-0.77975464,-0.140428,-0.08934784,251.0,-5.0762453,-12.955202,0.26271057,-0.31661987,-0.25091553,-2.6694605,0.71807885,9.408971
34.80526711,31.26505893,0.0,0.43774772,12-19-14,-0.77975464,-0.140428,-0.08934784,251.0,-5.0762453,-12.955202,0.26271057,-0.31661987,-0.25091553,-2.6694605,0.71807885,9.408971
34.80526711,31.26505893,0.0,0.43774772,12-19-14,-0.77975464,-0.140428,-0.08934784,251.0,-5.0762453,-12.955202,0.26271057,-0.31661987,-0.25091553,-2.6694605,0.71807885,9.408971
34.80526711,31.26505893,0.0,0.43774772,12-19-14,0.9431529,0.33251536,-0.50892067,249.0,-4.680578,-12.617668,0.26271057,-0.31661987,-0.25091553,-2.2798994,0.84973764,9.500021
34.80526711,31.26505893,0.0,0.43774772,12-19-14,0.9431529,0.33251536,-0.50892067,249.0,-4.680578,-12.617668,0.26271057,-0.31661987,-0.25091553,-2.2798994,0.84973764,9.500021
34.80526711,31.26505893,0.0,0.43774772,12-19-14,0.9431529,0.33251536,-0.50892067,249.0,-4.599989,-12.530679,0.26271057,-0.31661987,-0.25091553,-2.2798994,0.84973764,9.500021
34.80526711,31.26505893,0.0,0.43774772,12-19-14,0.9431529,0.33251536,-0.50892067,249.0,-4.5247955,-12.492481,-0.080459595,-0.092315674,0.0665741,-2.2798994,0.84973764,9.500021
34.80526711,31.26505893,0.0,0.43774772,12-19-14,0.9431529,0.33251536,-0.50892067,249.0,-4.5247955,-12.492481,-0.080459595,-0.092315674,0.0665741,-2.2798994,0.84973764,9.500021
34.80526711,31.26505893,0.0,0.43774772,12-19-14,0.9431529,0.33251536,-0.50892067,250.0,-4.5018277,-12.182265,-0.080459595,-0.092315674,0.0665741,-2.2798994,0.84973764,9.500021
34.80526711,31.26505893,0.0,0.43774772,12-19-14,0.9431529,0.33251536,-0.50892067,250.0,-4.5018277,-12.182265,-0.080459595,-0.092315674,0.0665741,-2.2798994,0.84973764,9.500021
34.80526711,31.26505893,0.0,0.43774772,12-19-14,0.9431529,0.33251536,-0.50892067,250.0,-4.518961,-12.128035,-0.080459595,-0.092315674,0.0665741,-2.2798994,0.84973764,9.500021
34.80526711,31.26505893,0.0,0.43774772,12-19-14,0.9431529,0.33251536,-0.50892067,250.0,-4.5573616,-12.036691,-0.080459595,-0.092315674,0.0665741,-2.2798994,0.84973764,9.500021
34.80526711,31.26505893,0.0,0.43774772,12-19-14,0.9431529,0.33251536,-0.50892067,250.0,-4.5573616,-12.036691,-0.080459595,-0.092315674,0.0665741,-2.2798994,0.84973764,9.500021
34.80526711,31.26505893,0.0,0.43774772,12-19-14,1.012667,0.08489609,-0.071419716,250.0,-4.603845,-11.955812,-0.080459595,-0.092315674,0.0665741,-2.0762484,0.8127815,9.549815
34.80526711,31.26505893,0.0,0.43774772,12-19-14,1.012667,0.08489609,-0.071419716,250.0,-4.603845,-11.955812,-0.080459595,-0.092315674,0.0665741,-2.0762484,0.8127815,9.549815
34.80526711,31.26505893,0.0,0.43774772,12-19-14,1.012667,0.08489609,-0.071419716,250.0,-4.5944448,-12.156279,-0.080459595,-0.092315674,0.0665741,-2.0762484,0.8127815,9.549815
34.80526711,31.26505893,0.0,0.43774772,12-19-14,1.012667,0.08489609,-0.071419716,251.0,-4.6606293,-12.339254,0.04914856,0.0087890625,-0.11898804,-2.0762484,0.8127815,9.549815
34.80526711,31.26505893,0.0,0.43774772,12-19-14,1.012667,0.08489609,-0.071419716,251.0,-4.6606293,-12.339254,0.04914856,0.0087890625,-0.11898804,-2.0762484,0.8127815,9.549815
34.80526711,31.26505893,0.0,0.43774772,12-19-14,1.012667,0.08489609,-0.071419716,251.0,-4.811264,-12.777369,0.04914856,0.0087890625,-0.11898804,-2.0762484,0.8127815,9.549815
34.80526711,31.26505893,0.0,0.43774772,12-19-14,1.012667,0.08489609,-0.071419716,251.0,-4.811264,-12.777369,0.04914856,0.0087890625,-0.11898804,-2.0762484,0.8127815,9.549815
34.80526711,31.26505893,0.0,0.43774772,12-19-14,1.012667,0.08489609,-0.071419716,251.0,-4.7950335,-12.9329195,0.04914856,0.0087890625,-0.11898804,-2.0762484,0.8127815,9.549815
34.80526711,31.26505893,0.0,0.43774772,12-19-14,1.012667,0.08489609,-0.071419716,251.0,-4.8424387,-13.056803,0.04914856,0.0087890625,-0.11898804,-2.0762484,0.8127815,9.549815
34.80526711,31.26505893,0.0,0.43774772,12-19-14,1.012667,0.08489609,-0.071419716,251.0,-4.8424387,-13.056803,0.04914856,0.0087890625,-0.11898804,-2.0762484,0.8127815,9.549815
34.80526711,31.26505893,0.0,0.43774772,12-19-14,0.31616855,-0.39107585,-0.025924683,250.0,-5.1843076,-13.447228,0.04914856,0.0087890625,-0.11898804,-2.1634717,0.84152377,9.527939
34.80526711,31.26505893,0.0,0.43774772,12-19-14,0.31616855,-0.39107585,-0.025924683,250.0,-5.263004,-13.567937,0.04914856,0.0087890625,-0.11898804,-2.1634717,0.84152377,9.527939
34.80526711,31.26505893,0.0,0.43774772,12-19-14,0.31616855,-0.39107585,-0.025924683,250.0,-5.263004,-13.567937,0.04914856,0.0087890625,-0.11898804,-2.1634717,0.84152377,9.527939
34.80526711,31.26505893,0.0,0.43774772,12-19-14,0.31616855,-0.39107585,-0.025924683,251.0,-5.3773274,-13.657024,0.066711426,0.116989136,0.015197754,-2.1634717,0.84152377,9.527939
34.80526711,31.26505893,0.0,0.43774772,12-19-14,0.31616855,-0.39107585,-0.025924683,251.0,-5.3773274,-13.657024,0.066711426,0.116989136,0.015197754,-2.1634717,0.84152377,9.527939
34.80526711,31.26505893,0.0,0.43774772,12-19-14,0.31616855,-0.39107585,-0.025924683,250.0,-5.8040915,-14.054077,0.066711426,0.116989136,0.015197754,-2.1634717,0.84152377,9.527939
34.80526711,31.26505893,0.0,0.43774772,12-19-14,0.31616855,-0.39107585,-0.025924683,250.0,-5.901371,-14.099853,0.066711426,0.116989136,0.015197754,-2.1634717,0.84152377,9.527939
34.80526711,31.26505893,0.0,0.43774772,12-19-14,0.31616855,-0.39107585,-0.025924683,250.0,-6.020892,-14.147626,0.066711426,0.116989136,0.015197754,-2.1634717,0.84152377,9.527939
34.80526711,31.26505893,0.0,0.43774772,12-19-14,0.31616855,-0.39107585,-0.025924683,250.0,-6.020892,-14.147626,0.066711426,0.116989136,0.015197754,-2.1634717,0.84152377,9.527939
34.80526711,31.26505893,0.0,0.43774772,12-19-14,0.31616855,-0.39107585,-0.025924683,250.0,-6.020892,-14.147626,0.066711426,0.116989136,0.015197754,-2.1634717,0.84152377,9.527939
34.80526801,31.26505789,0.0,0.35800785,12-19-14,-0.09707165,0.09618533,-0.20032024,250.0,-6.3425617,-14.359306,0.066711426,0.116989136,0.015197754,-2.3643005,0.9907448,9.46567
34.80526801,31.26505789,0.0,0.35800785,12-19-14,-0.09707165,0.09618533,-0.20032024,250.0,-6.3425617,-14.359306,0.066711426,0.116989136,0.015197754,-2.3643005,0.9907448,9.46567
34.80526801,31.26505789,0.0,0.35800785,12-19-14,-0.09707165,0.09618533,-0.20032024,250.0,-6.3305216,-14.425827,0.066711426,0.116989136,0.015197754,-2.3643005,0.9907448,9.46567
34.80526801,31.26505789,0.0,0.35800785,12-19-14,-0.09707165,0.09618533,-0.20032024,250.0,-6.3305216,-14.425827,0.04093933,0.061935425,0.07659912,-2.3643005,0.9907448,9.46567
34.80526801,31.26505789,0.0,0.35800785,12-19-14,-0.09707165,0.09618533,-0.20032024,250.0,-6.3305216,-14.425827,0.04093933,0.061935425,0.07659912,-2.3643005,0.9907448,9.46567
34.80526801,31.26505789,0.0,0.35800785,12-19-14,-0.09707165,0.09618533,-0.20032024,250.0,-6.35275,-14.570158,0.04093933,0.061935425,0.07659912,-2.3643005,0.9907448,9.46567
34.80526801,31.26505789,0.0,0.35800785,12-19-14,-0.09707165,0.09618533,-0.20032024,250.0,-6.35275,-14.570158,0.04093933,0.061935425,0.07659912,-2.3643005,0.9907448,9.46567
34.80526801,31.26505789,0.0,0.35800785,12-19-14,-0.09707165,0.09618533,-0.20032024,250.0,-6.2277594,-14.622102,0.04093933,0.061935425,0.07659912,-2.3643005,0.9907448,9.46567
34.80526801,31.26505789,0.0,0.35800785,12-19-14,-0.09707165,0.09618533,-0.20032024,250.0,-6.2277594,-14.622102,0.04093933,0.061935425,0.07659912,-2.3643005,0.9907448,9.46567
34.80526801,31.26505789,0.0,0.35800785,12-19-14,-0.09707165,0.09618533,-0.20032024,250.0,-6.2277594,-14.622102,0.04093933,0.061935425,0.07659912,-2.3643005,0.9907448,9.46567
34.80526801,31.26505789,0.0,0.35800785,12-19-14,-0.2288425,0.30998123,-0.122571945,248.0,-5.70303,-14.895229,0.04093933,0.061935425,0.07659912,-2.4893217,1.0426409,9.427967
34.80526801,31.26505789,0.0,0.35800785,12-19-14,-0.2288425,0.30998123,-0.122571945,248.0,-5.70303,-14.895229,0.04093933,0.061935425,0.07659912,-2.4893217,1.0426409,9.427967
34.80526801,31.26505789,0.0,0.35800785,12-19-14,-0.2288425,0.30998123,-0.122571945,248.0,-5.5477314,-14.844221,0.04093933,0.061935425,0.07659912,-2.4893217,1.0426409,9.427967
34.80526801,31.26505789,0.0,0.35800785,12-19-14,-0.2288425,0.30998123,-0.122571945,248.0,-5.5477314,-14.844221,0.04093933,0.061935425,0.07659912,-2.4893217,1.0426409,9.427967
34.80526801,31.26505789,0.0,0.35800785,12-19-14,-0.2288425,0.30998123,-0.122571945,248.0,-5.5477314,-14.844221,0.04093933,0.061935425,0.07659912,-2.4893217,1.0426409,9.427967
34.80526801,31.26505789,0.0,0.35800785,12-19-15,-0.2288425,0.30998123,-0.122571945,248.0,-5.023595,-14.700575,-0.121170044,0.045684814,0.11541748,-2.4893217,1.0426409,9.427967
34.80526801,31.26505789,0.0,0.35800785,12-19-15,-0.2288425,0.30998123,-0.122571945,248.0,-5.023595,-14.700575,-0.121170044,0.045684814,0.11541748,-2.4893217,1.0426409,9.427967
34.80526801,31.26505789,0.0,0.35800785,12-19-15,-0.2288425,0.30998123,-0.122571945,248.0,-4.8566575,-14.678151,-0.121170044,0.045684814,0.11541748,-2.4893217,1.0426409,9.427967
34.80526801,31.26505789,0.0,0.35800785,12-19-15,-0.2288425,0.30998123,-0.122571945,248.0,-4.6893954,-14.682685,-0.121170044,0.045684814,0.11541748,-2.4893217,1.0426409,9.427967
34.80526801,31.26505789,0.0,0.35800785,12-19-15,-0.2288425,0.30998123,-0.122571945,248.0,-4.6893954,-14.682685,-0.121170044,0.045684814,0.11541748,-2.4893217,1.0426409,9.427967
34.80526801,31.26505789,0.0,0.35800785,12-19-15,0.25404644,0.11407447,0.010726929,247.0,-4.2819324,-14.707985,-0.121170044,0.045684814,0.11541748,-2.5043387,0.8772145,9.4408245
34.80526801,31.26505789,0.0,0.35800785,12-19-15,0.25404644,0.11407447,0.010726929,247.0,-4.2819324,-14.707985,-0.121170044,0.045684814,0.11541748,-2.5043387,0.8772145,9.4408245
34.80526801,31.26505789,0.0,0.35800785,12-19-15,0.25404644,0.11407447,0.010726929,247.0,-4.1145053,-14.723335,-0.121170044,0.045684814,0.11541748,-2.5043387,0.8772145,9.4408245
34.80526801,31.26505789,0.0,0.35800785,12-19-15,0.25404644,0.11407447,0.010726929,248.0,-3.9650133,-14.776573,-0.121170044,0.045684814,0.11541748,-2.5043387,0.8772145,9.4408245
34.80526801,31.26505789,0.0,0.35800785,12-19-15,0.25404644,0.11407447,0.010726929,248.0,-3.9650133,-14.776573,-0.121170044,0.045684814,0.11541748,-2.5043387,0.8772145,9.4408245
34.80526801,31.26505789,0.0,0.35800785,12-19-15,0.25404644,0.11407447,0.010726929,247.0,-3.5788255,-14.981684,-0.13630676,0.01210022,0.027114868,-2.5043387,0.8772145,9.4408245
34.80526801,31.26505789,0.0,0.35800785,12-19-15,0.25404644,0.11407447,0.010726929,247.0,-3.5788255,-15.051495,-0.13630676,0.01210022,0.027114868,-2.5043387,0.8772145,9.4408245
34.80526801,31.26505789,0.0,0.35800785,12-19-15,0.25404644,0.11407447,0.010726929,247.0,-3.4014506,-15.051495,-0.13630676,0.01210022,0.027114868,-2.5043387,0.8772145,9.4408245
34.80526801,31.26505789,0.0,0.35800785,12-19-15,0.25404644,0.11407447,0.010726929,247.0,-3.2176676,-15.160342,-0.13630676,0.01210022,0.027114868,-2.5043387,0.8772145,9.4408245
34.80526801,31.26505789,0.0,0.35800785,12-19-15,0.25404644,0.11407447,0.010726929,247.0,-3.2176676,-15.160342,-0.13630676,0.01210022,0.027114868,-2.5043387,0.8772145,9.4408245
34.80526801,31.26505789,0.0,0.35800785,12-19-15,0.32816052,-0.045644283,0.35455608,247.0,-2.8823836,-15.551674,-0.13630676,0.01210022,0.027114868,-2.5445445,0.63316,9.449592
34.80526801,31.26505789,0.0,0.35800785,12-19-15,0.32816052,-0.045644283,0.35455608,247.0,-2.7854404,-15.607447,-0.13630676,0.01210022,0.027114868,-2.5445445,0.63316,9.449592
34.80526801,31.26505789,0.0,0.35800785,12-19-15,0.32816052,-0.045644283,0.35455608,247.0,-2.7854404,-15.607447,-0.13630676,0.01210022,0.027114868,-2.5445445,0.63316,9.449592
34.80526801,31.26505789,0.0,0.35800785,12-19-15,0.32816052,-0.045644283,0.35455608,247.0,-2.7854404,-15.607447,-0.13630676,0.01210022,0.027114868,-2.5445445,0.63316,9.449592
34.80526801,31.26505789,0.0,0.35800785,12-19-15,0.32816052,-0.045644283,0.35455608,247.0,-2.7156224,-15.701904,-0.13630676,0.01210022,0.027114868,-2.5445445,0.63316,9.449592
34.80526801,31.26505789,0.0,0.35800785,12-19-15,0.32816052,-0.045644283,0.35455608,247.0,-2.5860796,-15.732102,-0.10366821,0.08760071,0.008956909,-2.5445445,0.63316,9.449592
34.80526801,31.26505789,0.0,0.35800785,12-19-15,0.32816052,-0.045644283,0.35455608,247.0,-2.5475163,-15.683465,-0.10366821,0.08760071,0.008956909,-2.5445445,0.63316,9.449592
34.80526801,31.26505789,0.0,0.35800785,12-19-15,0.32816052,-0.045644283,0.35455608,247.0,-2.5475163,-15.683465,-0.10366821,0.08760071,0.008956909,-2.5445445,0.63316,9.449592
34.80526801,31.26505789,0.0,0.35800785,12-19-15,0.32816052,-0.045644283,0.35455608,247.0,-2.537843,-15.638111,-0.10366821,0.08760071,0.008956909,-2.5445445,0.63316,9.449592
34.80526801,31.26505789,0.0,0.35800785,12-19-15,0.32816052,-0.045644283,0.35455608,247.0,-2.537843,-15.638111,-0.10366821,0.08760071,0.008956909,-2.5445445,0.63316,9.449592
34.80526801,31.26505789,0.0,0.35800785,12-19-15,-0.3525648,-0.4303724,-0.12943172,247.0,-2.6488378,-15.290271,-0.10366821,0.08760071,0.008956909,-2.6241627,0.47355962,9.437156
34.80526801,31.26505789,0.0,0.35800785,12-19-15,-0.3525648,-0.4303724,-0.12943172,247.0,-2.7006094,-15.237562,-0.10366821,0.08760071,0.008956909,-2.6241627,0.47355962,9.437156
34.80526801,31.26505789,0.0,0.35800785,12-19-15,-0.3525648,-0.4303724,-0.12943172,247.0,-2.7006094,-15.237562,-0.10366821,0.08760071,0.008956909,-2.6241627,0.47355962,9.437156
34.80526801,31.26505789,0.0,0.35800785,12-19-15,-0.3525648,-0.4303724,-0.12943172,247.0,-2.7774658,-15.243674,-0.10366821,0.08760071,0.008956909,-2.6241627,0.47355962,9.437156
34.80526801,31.26505789,0.0,0.35800785,12-19-15,-0.3525648,-0.4303724,-0.12943172,247.0,-2.7774658,-15.243674,-0.10366821,0.08760071,0.008956909,-2.6241627,0.47355962,9.437156
34.80526801,31.26505789,0.0,0.35800785,12-19-15,-0.3525648,-0.4303724,-0.12943172,247.0,-3.095186,-15.196672,0.011230469,-0.051818848,0.048309326,-2.6241627,0.47355962,9.437156
34.80526801,31.26505789,0.0,0.35800785,12-19-15,-0.3525648,-0.4303724,-0.12943172,247.0,-3.095186,-15.196672,0.011230469,-0.051818848,0.048309326,-2.6241627,0.47355962,9.437156
34.80526801,31.26505789,0.0,0.35800785,12-19-15,-0.3525648,-0.4303724,-0.12943172,247.0,-3.095186,-15.196672,0.011230469,-0.051818848,0.048309326,-2.6241627,0.47355962,9.437156
34.80526801,31.26505789,0.0,0.35800785,12-19-15,-0.3525648,-0.4303724,-0.12943172,247.0,-3.1626992,-15.305339,0.011230469,-0.051818848,0.048309326,-2.6241627,0.47355962,9.437156
34.80526801,31.26505789,0.0,0.35800785,12-19-15,-0.3525648,-0.4303724,-0.12943172,247.0,-3.1626992,-15.305339,0.011230469,-0.051818848,0.048309326,-2.6241627,0.47355962,9.437156
34.80526581,31.26505849,0.0,0.3821075,12-19-15,0.56946015,0.019366443,0.17738342,246.0,-3.4339232,-15.712211,0.011230469,-0.051818848,0.048309326,-2.5998266,0.51290214,9.4418335
34.80526581,31.26505849,0.0,0.3821075,12-19-15,0.56946015,0.019366443,0.17738342,246.0,-3.4339232,-15.712211,0.011230469,-0.051818848,0.048309326,-2.5998266,0.51290214,9.4418335
34.80526581,31.26505849,0.0,0.3821075,12-19-15,0.56946015,0.019366443,0.17738342,246.0,-3.4525254,-15.782592,0.011230469,-0.051818848,0.048309326,-2.5998266,0.51290214,9.4418335
34.80526581,31.26505849,0.0,0.3821075,12-19-15,0.56946015,0.019366443,0.17738342,246.0,-3.4525254,-15.782592,0.011230469,-0.051818848,0.048309326,-2.5998266,0.51290214,9.4418335
34.80526581,31.26505849,0.0,0.3821075,12-19-15,0.56946015,0.019366443,0.17738342,246.0,-3.4525254,-15.782592,0.011230469,-0.051818848,0.048309326,-2.5998266,0.51290214,9.4418335
34.80526581,31.26505849,0.0,0.3821075,12-19-15,0.56946015,0.019366443,0.17738342,246.0,-3.4241014,-16.014038,0.041000366,0.06362915,0.009933472,-2.5998266,0.51290214,9.4418335
34.80526581,31.26505849,0.0,0.3821075,12-19-15,0.56946015,0.019366443,0.17738342,246.0,-3.4241014,-16.014038,0.041000366,0.06362915,0.009933472,-2.5998266,0.51290214,9.4418335
34.80526581,31.26505849,0.0,0.3821075,12-19-15,0.56946015,0.019366443,0.17738342,246.0,-3.3959055,-16.002117,0.041000366,0.06362915,0.009933472,-2.5998266,0.51290214,9.4418335
34.80526581,31.26505849,0.0,0.3821075,12-19-15,0.56946015,0.019366443,0.17738342,246.0,-3.3959055,-16.002117,0.041000366,0.06362915,0.009933472,-2.5998266,0.51290214,9.4418335
34.80526581,31.26505849,0.0,0.3821075,12-19-15,0.56946015,0.019366443,0.17738342,246.0,-3.3959055,-16.002117,0.041000366,0.06362915,0.009933472,-2.5998266,0.51290214,9.4418335
34.80526581,31.26505849,0.0,0.3821075,12-19-15,-0.25064087,0.27140778,-0.01948452,247.0,-3.3328722,-15.944016,0.041000366,0.06362915,0.009933472,-2.6707356,0.5788598,9.4182
34.80526581,31.26505849,0.0,0.3821075,12-19-15,-0.25064087,0.27140778,-0.01948452,247.0,-3.3328722,-15.944016,0.041000366,0.06362915,0.009933472,-2.6707356,0.5788598,9.4182
34.80526581,31.26505849,0.0,0.3821075,12-19-15,-0.25064087,0.27140778,-0.01948452,247.0,-3.3321717,-15.897706,0.041000366,0.06362915,0.009933472,-2.6707356,0.5788598,9.4182
34.80526581,31.26505849,0.0,0.3821075,12-19-15,-0.25064087,0.27140778,-0.01948452,247.0,-3.3321717,-15.897706,0.041000366,0.06362915,0.009933472,-2.6707356,0.5788598,9.4182
34.80526581,31.26505849,0.0,0.3821075,12-19-15,-0.25064087,0.27140778,-0.01948452,247.0,-3.3417141,-15.866861,0.041000366,0.06362915,0.009933472,-2.6707356,0.5788598,9.4182
34.80526581,31.26505849,0.0,0.3821075,12-19-16,-0.25064087,0.27140778,-0.01948452,247.0,-3.3918445,-15.811306,-0.0038757324,-4.119873E-4,-0.02015686,-2.6707356,0.5788598,9.4182
34.80526581,31.26505849,0.0,0.3821075,12-19-16,-0.25064087,0.27140778,-0.01948452,247.0,-3.3918445,-15.811306,-0.0038757324,-4.119873E-4,-0.02015686,-2.6707356,0.5788598,9.4182
34.80526581,31.26505849,0.0,0.3821075,12-19-16,-0.25064087,0.27140778,-0.01948452,247.0,-3.463412,-15.814666,-0.0038757324,-4.119873E-4,-0.02015686,-2.6707356,0.5788598,9.4182
34.80526581,31.26505849,0.0,0.3821075,12-19-16,-0.25064087,0.27140778,-0.01948452,247.0,-3.5437932,-15.838513,-0.0038757324,-4.119873E-4,-0.02015686,-2.6707356,0.5788598,9.4182
34.80526581,31.26505849,0.0,0.3821075,12-19-16,-0.25064087,0.27140778,-0.01948452,247.0,-3.5437932,-15.838513,-0.0038757324,-4.119873E-4,-0.02015686,-2.6707356,0.5788598,9.4182
34.80526581,31.26505849,0.0,0.3821075,12-19-16,0.1716764,-0.38328063,0.14478779,247.0,-3.7949889,-15.977585,-0.0038757324,-4.119873E-4,-0.02015686,-2.6957233,0.58604366,9.410633
34.80526581,31.26505849,0.0,0.3821075,12-19-16,0.1716764,-0.38328063,0.14478779,247.0,-3.7949889,-15.977585,-0.0038757324,-4.119873E-4,-0.02015686,-2.6957233,0.58604366,9.410633
34.80526581,31.26505849,0.0,0.3821075,12-19-16,0.1716764,-0.38328063,0.14478779,247.0,-3.7949889,-15.977585,-0.0038757324,-4.119873E-4,-0.02015686,-2.6957233,0.58604366,9.410633
34.80526581,31.26505849,0.0,0.3821075,12-19-16,0.1716764,-0.38328063,0.14478779,247.0,-4.0094132,-16.16385,-0.0038757324,-4.119873E-4,-0.02015686,-2.6957233,0.58604366,9.410633
34.80526581,31.26505849,0.0,0.3821075,12-19-16,0.1716764,-0.38328063,0.14478779,247.0,-4.0094132,-16.16385,-0.0038757324,-4.119873E-4,-0.02015686,-2.6957233,0.58604366,9.410633
34.80526581,31.26505849,0.0,0.3821075,12-19-16,0.1716764,-0.38328063,0.14478779,246.0,-4.3177314,-16.281973,0.060775757,0.033233643,0.036392212,-2.6957233,0.58604366,9.410633
34.80526581,31.26505849,0.0,0.3821075,12-19-16,0.1716764,-0.38328063,0.14478779,246.0,-4.4298453,-16.309216,0.060775757,0.033233643,0.036392212,-2.6957233,0.58604366,9.410633
34.80526581,31.26505849,0.0,0.3821075,12-19-16,0.1716764,-0.38328063,0.14478779,246.0,-4.4298453,-16.309216,0.060775757,0.033233643,0.036392212,-2.6957233,0.58604366,9.410633
34.80526581,31.26505849,0.0,0.3821075,12-19-16,0.1716764,-0.38328063,0.14478779,246.0,-4.526442,-16.290619,0.060775757,0.033233643,0.036392212,-2.6957233,0.58604366,9.410633
34.80526581,31.26505849,0.0,0.3821075,12-19-16,0.1716764,-0.38328063,0.14478779,246.0,-4.526442,-16.290619,0.060775757,0.033233643,0.036392212,-2.6957233,0.58604366,9.410633
34.80526581,31.26505849,0.0,0.3821075,12-19-16,-0.16890907,-0.012572825,-0.013063431,246.0,-4.868572,-15.943882,0.060775757,0.033233643,0.036392212,-2.7220185,0.6991292,9.395329
34.80526581,31.26505849,0.0,0.3821075,12-19-16,-0.16890907,-0.012572825,-0.013063431,246.0,-4.868572,-15.943882,0.060775757,0.033233643,0.036392212,-2.7220185,0.6991292,9.395329
34.80526581,31.26505849,0.0,0.3821075,12-19-16,-0.16890907,-0.012572825,-0.013063431,246.0,-4.868572,-15.943882,0.060775757,0.033233643,0.036392212,-2.7220185,0.6991292,9.395329
34.80526581,31.26505849,0.0,0.3821075,12-19-16,-0.16890907,-0.012572825,-0.013063431,246.0,-4.879783,-15.827831,0.060775757,0.033233643,0.036392212,-2.7220185,0.6991292,9.395329
34.80526581,31.26505849,0.0,0.3821075,12-19-16,-0.16890907,-0.012572825,-0.013063431,246.0,-4.879783,-15.827831,0.060775757,0.033233643,0.036392212,-2.7220185,0.6991292,9.395329
34.80526581,31.26505849,0.0,0.3821075,12-19-16,-0.16890907,-0.012572825,-0.013063431,246.0,-4.9550705,-15.616993,0.054489136,-0.034973145,0.043014526,-2.7220185,0.6991292,9.395329
34.80526581,31.26505849,0.0,0.3821075,12-19-16,-0.16890907,-0.012572825,-0.013063431,246.0,-4.9550705,-15.616993,0.054489136,-0.034973145,0.043014526,-2.7220185,0.6991292,9.395329
34.80526581,31.26505849,0.0,0.3821075,12-19-16,-0.16890907,-0.012572825,-0.013063431,246.0,-4.925895,-15.632043,0.054489136,-0.034973145,0.043014526,-2.7220185,0.6991292,9.395329
34.80526581,31.26505849,0.0,0.3821075,12-19-16,-0.16890907,-0.012572825,-0.013063431,246.0,-4.925895,-15.632043,0.054489136,-0.034973145,0.043014526,-2.7220185,0.6991292,9.395329
34.80526581,31.26505849,0.0,0.3821075,12-19-16,-0.16890907,-0.012572825,-0.013063431,246.0,-4.925895,-15.632043,0.054489136,-0.034973145,0.043014526,-2.7220185,0.6991292,9.395329
34.80526581,31.26505849,0.0,0.3821075,12-19-16,0.33160543,0.24929082,0.18510437,246.0,-4.8473988,-15.733837,0.054489136,-0.034973145,0.043014526,-2.6887436,0.81122893,9.395901
34.80526581,31.26505849,0.0,0.3821075,12-19-16,0.33160543,0.24929082,0.18510437,246.0,-4.8473988,-15.733837,0.054489136,-0.034973145,0.043014526,-2.6887436,0.81122893,9.395901
34.80526581,31.26505849,0.0,0.3821075,12-19-16,0.33160543,0.24929082,0.18510437,246.0,-4.7941227,-15.801674,0.054489136,-0.034973145,0.043014526,-2.6887436,0.81122893,9.395901
34.80526581,31.26505849,0.0,0.3821075,12-19-16,0.33160543,0.24929082,0.18510437,246.0,-4.7941227,-15.801674,0.054489136,-0.034973145,0.043014526,-2.6887436,0.81122893,9.395901
34.80526581,31.26505849,0.0,0.3821075,12-19-16,0.33160543,0.24929082,0.18510437,246.0,-4.7941227,-15.801674,0.054489136,-0.034973145,0.043014526,-2.6887436,0.81122893,9.395901
34.80526581,31.26505849,0.0,0.3821075,12-19-16,0.33160543,0.24929082,0.18510437,246.0,-4.706014,-16.121986,-0.016952515,0.03074646,0.003540039,-2.6887436,0.81122893,9.395901
34.80526581,31.26505849,0.0,0.3821075,12-19-16,0.33160543,0.24929082,0.18510437,246.0,-4.706014,-16.121986,-0.016952515,0.03074646,0.003540039,-2.6887436,0.81122893,9.395901
34.80526581,31.26505849,0.0,0.3821075,12-19-16,0.33160543,0.24929082,0.18510437,246.0,-4.6931596,-16.224405,-0.016952515,0.03074646,0.003540039,-2.6887436,0.81122893,9.395901
34.80526581,31.26505849,0.0,0.3821075,12-19-16,0.33160543,0.24929082,0.18510437,246.0,-4.6931596,-16.224405,-0.016952515,0.03074646,0.003540039,-2.6887436,0.81122893,9.395901
34.80526581,31.26505849,0.0,0.3821075,12-19-16,0.04137802,-0.025954485,0.1389904,246.0,-4.6931596,-16.224405,-0.016952515,0.03074646,0.003540039,-2.6727898,0.7936813,9.40195
34.80526564,31.26505877,0.0,0.41478583,12-19-16,0.04137802,-0.025954485,0.1389904,246.0,-4.804516,-16.296179,-0.016952515,0.03074646,0.003540039,-2.6727898,0.7936813,9.40195
34.80526564,31.26505877,0.0,0.41478583,12-19-16,0.04137802,-0.025954485,0.1389904,246.0,-4.804516,-16.296179,-0.016952515,0.03074646,0.003540039,-2.6727898,0.7936813,9.40195
34.80526564,31.26505877,0.0,0.41478583,12-19-16,0.04137802,-0.025954485,0.1389904,246.0,-4.7840166,-16.32881,-0.016952515,0.03074646,0.003540039,-2.6727898,0.7936813,9.40195
34.80526564,31.26505877,0.0,0.41478583,12-19-16,0.04137802,-0.025954485,0.1389904,246.0,-4.7840166,-16.32881,-0.016952515,0.03074646,0.003540039,-2.6727898,0.7936813,9.40195
34.80526564,31.26505877,0.0,0.41478583,12-19-16,0.04137802,-0.025954485,0.1389904,246.0,-4.7840166,-16.32881,-0.016952515,0.03074646,0.003540039,-2.6727898,0.7936813,9.40195
34.80526564,31.26505877,0.0,0.41478583,12-19-16,0.04137802,-0.025954485,0.1389904,246.0,-4.69064,-16.406647,-0.015838623,0.030319214,0.03540039,-2.6727898,0.7936813,9.40195
34.80526564,31.26505877,0.0,0.41478583,12-19-16,0.04137802,-0.025954485,0.1389904,246.0,-4.69064,-16.406647,-0.015838623,0.030319214,0.03540039,-2.6727898,0.7936813,9.40195
34.80526564,31.26505877,0.0,0.41478583,12-19-16,0.04137802,-0.025954485,0.1389904,246.0,-4.6851025,-16.413828,-0.015838623,0.030319214,0.03540039,-2.6727898,0.7936813,9.40195
34.80526564,31.26505877,0.0,0.41478583,12-19-16,-0.029533148,0.08826256,-0.10218716,246.0,-4.6851025,-16.413828,-0.015838623,0.030319214,0.03540039,-2.7570724,0.81628823,9.375639
34.80526564,31.26505877,0.0,0.41478583,12-19-16,-0.029533148,0.08826256,-0.10218716,246.0,-4.6851025,-16.413828,-0.015838623,0.030319214,0.03540039,-2.7570724,0.81628823,9.375639
34.80526564,31.26505877,0.0,0.41478583,12-19-16,-0.029533148,0.08826256,-0.10218716,245.0,-4.5852103,-16.459066,-0.015838623,0.030319214,0.03540039,-2.7570724,0.81628823,9.375639
34.80526564,31.26505877,0.0,0.41478583,12-19-16,-0.029533148,0.08826256,-0.10218716,245.0,-4.5852103,-16.459066,-0.015838623,0.030319214,0.03540039,-2.7570724,0.81628823,9.375639
34.80526564,31.26505877,0.0,0.41478583,12-19-16,-0.029533148,0.08826256,-0.10218716,245.0,-4.589465,-16.429432,-0.015838623,0.030319214,0.03540039,-2.7570724,0.81628823,9.375639
34.80526564,31.26505877,0.0,0.41478583,12-19-16,-0.029533148,0.08826256,-0.10218716,245.0,-4.589465,-16.429432,-0.015838623,0.030319214,0.03540039,-2.7570724,0.81628823,9.375639
34.80526564,31.26505877,0.0,0.41478583,12-19-16,-0.029533148,0.08826256,-0.10218716,245.0,-4.6298714,-16.312788,-0.015838623,0.030319214,0.03540039,-2.7570724,0.81628823,9.375639
34.80526564,31.26505877,0.0,0.41478583,12-19-17,-0.029533148,0.08826256,-0.10218716,245.0,-4.7243443,-16.33218,-0.011734009,0.0061798096,0.02017212,-2.7570724,0.81628823,9.375639
34.80526564,31.26505877,0.0,0.41478583,12-19-17,-0.029533148,0.08826256,-0.10218716,245.0,-4.7243443,-16.33218,-0.011734009,0.0061798096,0.02017212,-2.7570724,0.81628823,9.375639
34.80526564,31.26505877,0.0,0.41478583,12-19-17,0.04272628,-0.016442657,0.002122879,246.0,-4.685901,-16.249098,-0.011734009,0.0061798096,0.02017212,-2.7450294,0.7972081,9.380814
34.80526564,31.26505877,0.0,0.41478583,12-19-17,0.04272628,-0.016442657,0.002122879,246.0,-4.6221285,-16.374512,-0.011734009,0.0061798096,0.02017212,-2.7450294,0.7972081,9.380814
34.80526564,31.26505877,0.0,0.41478583,12-19-17,0.04272628,-0.016442657,0.002122879,246.0,-4.6221285,-16.374512,-0.011734009,0.0061798096,0.02017212,-2.7450294,0.7972081,9.380814
34.80526564,31.26505877,0.0,0.41478583,12-19-17,0.04272628,-0.016442657,0.002122879,245.0,-4.6842,-16.427767,-0.011734009,0.0061798096,0.02017212,-2.7450294,0.7972081,9.380814
34.80526564,31.26505877,0.0,0.41478583,12-19-17,0.04272628,-0.016442657,0.002122879,245.0,-4.6842,-16.427767,-0.011734009,0.0061798096,0.02017212,-2.7450294,0.7972081,9.380814
34.80526564,31.26505877,0.0,0.41478583,12-19-17,0.04272628,-0.016442657,0.002122879,245.0,-4.6842,-16.427767,-0.011734009,0.0061798096,0.02017212,-2.7450294,0.7972081,9.380814
34.80526564,31.26505877,0.0,0.41478583,12-19-17,0.04272628,-0.016442657,0.002122879,245.0,-4.630986,-16.48291,-0.011734009,0.0061798096,0.02017212,-2.7450294,0.7972081,9.380814
34.80526564,31.26505877,0.0,0.41478583,12-19-17,0.04272628,-0.016442657,0.002122879,245.0,-4.630986,-16.48291,-0.011734009,0.0061798096,0.02017212,-2.7450294,0.7972081,9.380814
34.80526564,31.26505877,0.0,0.41478583,12-19-17,0.04272628,-0.016442657,0.002122879,245.0,-4.722641,-16.151615,-0.011627197,-0.017227173,0.020111084,-2.7450294,0.7972081,9.380814
34.80526564,31.26505877,0.0,0.41478583,12-19-17,0.04272628,-0.016442657,0.002122879,245.0,-4.722641,-16.151615,-0.011627197,-0.017227173,0.020111084,-2.7450294,0.7972081,9.380814
34.80526564,31.26505877,0.0,0.41478583,12-19-17,-0.082268715,0.026346803,-0.08252525,245.0,-4.7168713,-16.100466,-0.011627197,-0.017227173,0.020111084,-2.7557714,0.8031975,9.377152
34.80526564,31.26505877,0.0,0.41478583,12-19-17,-0.082268715,0.026346803,-0.08252525,245.0,-4.7168713,-16.100466,-0.011627197,-0.017227173,0.020111084,-2.7557714,0.8031975,9.377152
34.80526564,31.26505877,0.0,0.41478583,12-19-17,-0.082268715,0.026346803,-0.08252525,245.0,-4.7168713,-16.100466,-0.011627197,-0.017227173,0.020111084,-2.7557714,0.8031975,9.377152
34.80526564,31.26505877,0.0,0.41478583,12-19-17,-0.082268715,0.026346803,-0.08252525,245.0,-4.710409,-15.899368,-0.011627197,-0.017227173,0.020111084,-2.7557714,0.8031975,9.377152
34.80526564,31.26505877,0.0,0.41478583,12-19-17,-0.082268715,0.026346803,-0.08252525,245.0,-4.710409,-15.899368,-0.011627197,-0.017227173,0.020111084,-2.7557714,0.8031975,9.377152
34.80526564,31.26505877,0.0,0.41478583,12-19-17,-0.082268715,0.026346803,-0.08252525,245.0,-4.7169857,-15.792739,-0.011627197,-0.017227173,0.020111084,-2.7557714,0.8031975,9.377152
34.80526564,31.26505877,0.0,0.41478583,12-19-17,-0.082268715,0.026346803,-0.08252525,245.0,-4.7169857,-15.792739,-0.011627197,-0.017227173,0.020111084,-2.7557714,0.8031975,9.377152
34.80526564,31.26505877,0.0,0.41478583,12-19-17,-0.082268715,0.026346803,-0.08252525,245.0,-4.7169857,-15.792739,-0.011627197,-0.017227173,0.020111084,-2.7557714,0.8031975,9.377152
34.80526564,31.26505877,0.0,0.41478583,12-19-17,-0.082268715,0.026346803,-0.08252525,245.0,-4.637855,-15.781269,-0.0178833,-0.028656006,-9.460449E-4,-2.7557714,0.8031975,9.377152
34.80526564,31.26505877,0.0,0.41478583,12-19-17,-0.082268715,0.026346803,-0.08252525,245.0,-4.637855,-15.781269,-0.0178833,-0.028656006,-9.460449E-4,-2.7557714,0.8031975,9.377152
34.80526564,31.26505877,0.0,0.41478583,12-19-17,0.1012454,0.078546226,0.12265015,245.0,-4.576266,-15.717941,-0.0178833,-0.028656006,-9.460449E-4,-2.6394408,0.805581,9.410355
34.80526564,31.26505877,0.0,0.41478583,12-19-17,0.1012454,0.078546226,0.12265015,245.0,-4.576266,-15.717941,-0.0178833,-0.028656006,-9.460449E-4,-2.6394408,0.805581,9.410355
34.80526564,31.26505877,0.0,0.41478583,12-19-17,0.1012454,0.078546226,0.12265015,245.0,-4.576266,-15.717941,-0.0178833,-0.028656006,-9.460449E-4,-2.6394408,0.805581,9.410355
34.80526564,31.26505877,0.0,0.41478583,12-19-17,0.1012454,0.078546226,0.12265015,245.0,-4.39333,-15.627517,-0.0178833,-0.028656006,-9.460449E-4,-2.6394408,0.805581,9.410355
34.80526564,31.26505877,0.0,0.41478583,12-19-17,0.1012454,0.078546226,0.12265015,245.0,-4.39333,-15.627517,-0.0178833,-0.028656006,-9.460449E-4,-2.6394408,0.805581,9.410355
34.80526564,31.26505877,0.0,0.41478583,12-19-17,0.1012454,0.078546226,0.12265015,245.0,-4.39333,-15.627517,-0.0178833,-0.028656006,-9.460449E-4,-2.6394408,0.805581,9.410355
34.80526564,31.26505877,0.0,0.41478583,12-19-17,0.1012454,0.078546226,0.12265015,245.0,-4.3449516,-15.584069,-0.0178833,-0.028656006,-9.460449E-4,-2.6394408,0.805581,9.410355
34.80526564,31.26505877,0.0,0.41478583,12-19-17,0.1012454,0.078546226,0.12265015,245.0,-4.3449516,-15.584069,-0.0178833,-0.028656006,-9.460449E-4,-2.6394408,0.805581,9.410355
34.80526564,31.26505877,0.0,0.41478583,12-19-17,0.1012454,0.078546226,0.12265015,245.0,-4.2378473,-15.18422,-0.036849976,-0.019699097,0.005279541,-2.6394408,0.805581,9.410355
34.80526564,31.26505877,0.0,0.41478583,12-19-17,0.1012454,0.078546226,0.12265015,245.0,-4.2378473,-15.18422,-0.036849976,-0.019699097,0.005279541,-2.6394408,0.805581,9.410355
34.80526564,31.26505877,0.0,0.41478583,12-19-17,0.15086961,-0.0441764,0.071214676,246.0,-4.16205,-15.167717,-0.036849976,-0.019699097,0.005279541,-2.5461054,0.7223424,9.442773
34.80526564,31.26505877,0.0,0.41478583,12-19-17,0.15086961,-0.0441764,0.071214676,246.0,-4.16205,-15.167717,-0.036849976,-0.019699097,0.005279541,-2.5461054,0.7223424,9.442773
34.80526564,31.26505877,0.0,0.41478583,12-19-17,0.15086961,-0.0441764,0.071214676,246.0,-4.0983005,-15.256801,-0.036849976,-0.019699097,0.005279541,-2.5461054,0.7223424,9.442773
34.80526491,31.26505926,0.0,0.48160523,12-19-17,0.15086961,-0.0441764,0.071214676,246.0,-4.0609794,-15.20939,-0.036849976,-0.019699097,0.005279541,-2.5461054,0.7223424,9.442773
34.80526491,31.26505926,0.0,0.48160523,12-19-17,0.15086961,-0.0441764,0.071214676,246.0,-4.0609794,-15.20939,-0.036849976,-0.019699097,0.005279541,-2.5461054,0.7223424,9.442773
34.80526491,31.26505926,0.0,0.48160523,12-19-17,0.15086961,-0.0441764,0.071214676,246.0,-3.9670575,-15.344919,-0.036849976,-0.019699097,0.005279541,-2.5461054,0.7223424,9.442773
34.80526491,31.26505926,0.0,0.48160523,12-19-17,0.15086961,-0.0441764,0.071214676,246.0,-3.9670575,-15.344919,-0.036849976,-0.019699097,0.005279541,-2.5461054,0.7223424,9.442773
34.80526491,31.26505926,0.0,0.48160523,12-19-17,0.15086961,-0.0441764,0.071214676,246.0,-3.8726435,-15.469911,-0.036849976,-0.019699097,0.005279541,-2.5461054,0.7223424,9.442773
34.80526491,31.26505926,0.0,0.48160523,12-19-17,0.15086961,-0.0441764,0.071214676,246.0,-3.6921055,-15.442292,-0.028640747,0.02041626,-0.0027770996,-2.5461054,0.7223424,9.442773
34.80526491,31.26505926,0.0,0.48160523,12-19-17,-0.07959533,-0.12662882,0.0025424957,246.0,-3.6921055,-15.442292,-0.028640747,0.02041626,-0.0027770996,-2.5461054,0.7223424,9.442773
34.80526491,31.26505926,0.0,0.48160523,12-19-17,-0.07959533,-0.12662882,0.0025424957,246.0,-3.62507,-15.335499,-0.028640747,0.02041626,-0.0027770996,-2.5813708,0.61080647,9.4410715
34.80526491,31.26505926,0.0,0.48160523,12-19-17,-0.07959533,-0.12662882,0.0025424957,246.0,-3.62507,-15.335499,-0.028640747,0.02041626,-0.0027770996,-2.5813708,0.61080647,9.4410715
34.80526491,31.26505926,0.0,0.48160523,12-19-17,-0.07959533,-0.12662882,0.0025424957,246.0,-3.5938878,-15.208363,-0.028640747,0.02041626,-0.0027770996,-2.5813708,0.61080647,9.4410715
34.80526491,31.26505926,0.0,0.48160523,12-19-17,-0.07959533,-0.12662882,0.0025424957,246.0,-3.6071892,-15.004225,-0.028640747,0.02041626,-0.0027770996,-2.5813708,0.61080647,9.4410715
34.80526491,31.26505926,0.0,0.48160523,12-19-17,-0.07959533,-0.12662882,0.0025424957,246.0,-3.6071892,-15.004225,-0.028640747,0.02041626,-0.0027770996,-2.5813708,0.61080647,9.4410715
34.80526491,31.26505926,0.0,0.48160523,12-19-17,-0.07959533,-0.12662882,0.0025424957,246.0,-3.6654017,-14.9177265,-0.028640747,0.02041626,-0.0027770996,-2.5813708,0.61080647,9.4410715
34.80526491,31.26505926,0.0,0.48160523,12-19-17,-0.07959533,-0.12662882,0.0025424957,246.0,-3.6654017,-14.9177265,-0.028640747,0.02041626,-0.0027770996,-2.5813708,0.61080647,9.4410715
34.80526491,31.26505926,0.0,0.48160523,12-19-17,-0.07959533,-0.12662882,0.0025424957,246.0,-3.6654017,-14.9177265,-0.028640747,0.02041626,-0.0027770996,-2.5813708,0.61080647,9.4410715
34.80526491,31.26505926,0.0,0.48160523,12-19-18,0.18989205,-0.024078488,0.15499783,246.0,-4.0418715,-14.606556,0.03892517,-0.02015686,-5.79834E-4,-2.4705732,0.6277423,9.469562
34.80526491,31.26505926,0.0,0.48160523,12-19-18,0.18989205,-0.024078488,0.15499783,246.0,-4.1350794,-14.6870985,0.03892517,-0.02015686,-5.79834E-4,-2.4705732,0.6277423,9.469562
34.80526491,31.26505926,0.0,0.48160523,12-19-18,0.18989205,-0.024078488,0.15499783,246.0,-4.1350794,-14.6870985,0.03892517,-0.02015686,-5.79834E-4,-2.4705732,0.6277423,9.469562
34.80526491,31.26505926,0.0,0.48160523,12-19-18,0.18989205,-0.024078488,0.15499783,246.0,-4.221409,-14.57639,0.03892517,-0.02015686,-5.79834E-4,-2.4705732,0.6277423,9.469562
34.80526491,31.26505926,0.0,0.48160523,12-19-18,0.18989205,-0.024078488,0.15499783,246.0,-4.221409,-14.57639,0.03892517,-0.02015686,-5.79834E-4,-2.4705732,0.6277423,9.469562
34.80526491,31.26505926,0.0,0.48160523,12-19-18,0.18989205,-0.024078488,0.15499783,247.0,-4.1111307,-14.591001,0.03892517,-0.02015686,-5.79834E-4,-2.4705732,0.6277423,9.469562
34.80526491,31.26505926,0.0,0.48160523,12-19-18,0.18989205,-0.024078488,0.15499783,247.0,-4.091112,-14.555142,0.03892517,-0.02015686,-5.79834E-4,-2.4705732,0.6277423,9.469562
34.80526491,31.26505926,0.0,0.48160523,12-19-18,0.18989205,-0.024078488,0.15499783,247.0,-4.0414724,-14.512083,0.03892517,-0.02015686,-5.79834E-4,-2.4705732,0.6277423,9.469562
34.80526491,31.26505926,0.0,0.48160523,12-19-18,0.18989205,-0.024078488,0.15499783,247.0,-4.0414724,-14.512083,0.03892517,-0.02015686,-5.79834E-4,-2.4705732,0.6277423,9.469562
34.80526491,31.26505926,0.0,0.48160523,12-19-18,0.18989205,-0.024078488,0.15499783,247.0,-4.0414724,-14.512083,0.03892517,-0.02015686,-5.79834E-4,-2.4705732,0.6277423,9.469562
34.80526491,31.26505926,0.0,0.48160523,12-19-18,0.09000301,-0.00274086,-0.053567886,247.0,-3.8395002,-14.574605,-0.0013275146,0.008468628,-0.061691284,-2.4346335,0.64560413,9.477666
34.80526491,31.26505926,0.0,0.48160523,12-19-18,0.09000301,-0.00274086,-0.053567886,247.0,-3.8395002,-14.574605,-0.0013275146,0.008468628,-0.061691284,-2.4346335,0.64560413,9.477666
34.80526491,31.26505926,0.0,0.48160523,12-19-18,0.09000301,-0.00274086,-0.053567886,248.0,-3.8192556,-14.542281,-0.0013275146,0.008468628,-0.061691284,-2.4346335,0.64560413,9.477666
34.80526491,31.26505926,0.0,0.48160523,12-19-18,0.09000301,-0.00274086,-0.053567886,248.0,-3.8192556,-14.542281,-0.0013275146,0.008468628,-0.061691284,-2.4346335,0.64560413,9.477666
34.80526491,31.26505926,0.0,0.48160523,12-19-18,0.09000301,-0.00274086,-0.053567886,248.0,-3.8192556,-14.542281,-0.0013275146,0.008468628,-0.061691284,-2.4346335,0.64560413,9.477666
34.80526491,31.26505926,0.0,0.48160523,12-19-18,0.09000301,-0.00274086,-0.053567886,248.0,-3.824686,-14.623751,-0.0013275146,0.008468628,-0.061691284,-2.4346335,0.64560413,9.477666
34.80526491,31.26505926,0.0,0.48160523,12-19-18,0.09000301,-0.00274086,-0.053567886,248.0,-3.824686,-14.623751,-0.0013275146,0.008468628,-0.061691284,-2.4346335,0.64560413,9.477666
34.80526491,31.26505926,0.0,0.48160523,12-19-18,0.09000301,-0.00274086,-0.053567886,248.0,-3.880767,-14.598319,-0.0013275146,0.008468628,-0.061691284,-2.4346335,0.64560413,9.477666
34.80526491,31.26505926,0.0,0.48160523,12-19-18,0.09000301,-0.00274086,-0.053567886,248.0,-3.880767,-14.598319,-0.0013275146,0.008468628,-0.061691284,-2.4346335,0.64560413,9.477666
34.80526491,31.26505926,0.0,0.48160523,12-19-18,0.09000301,-0.00274086,-0.053567886,248.0,-3.880767,-14.598319,-0.0013275146,0.008468628,-0.061691284,-2.4346335,0.64560413,9.477666
34.80526491,31.26505926,0.0,0.48160523,12-19-18,-0.12063193,0.18722773,-0.17395878,249.0,-4.0065017,-14.590282,0.027816772,-0.005218506,-0.08796692,-2.5128949,0.71822715,9.451979
34.80526491,31.26505926,0.0,0.48160523,12-19-18,-0.12063193,0.18722773,-0.17395878,249.0,-4.0065017,-14.590282,0.027816772,-0.005218506,-0.08796692,-2.5128949,0.71822715,9.451979
34.80526491,31.26505926,0.0,0.48160523,12-19-18,-0.12063193,0.18722773,-0.17395878,249.0,-3.9498365,-14.641068,0.027816772,-0.005218506,-0.08796692,-2.5128949,0.71822715,9.451979
34.80526491,31.26505926,0.0,0.48160523,12-19-18,-0.12063193,0.18722773,-0.17395878,249.0,-3.9498365,-14.641068,0.027816772,-0.005218506,-0.08796692,-2.5128949,0.71822715,9.451979
34.80526491,31.26505926,0.0,0.48160523,12-19-18,-0.12063193,0.18722773,-0.17395878,249.0,-3.9498365,-14.641068,0.027816772,-0.005218506,-0.08796692,-2.5128949,0.71822715,9.451979
34.80526491,31.26505926,0.0,0.48160523,12-19-18,-0.12063193,0.18722773,-0.17395878,248.0,-3.4479642,-14.629831,0.027816772,-0.005218506,-0.08796692,-2.5128949,0.71822715,9.451979
34.80526491,31.26505926,0.0,0.48160523,12-19-18,-0.12063193,0.18722773,-0.17395878,248.0,-3.4479642,-14.629831,0.027816772,-0.005218506,-0.08796692,-2.5128949,0.71822715,9.451979
34.80526491,31.26505926,0.0,0.48160523,12-19-18,-0.12063193,0.18722773,-0.17395878,249.0,-3.3667305,-14.540602,0.027816772,-0.005218506,-0.08796692,-2.5128949,0.71822715,9.451979
34.80526491,31.26505926,0.0,0.48160523,12-19-18,-0.12063193,0.18722773,-0.17395878,249.0,-3.3667305,-14.540602,0.027816772,-0.005218506,-0.08796692,-2.5128949,0.71822715,9.451979
34.80526491,31.26505926,0.0,0.48160523,12-19-18,-0.12063193,0.18722773,-0.17395878,249.0,-3.280087,-14.4784975,0.027816772,-0.005218506,-0.08796692,-2.5128949,0.71822715,9.451979
34.80526491,31.26505926,0.0,0.48160523,12-19-18,0.027157545,0.18234032,-0.058026314,249.0,-3.1729362,-14.294961,-0.06666565,-0.028656006,-0.055648804,-2.4794626,0.7405623,9.459082
34.80526491,31.26505926,0.0,0.48160523,12-19-18,0.027157545,0.18234032,-0.058026314,249.0,-3.1729362,-14.294961,-0.06666565,-0.028656006,-0.055648804,-2.4794626,0.7405623,9.459082
34.80526491,31.26505926,0.0,0.48160523,12-19-18,0.027157545,0.18234032,-0.058026314,249.0,-3.1783066,-14.339879,-0.06666565,-0.028656006,-0.055648804,-2.4794626,0.7405623,9.459082
34.80526491,31.26505926,0.0,0.48160523,12-19-18,0.027157545,0.18234032,-0.058026314,249.0,-3.1783066,-14.339879,-0.06666565,-0.028656006,-0.055648804,-2.4794626,0.7405623,9.459082
34.80526491,31.26505926,0.0,0.48160523,12-19-18,0.027157545,0.18234032,-0.058026314,249.0,-3.1518662,-14.409838,-0.06666565,-0.028656006,-0.055648804,-2.4794626,0.7405623,9.459082
34.80526486,31.26505942,0.0,0.49997294,12-19-18,0.027157545,0.18234032,-0.058026314,249.0,-3.2212627,-14.4859705,-0.06666565,-0.028656006,-0.055648804,-2.4794626,0.7405623,9.459082
34.80526486,31.26505942,0.0,0.49997294,12-19-18,0.027157545,0.18234032,-0.058026314,249.0,-3.2693574,-14.553144,-0.06666565,-0.028656006,-0.055648804,-2.4794626,0.7405623,9.459082
34.80526486,31.26505942,0.0,0.49997294,12-19-18,0.027157545,0.18234032,-0.058026314,249.0,-3.2693574,-14.553144,-0.06666565,-0.028656006,-0.055648804,-2.4794626,0.7405623,9.459082
34.80526486,31.26505942,0.0,0.49997294,12-19-18,0.027157545,0.18234032,-0.058026314,249.0,-3.2693574,-14.553144,-0.06666565,-0.028656006,-0.055648804,-2.4794626,0.7405623,9.459082
34.80526486,31.26505942,0.0,0.49997294,12-19-18,0.027157545,0.18234032,-0.058026314,249.0,-3.3531942,-14.661989,-0.06666565,-0.028656006,-0.055648804,-2.4794626,0.7405623,9.459082
34.80526486,31.26505942,0.0,0.49997294,12-19-18,0.08015084,-0.191122,0.2092619,249.0,-3.7939956,-14.816056,0.030136108,0.032669067,0.016143799,-2.4422686,0.62051356,9.477377
34.80526486,31.26505942,0.0,0.49997294,12-19-18,0.08015084,-0.191122,0.2092619,249.0,-3.890712,-14.914661,0.030136108,0.032669067,0.016143799,-2.4422686,0.62051356,9.477377
34.80526486,31.26505942,0.0,0.49997294,12-19-18,0.08015084,-0.191122,0.2092619,249.0,-3.890712,-14.914661,0.030136108,0.032669067,0.016143799,-2.4422686,0.62051356,9.477377
34.80526486,31.26505942,0.0,0.49997294,12-19-18,0.08015084,-0.191122,0.2092619,249.0,-3.890712,-14.914661,0.030136108,0.032669067,0.016143799,-2.4422686,0.62051356,9.477377
34.80526486,31.26505942,0.0,0.49997294,12-19-18,0.08015084,-0.191122,0.2092619,249.0,-3.9884734,-15.038247,0.030136108,0.032669067,0.016143799,-2.4422686,0.62051356,9.477377
34.80526486,31.26505942,0.0,0.49997294,12-19-18,0.08015084,-0.191122,0.2092619,248.0,-4.62897,-15.166653,0.030136108,0.032669067,0.016143799,-2.4422686,0.62051356,9.477377
34.80526486,31.26505942,0.0,0.49997294,12-19-18,0.08015084,-0.191122,0.2092619,248.0,-4.8300204,-15.194645,0.030136108,0.032669067,0.016143799,-2.4422686,0.62051356,9.477377
34.80526486,31.26505942,0.0,0.49997294,12-19-18,0.08015084,-0.191122,0.2092619,248.0,-4.8300204,-15.194645,0.030136108,0.032669067,0.016143799,-2.4422686,0.62051356,9.477377
34.80526486,31.26505942,0.0,0.49997294,12-19-18,0.08015084,-0.191122,0.2092619,248.0,-4.994489,-15.183035,0.030136108,0.032669067,0.016143799,-2.4422686,0.62051356,9.477377
34.80526486,31.26505942,0.0,0.49997294,12-19-18,0.08015084,-0.191122,0.2092619,248.0,-4.994489,-15.183035,0.030136108,0.032669067,0.016143799,-2.4422686,0.62051356,9.477377
34.80526486,31.26505942,0.0,0.49997294,12-19-19,-0.29149842,-0.09551597,-0.13737011,248.0,-5.3489532,-15.212554,0.13883972,0.037384033,0.030670166,-2.6635277,0.7599238,9.407366
34.80526486,31.26505942,0.0,0.49997294,12-19-19,-0.29149842,-0.09551597,-0.13737011,248.0,-5.405127,-15.209592,0.13883972,0.037384033,0.030670166,-2.6635277,0.7599238,9.407366
34.80526486,31.26505942,0.0,0.49997294,12-19-19,-0.29149842,-0.09551597,-0.13737011,248.0,-5.4328637,-15.239714,0.13883972,0.037384033,0.030670166,-2.6635277,0.7599238,9.407366
34.80526486,31.26505942,0.0,0.49997294,12-19-19,-0.29149842,-0.09551597,-0.13737011,248.0,-5.4328637,-15.239714,0.13883972,0.037384033,0.030670166,-2.6635277,0.7599238,9.407366
34.80526486,31.26505942,0.0,0.49997294,12-19-19,-0.29149842,-0.09551597,-0.13737011,248.0,-5.4328637,-15.239714,0.13883972,0.037384033,0.030670166,-2.6635277,0.7599238,9.407366
34.80526486,31.26505942,0.0,0.49997294,12-19-19,-0.29149842,-0.09551597,-0.13737011,248.0,-5.37578,-15.302976,0.13883972,0.037384033,0.030670166,-2.6635277,0.7599238,9.407366
34.80526486,31.26505942,0.0,0.49997294,12-19-19,-0.29149842,-0.09551597,-0.13737011,247.0,-5.323092,-15.305187,0.13883972,0.037384033,0.030670166,-2.6635277,0.7599238,9.407366
34.80526486,31.26505942,0.0,0.49997294,12-19-19,-0.29149842,-0.09551597,-0.13737011,247.0,-5.216479,-15.293965,0.13883972,0.037384033,0.030670166,-2.6635277,0.7599238,9.407366
34.80526486,31.26505942,0.0,0.49997294,12-19-19,-0.29149842,-0.09551597,-0.13737011,247.0,-5.216479,-15.293965,0.13883972,0.037384033,0.030670166,-2.6635277,0.7599238,9.407366
34.80526486,31.26505942,0.0,0.49997294,12-19-19,-0.29149842,-0.09551597,-0.13737011,247.0,-5.216479,-15.293965,0.13883972,0.037384033,0.030670166,-2.6635277,0.7599238,9.407366
34.80526486,31.26505942,0.0,0.49997294,12-19-19,0.010966063,0.10114753,-0.084609985,247.0,-4.8034716,-15.349823,-0.040161133,0.019958496,0.051498413,-2.7009685,0.8975748,9.384536
34.80526486,31.26505942,0.0,0.49997294,12-19-19,0.010966063,0.10114753,-0.084609985,247.0,-4.8034716,-15.349823,-0.040161133,0.019958496,0.051498413,-2.7009685,0.8975748,9.384536
34.80526486,31.26505942,0.0,0.49997294,12-19-19,0.010966063,0.10114753,-0.084609985,247.0,-4.7196746,-15.284347,-0.040161133,0.019958496,0.051498413,-2.7009685,0.8975748,9.384536
34.80526486,31.26505942,0.0,0.49997294,12-19-19,0.010966063,0.10114753,-0.084609985,247.0,-4.7196746,-15.284347,-0.040161133,0.019958496,0.051498413,-2.7009685,0.8975748,9.384536
34.80526486,31.26505942,0.0,0.49997294,12-19-19,0.010966063,0.10114753,-0.084609985,247.0,-4.7196746,-15.284347,-0.040161133,0.019958496,0.051498413,-2.7009685,0.8975748,9.384536
34.80526486,31.26505942,0.0,0.49997294,12-19-19,0.010966063,0.10114753,-0.084609985,247.0,-4.5592294,-14.728526,-0.040161133,0.019958496,0.051498413,-2.7009685,0.8975748,9.384536
34.80526486,31.26505942,0.0,0.49997294,12-19-19,0.010966063,0.10114753,-0.084609985,247.0,-4.5592294,-14.728526,-0.040161133,0.019958496,0.051498413,-2.7009685,0.8975748,9.384536
34.80526486,31.26505942,0.0,0.49997294,12-19-19,0.010966063,0.10114753,-0.084609985,247.0,-4.5486035,-14.612592,-0.040161133,0.019958496,0.051498413,-2.7009685,0.8975748,9.384536
34.80526486,31.26505942,0.0,0.49997294,12-19-19,0.010966063,0.10114753,-0.084609985,247.0,-4.5486035,-14.612592,-0.040161133,0.019958496,0.051498413,-2.7009685,0.8975748,9.384536
34.80526486,31.26505942,0.0,0.49997294,12-19-19,0.010966063,0.10114753,-0.084609985,247.0,-4.5486035,-14.612592,-0.040161133,0.019958496,0.051498413,-2.7009685,0.8975748,9.384536
