Longitude,Latitude,Speed,Distance,Time,Acc X,Acc Y,Acc Z,Heading,Pitch,Roll,gyro_x,gyro_y,gyro_z,gravity_x,gravity_y,gravity_z
34.80524146,31.26505849,0.0,2.3769054,12-23-52,-0.012269497,0.031129122,-0.024752617,71.0,-5.67327,-21.44097,0.015182495,-0.0053100586,-0.033294678,-3.6000476,0.9103671,9.076413
34.80524146,31.26505849,0.0,2.3769054,12-23-52,-0.4293499,-0.13275075,0.072122574,67.0,-6.298811,-19.33666,-0.03451538,-0.1648407,0.36006165,-3.7443552,0.79351133,9.0288725
34.80524146,31.26505849,0.0,2.3769054,12-23-52,-0.4293499,-0.13275075,0.072122574,67.0,-6.298811,-19.33666,-0.03451538,-0.1648407,0.36006165,-3.7443552,0.79351133,9.0288725
34.8052434,31.26505731,0.0,0.2263946,12-23-52,-0.4293499,-0.13275075,0.072122574,68.0,-6.3184285,-18.978369,-0.03451538,-0.1648407,0.36006165,-3.7443552,0.79351133,9.0288725
34.8052434,31.26505731,0.0,0.2263946,12-23-52,-0.4293499,-0.13275075,0.072122574,68.0,-6.3184285,-18.978369,-0.03451538,-0.1648407,0.36006165,-3.7443552,0.79351133,9.0288725
34.8052434,31.26505731,0.0,0.2263946,12-23-52,-0.4293499,-0.13275075,0.072122574,68.0,-6.3184285,-18.978369,-0.03451538,-0.1648407,0.36006165,-3.7443552,0.79351133,9.0288725
34.8052434,31.26505731,0.0,0.2263946,12-23-52,-0.4293499,-0.13275075,0.072122574,68.0,-6.3184285,-18.978369,-0.03451538,-0.1648407,0.36006165,-3.7443552,0.79351133,9.0288725
34.8052434,31.26505731,0.0,0.2263946,12-23-52,-0.43897128,0.12689191,0.7577114,67.0,-6.3280845,-17.649237,-0.03451538,-0.1648407,0.36006165,-3.4080822,0.88313335,9.152892
34.8052434,31.26505731,0.0,0.2263946,12-23-52,-0.43897128,0.12689191,0.7577114,67.0,-6.3280845,-17.649237,-0.03451538,-0.1648407,0.36006165,-3.4080822,0.88313335,9.152892
34.8052434,31.26505731,0.0,0.2263946,12-23-52,-0.43897128,0.12689191,0.7577114,67.0,-6.3280845,-17.649237,-0.03451538,-0.1648407,0.36006165,-3.4080822,0.88313335,9.152892
34.8052434,31.26505731,0.0,0.2263946,12-23-52,-0.43897128,0.12689191,0.7577114,67.0,-6.3280845,-17.649237,-0.03451538,-0.1648407,0.36006165,-3.4080822,0.88313335,9.152892
34.8052434,31.26505731,0.0,0.2263946,12-23-52,-0.43897128,0.12689191,0.7577114,65.0,-5.8719306,-16.83082,-0.03451538,-0.1648407,0.36006165,-3.4080822,0.88313335,9.152892
34.8052434,31.26505731,0.0,0.2263946,12-23-52,-0.43897128,0.12689191,0.7577114,64.0,-5.315906,-16.003407,-0.03451538,-0.1648407,0.36006165,-3.4080822,0.88313335,9.152892
34.8052434,31.26505731,0.0,0.2263946,12-23-52,-0.43897128,0.12689191,0.7577114,64.0,-5.315906,-16.003407,-0.03451538,-0.1648407,0.36006165,-3.4080822,0.88313335,9.152892
34.8052434,31.26505731,0.0,0.2263946,12-23-52,-0.43897128,0.12689191,0.7577114,64.0,-5.109518,-15.699287,-0.03451538,-0.1648407,0.36006165,-3.4080822,0.88313335,9.152892
34.8052434,31.26505731,0.0,0.2263946,12-23-52,-0.43897128,0.12689191,0.7577114,64.0,-5.109518,-15.699287,-0.03451538,-0.1648407,0.36006165,-3.4080822,0.88313335,9.152892
34.8052434,31.26505731,0.0,0.2263946,12-23-52,-0.43897128,0.12689191,0.7577114,64.0,-5.109518,-15.699287,-0.03451538,-0.1648407,0.36006165,-3.4080822,0.88313335,9.152892
34.8052434,31.26505731,0.0,0.2263946,12-23-52,-0.43897128,0.12689191,0.7577114,63.0,-4.842875,-15.600941,-0.03451538,-0.1648407,0.36006165,-3.4080822,0.88313335,9.152892
34.8052434,31.26505731,0.0,0.2263946,12-23-52,-0.43897128,0.12689191,0.7577114,63.0,-4.842875,-15.600941,-0.2599945,-0.28311157,0.43385315,-3.4080822,0.88313335,9.152892
34.8052434,31.26505731,0.0,0.2263946,12-23-52,-0.43897128,0.12689191,0.7577114,62.0,-4.242167,-15.509714,-0.2599945,-0.28311157,0.43385315,-3.4080822,0.88313335,9.152892
34.8052434,31.26505731,0.0,0.2263946,12-23-52,-0.43897128,0.12689191,0.7577114,62.0,-4.0578504,-15.277588,-0.2599945,-0.28311157,0.43385315,-3.4080822,0.88313335,9.152892
34.8052434,31.26505731,0.0,0.2263946,12-23-52,0.22991776,-0.1449979,1.4030113,61.0,-3.9674318,-15.158362,-0.2599945,-0.28311157,0.43385315,-2.9106846,0.80823815,9.329794
34.8052434,31.26505731,0.0,0.2263946,12-23-52,0.22991776,-0.1449979,1.4030113,61.0,-3.9674318,-15.158362,-0.2599945,-0.28311157,0.43385315,-2.9106846,0.80823815,9.329794
34.8052434,31.26505731,0.0,0.2263946,12-23-52,0.22991776,-0.1449979,1.4030113,61.0,-3.9674318,-15.158362,-0.2599945,-0.28311157,0.43385315,-2.9106846,0.80823815,9.329794
34.8052434,31.26505731,0.0,0.2263946,12-23-52,0.22991776,-0.1449979,1.4030113,61.0,-3.9606059,-15.213663,-0.2599945,-0.28311157,0.43385315,-2.9106846,0.80823815,9.329794
34.8052434,31.26505731,0.0,0.2263946,12-23-52,0.22991776,-0.1449979,1.4030113,61.0,-3.9606059,-15.213663,-0.2599945,-0.28311157,0.43385315,-2.9106846,0.80823815,9.329794
34.8052434,31.26505731,0.0,0.2263946,12-23-53,0.22991776,-0.1449979,1.4030113,61.0,-3.9606059,-15.213663,-0.2599945,-0.28311157,0.43385315,-2.9106846,0.80823815,9.329794
34.8052434,31.26505731,0.0,0.2263946,12-23-53,0.22991776,-0.1449979,1.4030113,61.0,-4.024019,-15.404319,-0.2599945,-0.28311157,0.43385315,-2.9106846,0.80823815,9.329794
34.8052434,31.26505731,0.0,0.2263946,12-23-53,0.22991776,-0.1449979,1.4030113,61.0,-4.261465,-15.704298,-0.2599945,-0.28311157,0.43385315,-2.9106846,0.80823815,9.329794
34.8052434,31.26505731,0.0,0.2263946,12-23-53,0.22991776,-0.1449979,1.4030113,60.0,-4.434761,-15.737845,-0.2599945,-0.28311157,0.43385315,-2.9106846,0.80823815,9.329794
34.8052434,31.26505731,0.0,0.2263946,12-23-53,0.22991776,-0.1449979,1.4030113,60.0,-4.434761,-15.737845,-0.2599945,-0.28311157,0.43385315,-2.9106846,0.80823815,9.329794
34.8052434,31.26505731,0.0,0.2263946,12-23-53,0.22991776,-0.1449979,1.4030113,60.0,-4.6107054,-15.730178,-0.2599945,-0.28311157,0.43385315,-2.9106846,0.80823815,9.329794
34.8052434,31.26505731,0.0,0.2263946,12-23-53,0.22991776,-0.1449979,1.4030113,60.0,-4.6107054,-15.730178,-0.2599945,-0.28311157,0.43385315,-2.9106846,0.80823815,9.329794
34.8052434,31.26505731,0.0,0.2263946,12-23-53,0.22991776,-0.1449979,1.4030113,60.0,-4.6107054,-15.730178,-0.05859375,0.061782837,0.28048706,-2.9106846,0.80823815,9.329794
34.8052434,31.26505731,0.0,0.2263946,12-23-53,0.22991776,-0.1449979,1.4030113,59.0,-4.760205,-15.783309,-0.05859375,0.061782837,0.28048706,-2.9106846,0.80823815,9.329794
34.8052434,31.26505731,0.0,0.2263946,12-23-53,0.22991776,-0.1449979,1.4030113,59.0,-4.916314,-15.8416,-0.05859375,0.061782837,0.28048706,-2.9106846,0.80823815,9.329794
34.8052434,31.26505731,0.0,0.2263946,12-23-53,0.22991776,-0.1449979,1.4030113,59.0,-5.0739703,-15.907478,-0.05859375,0.061782837,0.28048706,-2.9106846,0.80823815,9.329794
34.8052434,31.26505731,0.0,0.2263946,12-23-53,1.1639497,-0.19895512,-0.19646835,59.0,-5.254275,-15.982531,-0.05859375,0.061782837,0.28048706,-2.7591186,0.74524266,9.380952
34.8052434,31.26505731,0.0,0.2263946,12-23-53,1.1639497,-0.19895512,-0.19646835,59.0,-5.254275,-15.982531,-0.05859375,0.061782837,0.28048706,-2.7591186,0.74524266,9.380952
34.8052434,31.26505731,0.0,0.2263946,12-23-53,1.1639497,-0.19895512,-0.19646835,58.0,-5.4367294,-16.164099,-0.05859375,0.061782837,0.28048706,-2.7591186,0.74524266,9.380952
34.8052434,31.26505731,0.0,0.2263946,12-23-53,1.1639497,-0.19895512,-0.19646835,58.0,-5.4367294,-16.164099,-0.05859375,0.061782837,0.28048706,-2.7591186,0.74524266,9.380952
34.8052434,31.26505731,0.0,0.2263946,12-23-53,1.1639497,-0.19895512,-0.19646835,58.0,-5.581628,-16.47489,-0.05859375,0.061782837,0.28048706,-2.7591186,0.74524266,9.380952
34.8052434,31.26505731,0.0,0.2263946,12-23-53,1.1639497,-0.19895512,-0.19646835,58.0,-5.581628,-16.47489,-0.05859375,0.061782837,0.28048706,-2.7591186,0.74524266,9.380952
34.8052434,31.26505731,0.0,0.2263946,12-23-53,1.1639497,-0.19895512,-0.19646835,58.0,-5.6668563,-16.815825,-0.05859375,0.061782837,0.28048706,-2.7591186,0.74524266,9.380952
34.8052434,31.26505731,0.0,0.2263946,12-23-53,1.1639497,-0.19895512,-0.19646835,58.0,-5.70423,-17.17257,-0.05859375,0.061782837,0.28048706,-2.7591186,0.74524266,9.380952
34.8052434,31.26505731,0.0,0.2263946,12-23-53,1.1639497,-0.19895512,-0.19646835,59.0,-5.7685905,-17.551054,-0.05859375,0.061782837,0.28048706,-2.7591186,0.74524266,9.380952
34.8052434,31.26505731,0.0,0.2263946,12-23-53,1.1639497,-0.19895512,-0.19646835,59.0,-5.7685905,-17.551054,-0.05859375,0.061782837,0.28048706,-2.7591186,0.74524266,9.380952
34.8052434,31.26505731,0.0,0.2263946,12-23-53,1.1639497,-0.19895512,-0.19646835,60.0,-5.8490024,-18.004242,-0.05859375,0.061782837,0.28048706,-2.7591186,0.74524266,9.380952
34.8052434,31.26505731,0.0,0.2263946,12-23-53,1.1639497,-0.19895512,-0.19646835,60.0,-5.8490024,-18.004242,-0.05859375,0.061782837,0.28048706,-2.7591186,0.74524266,9.380952
34.8052434,31.26505731,0.0,0.2263946,12-23-53,1.1639497,-0.19895512,-0.19646835,61.0,-5.853668,-18.437311,0.12724304,0.24250793,-0.14302063,-2.7591186,0.74524266,9.380952
34.8052434,31.26505731,0.0,0.2263946,12-23-53,1.1639497,-0.19895512,-0.19646835,61.0,-5.853668,-18.437311,0.12724304,0.24250793,-0.14302063,-2.7591186,0.74524266,9.380952
34.8052434,31.26505731,0.0,0.2263946,12-23-53,1.1639497,-0.19895512,-0.19646835,61.0,-5.777381,-18.597797,0.12724304,0.24250793,-0.14302063,-2.7591186,0.74524266,9.380952
34.8052434,31.26505731,0.0,0.2263946,12-23-53,0.10113931,0.049158394,-1.9105759,61.0,-5.613201,-18.324783,0.12724304,0.24250793,-0.14302063,-2.9751012,0.87523395,9.303393
34.8052434,31.26505731,0.0,0.2263946,12-23-53,0.10113931,0.049158394,-1.9105759,61.0,-5.423076,-17.665844,0.12724304,0.24250793,-0.14302063,-2.9751012,0.87523395,9.303393
34.8052434,31.26505731,0.0,0.2263946,12-23-53,0.10113931,0.049158394,-1.9105759,60.0,-5.2207446,-17.07977,0.12724304,0.24250793,-0.14302063,-2.9751012,0.87523395,9.303393
34.8052434,31.26505731,0.0,0.2263946,12-23-53,0.10113931,0.049158394,-1.9105759,60.0,-5.2207446,-17.07977,0.12724304,0.24250793,-0.14302063,-2.9751012,0.87523395,9.303393
34.8052434,31.26505731,0.0,0.2263946,12-23-53,0.10113931,0.049158394,-1.9105759,60.0,-5.2207446,-17.07977,0.12724304,0.24250793,-0.14302063,-2.9751012,0.87523395,9.303393
34.8052434,31.26505731,0.0,0.2263946,12-23-53,0.10113931,0.049158394,-1.9105759,59.0,-4.923835,-16.885885,0.12724304,0.24250793,-0.14302063,-2.9751012,0.87523395,9.303393
34.8052434,31.26505731,0.0,0.2263946,12-23-53,0.10113931,0.049158394,-1.9105759,59.0,-4.923835,-16.885885,0.12724304,0.24250793,-0.14302063,-2.9751012,0.87523395,9.303393
34.8052434,31.26505731,0.0,0.2263946,12-23-53,0.10113931,0.049158394,-1.9105759,59.0,-4.602565,-16.929047,0.12724304,0.24250793,-0.14302063,-2.9751012,0.87523395,9.303393
34.8052434,31.26505731,0.0,0.2263946,12-23-53,0.10113931,0.049158394,-1.9105759,58.0,-4.3255086,-16.919794,0.12724304,0.24250793,-0.14302063,-2.9751012,0.87523395,9.303393
34.8052434,31.26505731,0.0,0.2263946,12-23-53,0.10113931,0.049158394,-1.9105759,59.0,-4.160188,-16.895388,0.12724304,0.24250793,-0.14302063,-2.9751012,0.87523395,9.303393
34.8052434,31.26505731,0.0,0.2263946,12-23-53,0.10113931,0.049158394,-1.9105759,60.0,-4.1985683,-16.992115,0.12724304,0.24250793,-0.14302063,-2.9751012,0.87523395,9.303393
34.8052434,31.26505731,0.0,0.2263946,12-23-53,0.10113931,0.049158394,-1.9105759,60.0,-4.1985683,-16.992115,0.12724304,0.24250793,-0.14302063,-2.9751012,0.87523395,9.303393
34.8052434,31.26505731,0.0,0.2263946,12-23-53,0.10113931,0.049158394,-1.9105759,60.0,-4.1985683,-16.992115,0.12724304,0.24250793,-0.14302063,-2.9751012,0.87523395,9.303393
34.8052434,31.26505731,0.0,0.2263946,12-23-53,0.10113931,0.049158394,-1.9105759,62.0,-4.429143,-17.284185,-0.06210327,-0.08830261,-0.15408325,-2.9751012,0.87523395,9.303393
34.8052434,31.26505731,0.0,0.2263946,12-23-53,0.10113931,0.049158394,-1.9105759,62.0,-4.429143,-17.284185,-0.06210327,-0.08830261,-0.15408325,-2.9751012,0.87523395,9.303393
34.8052434,31.26505731,0.0,0.2263946,12-23-53,0.10113931,0.049158394,-1.9105759,64.0,-4.765362,-17.786024,-0.06210327,-0.08830261,-0.15408325,-2.9751012,0.87523395,9.303393
34.8052434,31.26505731,0.0,0.2263946,12-23-53,0.7292938,-0.5077601,-0.7494097,64.0,-4.8047047,-17.649422,-0.06210327,-0.08830261,-0.15408325,-3.079788,0.81043094,9.275154
34.8052434,31.26505731,0.0,0.2263946,12-23-53,0.7292938,-0.5077601,-0.7494097,64.0,-4.8047047,-17.649422,-0.06210327,-0.08830261,-0.15408325,-3.079788,0.81043094,9.275154
34.8052434,31.26505731,0.0,0.2263946,12-23-53,0.7292938,-0.5077601,-0.7494097,63.0,-4.92975,-17.278278,-0.06210327,-0.08830261,-0.15408325,-3.079788,0.81043094,9.275154
34.8052434,31.26505731,0.0,0.2263946,12-23-53,0.7292938,-0.5077601,-0.7494097,63.0,-4.92975,-17.278278,-0.06210327,-0.08830261,-0.15408325,-3.079788,0.81043094,9.275154
34.8052434,31.26505731,0.0,0.2263946,12-23-53,0.7292938,-0.5077601,-0.7494097,63.0,-4.92975,-17.278278,-0.06210327,-0.08830261,-0.15408325,-3.079788,0.81043094,9.275154
34.8052434,31.26505731,0.0,0.2263946,12-23-53,0.7292938,-0.5077601,-0.7494097,62.0,-5.1724024,-17.002008,-0.06210327,-0.08830261,-0.15408325,-3.079788,0.81043094,9.275154
34.8052434,31.26505731,0.0,0.2263946,12-23-53,0.7292938,-0.5077601,-0.7494097,62.0,-5.1724024,-17.002008,-0.06210327,-0.08830261,-0.15408325,-3.079788,0.81043094,9.275154
34.8052434,31.26505731,0.0,0.2263946,12-23-53,0.7292938,-0.5077601,-0.7494097,63.0,-5.585996,-16.95422,-0.06210327,-0.08830261,-0.15408325,-3.079788,0.81043094,9.275154
34.8052434,31.26505731,0.0,0.2263946,12-23-53,0.7292938,-0.5077601,-0.7494097,65.0,-5.4612174,-17.194921,-0.06210327,-0.08830261,-0.15408325,-3.079788,0.81043094,9.275154
34.8052434,31.26505731,0.0,0.2263946,12-23-53,0.7292938,-0.5077601,-0.7494097,67.0,-5.409819,-17.143688,-0.06210327,-0.08830261,-0.15408325,-3.079788,0.81043094,9.275154
34.8052434,31.26505731,0.0,0.2263946,12-23-53,0.7292938,-0.5077601,-0.7494097,67.0,-5.409819,-17.143688,-0.06210327,-0.08830261,-0.15408325,-3.079788,0.81043094,9.275154
34.8052434,31.26505731,0.0,0.2263946,12-23-53,0.7292938,-0.5077601,-0.7494097,67.0,-5.409819,-17.143688,-0.06210327,-0.08830261,-0.15408325,-3.079788,0.81043094,9.275154
34.8052434,31.26505731,0.0,0.2263946,12-23-53,0.7292938,-0.5077601,-0.7494097,67.0,-5.409819,-17.143688,-0.06210327,-0.08830261,-0.15408325,-3.079788,0.81043094,9.275154
34.8052434,31.26505731,0.0,0.2263946,12-23-53,0.7292938,-0.5077601,-0.7494097,70.0,-5.387972,-16.905073,0.27818298,-0.15713501,-0.6915283,-3.079788,0.81043094,9.275154
34.8052434,31.26505731,0.0,0.2263946,12-23-53,0.7292938,-0.5077601,-0.7494097,70.0,-5.387972,-16.905073,0.27818298,-0.15713501,-0.6915283,-3.079788,0.81043094,9.275154
34.80524403,31.2650567,0.0,0.3151155,12-23-53,0.7292938,-0.5077601,-0.7494097,72.0,-5.3219304,-16.222301,0.27818298,-0.15713501,-0.6915283,-3.079788,0.81043094,9.275154
34.80524403,31.2650567,0.0,0.3151155,12-23-53,-0.16489744,0.12787598,-0.36336422,72.0,-5.2631865,-16.032978,0.27818298,-0.15713501,-0.6915283,-2.9617507,0.79561716,9.3147955
34.80524403,31.2650567,0.0,0.3151155,12-23-53,-0.16489744,0.12787598,-0.36336422,71.0,-5.143271,-16.00693,0.27818298,-0.15713501,-0.6915283,-2.9617507,0.79561716,9.3147955
34.80524403,31.2650567,0.0,0.3151155,12-23-53,-0.16489744,0.12787598,-0.36336422,71.0,-5.143271,-16.00693,0.27818298,-0.15713501,-0.6915283,-2.9617507,0.79561716,9.3147955
34.80524403,31.2650567,0.0,0.3151155,12-23-53,-0.16489744,0.12787598,-0.36336422,71.0,-5.143271,-16.00693,0.27818298,-0.15713501,-0.6915283,-2.9617507,0.79561716,9.3147955
34.80524403,31.2650567,0.0,0.3151155,12-23-53,-0.16489744,0.12787598,-0.36336422,71.0,-5.143271,-16.00693,0.27818298,-0.15713501,-0.6915283,-2.9617507,0.79561716,9.3147955
34.80524403,31.2650567,0.0,0.3151155,12-23-53,-0.16489744,0.12787598,-0.36336422,70.0,-5.143724,-15.764216,0.27818298,-0.15713501,-0.6915283,-2.9617507,0.79561716,9.3147955
34.80524403,31.2650567,0.0,0.3151155,12-23-53,-0.16489744,0.12787598,-0.36336422,70.0,-5.143724,-15.764216,0.27818298,-0.15713501,-0.6915283,-2.9617507,0.79561716,9.3147955
34.80524403,31.2650567,0.0,0.3151155,12-23-53,-0.16489744,0.12787598,-0.36336422,69.0,-5.3714695,-15.204656,0.27818298,-0.15713501,-0.6915283,-2.9617507,0.79561716,9.3147955
34.80524403,31.2650567,0.0,0.3151155,12-23-53,-0.16489744,0.12787598,-0.36336422,69.0,-5.425846,-15.093643,0.27818298,-0.15713501,-0.6915283,-2.9617507,0.79561716,9.3147955
34.80524403,31.2650567,0.0,0.3151155,12-23-53,-0.16489744,0.12787598,-0.36336422,69.0,-5.4903555,-15.022265,0.27818298,-0.15713501,-0.6915283,-2.9617507,0.79561716,9.3147955
34.80524403,31.2650567,0.0,0.3151155,12-23-53,-0.16489744,0.12787598,-0.36336422,69.0,-5.4903555,-15.022265,0.27818298,-0.15713501,-0.6915283,-2.9617507,0.79561716,9.3147955
34.80524403,31.2650567,0.0,0.3151155,12-23-53,-0.16489744,0.12787598,-0.36336422,69.0,-5.4903555,-15.022265,0.27818298,-0.15713501,-0.6915283,-2.9617507,0.79561716,9.3147955
34.80524403,31.2650567,0.0,0.3151155,12-23-53,-0.16489744,0.12787598,-0.36336422,69.0,-5.4903555,-15.022265,0.27818298,-0.15713501,-0.6915283,-2.9617507,0.79561716,9.3147955
34.80524403,31.2650567,0.0,0.3151155,12-23-53,-0.16489744,0.12787598,-0.36336422,69.0,-5.5656996,-14.997262,-0.036697388,-0.10510254,0.33467102,-2.9617507,0.79561716,9.3147955
34.80524403,31.2650567,0.0,0.3151155,12-23-53,-0.16489744,0.12787598,-0.36336422,69.0,-5.5656996,-14.997262,-0.036697388,-0.10510254,0.33467102,-2.9617507,0.79561716,9.3147955
34.80524403,31.2650567,0.0,0.3151155,12-23-53,-0.16489744,0.12787598,-0.36336422,67.0,-5.806881,-15.099991,-0.036697388,-0.10510254,0.33467102,-2.9617507,0.79561716,9.3147955
34.80524403,31.2650567,0.0,0.3151155,12-23-53,0.89501786,-0.21967441,0.1832695,66.0,-6.0337114,-15.209713,-0.036697388,-0.10510254,0.33467102,-2.7340853,0.8970998,9.374987
34.80524403,31.2650567,0.0,0.3151155,12-23-53,0.89501786,-0.21967441,0.1832695,66.0,-6.0337114,-15.209713,-0.036697388,-0.10510254,0.33467102,-2.7340853,0.8970998,9.374987
34.80524403,31.2650567,0.0,0.3151155,12-23-53,0.89501786,-0.21967441,0.1832695,66.0,-6.0337114,-15.209713,-0.036697388,-0.10510254,0.33467102,-2.7340853,0.8970998,9.374987
34.80524403,31.2650567,0.0,0.3151155,12-23-53,0.89501786,-0.21967441,0.1832695,65.0,-6.173477,-15.301868,-0.036697388,-0.10510254,0.33467102,-2.7340853,0.8970998,9.374987
34.80524403,31.2650567,0.0,0.3151155,12-23-53,0.89501786,-0.21967441,0.1832695,65.0,-6.173477,-15.301868,-0.036697388,-0.10510254,0.33467102,-2.7340853,0.8970998,9.374987
34.80524403,31.2650567,0.0,0.3151155,12-23-53,0.89501786,-0.21967441,0.1832695,65.0,-6.173477,-15.301868,-0.036697388,-0.10510254,0.33467102,-2.7340853,0.8970998,9.374987
34.80524403,31.2650567,0.0,0.3151155,12-23-54,0.89501786,-0.21967441,0.1832695,65.0,-6.2617292,-15.461267,-0.036697388,-0.10510254,0.33467102,-2.7340853,0.8970998,9.374987
34.80524403,31.2650567,0.0,0.3151155,12-23-54,0.89501786,-0.21967441,0.1832695,65.0,-6.2577887,-15.692117,-0.036697388,-0.10510254,0.33467102,-2.7340853,0.8970998,9.374987
34.80524403,31.2650567,0.0,0.3151155,12-23-54,0.89501786,-0.21967441,0.1832695,64.0,-6.231708,-15.917716,-0.036697388,-0.10510254,0.33467102,-2.7340853,0.8970998,9.374987
34.80524403,31.2650567,0.0,0.3151155,12-23-54,0.89501786,-0.21967441,0.1832695,64.0,-6.2481627,-16.106344,-0.036697388,-0.10510254,0.33467102,-2.7340853,0.8970998,9.374987
34.80524403,31.2650567,0.0,0.3151155,12-23-54,0.89501786,-0.21967441,0.1832695,64.0,-6.2481627,-16.106344,-0.036697388,-0.10510254,0.33467102,-2.7340853,0.8970998,9.374987
34.80524403,31.2650567,0.0,0.3151155,12-23-54,0.89501786,-0.21967441,0.1832695,64.0,-6.2386246,-16.263798,-0.036697388,-0.10510254,0.33467102,-2.7340853,0.8970998,9.374987
34.80524403,31.2650567,0.0,0.3151155,12-23-54,0.89501786,-0.21967441,0.1832695,64.0,-6.2386246,-16.263798,-0.036697388,-0.10510254,0.33467102,-2.7340853,0.8970998,9.374987
34.80524403,31.2650567,0.0,0.3151155,12-23-54,0.89501786,-0.21967441,0.1832695,64.0,-6.2386246,-16.263798,-0.036697388,-0.10510254,0.33467102,-2.7340853,0.8970998,9.374987
34.80524403,31.2650567,0.0,0.3151155,12-23-54,0.89501786,-0.21967441,0.1832695,63.0,-6.141312,-16.439558,-0.09022522,0.18359375,0.35766602,-2.7340853,0.8970998,9.374987
34.80524403,31.2650567,0.0,0.3151155,12-23-54,0.72787905,1.0058731,-0.32338524,63.0,-6.0148196,-16.652433,-0.09022522,0.18359375,0.35766602,-2.8013737,0.9850301,9.3462515
34.80524403,31.2650567,0.0,0.3151155,12-23-54,0.72787905,1.0058731,-0.32338524,63.0,-5.91101,-16.804293,-0.09022522,0.18359375,0.35766602,-2.8013737,0.9850301,9.3462515
34.80524403,31.2650567,0.0,0.3151155,12-23-54,0.72787905,1.0058731,-0.32338524,62.0,-5.8379984,-16.94768,-0.09022522,0.18359375,0.35766602,-2.8013737,0.9850301,9.3462515
34.80524403,31.2650567,0.0,0.3151155,12-23-54,0.72787905,1.0058731,-0.32338524,62.0,-5.638437,-17.23763,-0.09022522,0.18359375,0.35766602,-2.8013737,0.9850301,9.3462515
34.80524403,31.2650567,0.0,0.3151155,12-23-54,0.72787905,1.0058731,-0.32338524,62.0,-5.638437,-17.23763,-0.09022522,0.18359375,0.35766602,-2.8013737,0.9850301,9.3462515
34.80524403,31.2650567,0.0,0.3151155,12-23-54,0.72787905,1.0058731,-0.32338524,62.0,-5.638437,-17.23763,-0.09022522,0.18359375,0.35766602,-2.8013737,0.9850301,9.3462515
34.80524403,31.2650567,0.0,0.3151155,12-23-54,0.72787905,1.0058731,-0.32338524,62.0,-5.349731,-17.532639,-0.09022522,0.18359375,0.35766602,-2.8013737,0.9850301,9.3462515
34.80524403,31.2650567,0.0,0.3151155,12-23-54,0.72787905,1.0058731,-0.32338524,62.0,-5.349731,-17.532639,-0.09022522,0.18359375,0.35766602,-2.8013737,0.9850301,9.3462515
34.80524403,31.2650567,0.0,0.3151155,12-23-54,0.72787905,1.0058731,-0.32338524,62.0,-5.238467,-17.610195,-0.09022522,0.18359375,0.35766602,-2.8013737,0.9850301,9.3462515
34.80524403,31.2650567,0.0,0.3151155,12-23-54,0.72787905,1.0058731,-0.32338524,62.0,-5.216133,-17.590227,-0.09022522,0.18359375,0.35766602,-2.8013737,0.9850301,9.3462515
34.80524403,31.2650567,0.0,0.3151155,12-23-54,0.72787905,1.0058731,-0.32338524,61.0,-5.1397605,-17.614582,-0.09022522,0.18359375,0.35766602,-2.8013737,0.9850301,9.3462515
34.80524403,31.2650567,0.0,0.3151155,12-23-54,0.72787905,1.0058731,-0.32338524,61.0,-5.0424027,-17.708765,-0.09022522,0.18359375,0.35766602,-2.8013737,0.9850301,9.3462515
34.80524403,31.2650567,0.0,0.3151155,12-23-54,0.72787905,1.0058731,-0.32338524,61.0,-5.0424027,-17.708765,-0.09022522,0.18359375,0.35766602,-2.8013737,0.9850301,9.3462515
34.80524403,31.2650567,0.0,0.3151155,12-23-54,0.72787905,1.0058731,-0.32338524,61.0,-5.0424027,-17.708765,-0.09022522,0.18359375,0.35766602,-2.8013737,0.9850301,9.3462515
34.80524403,31.2650567,0.0,0.3151155,12-23-54,0.72787905,1.0058731,-0.32338524,62.0,-4.9867034,-17.795149,-0.1377716,0.11314392,0.12121582,-2.8013737,0.9850301,9.3462515
34.80524403,31.2650567,0.0,0.3151155,12-23-54,0.72787905,1.0058731,-0.32338524,62.0,-4.9867034,-17.795149,-0.1377716,0.11314392,0.12121582,-2.8013737,0.9850301,9.3462515
34.80524403,31.2650567,0.0,0.3151155,12-23-54,-0.3935175,-0.12177676,-0.89134693,61.0,-5.0654125,-17.578072,-0.1377716,0.11314392,0.12121582,-3.0195882,0.8806073,9.288542
34.80524403,31.2650567,0.0,0.3151155,12-23-54,-0.3935175,-0.12177676,-0.89134693,61.0,-5.0654125,-17.578072,-0.1377716,0.11314392,0.12121582,-3.0195882,0.8806073,9.288542
34.80524403,31.2650567,0.0,0.3151155,12-23-54,-0.3935175,-0.12177676,-0.89134693,61.0,-5.0000544,-17.566547,-0.1377716,0.11314392,0.12121582,-3.0195882,0.8806073,9.288542
34.80524403,31.2650567,0.0,0.3151155,12-23-54,-0.3935175,-0.12177676,-0.89134693,61.0,-4.916758,-17.566517,-0.1377716,0.11314392,0.12121582,-3.0195882,0.8806073,9.288542
34.80524403,31.2650567,0.0,0.3151155,12-23-54,-0.3935175,-0.12177676,-0.89134693,61.0,-4.916758,-17.566517,-0.1377716,0.11314392,0.12121582,-3.0195882,0.8806073,9.288542
34.80524403,31.2650567,0.0,0.3151155,12-23-54,-0.3935175,-0.12177676,-0.89134693,61.0,-4.916758,-17.566517,-0.1377716,0.11314392,0.12121582,-3.0195882,0.8806073,9.288542
34.80524403,31.2650567,0.0,0.3151155,12-23-54,-0.3935175,-0.12177676,-0.89134693,62.0,-4.82723,-17.53177,-0.1377716,0.11314392,0.12121582,-3.0195882,0.8806073,9.288542
34.80524403,31.2650567,0.0,0.3151155,12-23-54,-0.3935175,-0.12177676,-0.89134693,62.0,-4.82723,-17.53177,-0.1377716,0.11314392,0.12121582,-3.0195882,0.8806073,9.288542
34.80524403,31.2650567,0.0,0.3151155,12-23-54,-0.3935175,-0.12177676,-0.89134693,61.0,-4.8425264,-17.181051,-0.1377716,0.11314392,0.12121582,-3.0195882,0.8806073,9.288542
34.80524403,31.2650567,0.0,0.3151155,12-23-54,-0.3935175,-0.12177676,-0.89134693,61.0,-4.8809147,-17.01579,-0.1377716,0.11314392,0.12121582,-3.0195882,0.8806073,9.288542
34.80524403,31.2650567,0.0,0.3151155,12-23-54,-0.3935175,-0.12177676,-0.89134693,61.0,-4.8809147,-17.01579,-0.1377716,0.11314392,0.12121582,-3.0195882,0.8806073,9.288542
34.80524403,31.2650567,0.0,0.3151155,12-23-54,-0.3935175,-0.12177676,-0.89134693,61.0,-4.8930187,-16.900019,-0.1377716,0.11314392,0.12121582,-3.0195882,0.8806073,9.288542
34.80524403,31.2650567,0.0,0.3151155,12-23-54,-0.3935175,-0.12177676,-0.89134693,61.0,-4.8927474,-16.781143,-0.1377716,0.11314392,0.12121582,-3.0195882,0.8806073,9.288542
34.80524403,31.2650567,0.0,0.3151155,12-23-54,-0.3935175,-0.12177676,-0.89134693,61.0,-4.8927474,-16.781143,-0.1377716,0.11314392,0.12121582,-3.0195882,0.8806073,9.288542
34.80524403,31.2650567,0.0,0.3151155,12-23-54,-0.3935175,-0.12177676,-0.89134693,61.0,-4.8927474,-16.781143,-0.030319214,-0.09025574,0.055984497,-3.0195882,0.8806073,9.288542
34.80524403,31.2650567,0.0,0.3151155,12-23-54,-0.3935175,-0.12177676,-0.89134693,61.0,-4.8927474,-16.781143,-0.030319214,-0.09025574,0.055984497,-3.0195882,0.8806073,9.288542
34.80524403,31.2650567,0.0,0.3151155,12-23-54,0.2965305,0.031748533,-0.06963158,61.0,-4.8237786,-16.688522,-0.030319214,-0.09025574,0.055984497,-2.980531,0.7971254,9.308674
34.80524403,31.2650567,0.0,0.3151155,12-23-54,0.2965305,0.031748533,-0.06963158,61.0,-4.768713,-16.680935,-0.030319214,-0.09025574,0.055984497,-2.980531,0.7971254,9.308674
34.80524403,31.2650567,0.0,0.3151155,12-23-54,0.2965305,0.031748533,-0.06963158,61.0,-4.768713,-16.680935,-0.030319214,-0.09025574,0.055984497,-2.980531,0.7971254,9.308674
34.80524403,31.2650567,0.0,0.3151155,12-23-54,0.2965305,0.031748533,-0.06963158,60.0,-4.705558,-16.651808,-0.030319214,-0.09025574,0.055984497,-2.980531,0.7971254,9.308674
34.80524403,31.2650567,0.0,0.3151155,12-23-54,0.2965305,0.031748533,-0.06963158,60.0,-4.705558,-16.651808,-0.030319214,-0.09025574,0.055984497,-2.980531,0.7971254,9.308674
34.80524403,31.2650567,0.0,0.3151155,12-23-54,0.2965305,0.031748533,-0.06963158,60.0,-4.705558,-16.651808,-0.030319214,-0.09025574,0.055984497,-2.980531,0.7971254,9.308674
34.80524403,31.2650567,0.0,0.3151155,12-23-54,0.2965305,0.031748533,-0.06963158,60.0,-4.718271,-16.547335,-0.030319214,-0.09025574,0.055984497,-2.980531,0.7971254,9.308674
34.80524403,31.2650567,0.0,0.3151155,12-23-54,0.2965305,0.031748533,-0.06963158,60.0,-4.718271,-16.547335,-0.030319214,-0.09025574,0.055984497,-2.980531,0.7971254,9.308674
34.80524403,31.2650567,0.0,0.3151155,12-23-54,0.2965305,0.031748533,-0.06963158,59.0,-4.89395,-16.32907,-0.030319214,-0.09025574,0.055984497,-2.980531,0.7971254,9.308674
34.80524403,31.2650567,0.0,0.3151155,12-23-54,0.2965305,0.031748533,-0.06963158,59.0,-4.959752,-16.250227,-0.030319214,-0.09025574,0.055984497,-2.980531,0.7971254,9.308674
34.80524403,31.2650567,0.0,0.3151155,12-23-54,0.2965305,0.031748533,-0.06963158,59.0,-5.027313,-16.207983,-0.030319214,-0.09025574,0.055984497,-2.980531,0.7971254,9.308674
34.80524403,31.2650567,0.0,0.3151155,12-23-54,0.2965305,0.031748533,-0.06963158,59.0,-5.027313,-16.207983,-0.030319214,-0.09025574,0.055984497,-2.980531,0.7971254,9.308674
34.80524403,31.2650567,0.0,0.3151155,12-23-54,0.2965305,0.031748533,-0.06963158,58.0,-5.143115,-16.163145,-0.030319214,-0.09025574,0.055984497,-2.980531,0.7971254,9.308674
34.80524403,31.2650567,0.0,0.3151155,12-23-54,0.2965305,0.031748533,-0.06963158,58.0,-5.143115,-16.163145,-0.030319214,-0.09025574,0.055984497,-2.980531,0.7971254,9.308674
34.80524403,31.2650567,0.0,0.3151155,12-23-54,0.2965305,0.031748533,-0.06963158,58.0,-5.143115,-16.163145,-0.04206848,-0.027679443,0.30706787,-2.980531,0.7971254,9.308674
34.80524403,31.2650567,0.0,0.3151155,12-23-54,0.2965305,0.031748533,-0.06963158,58.0,-5.143115,-16.163145,-0.04206848,-0.027679443,0.30706787,-2.980531,0.7971254,9.308674
34.80524521,31.26505678,0.0,0.40435106,12-23-54,0.22093797,-0.2924881,-0.03714466,57.0,-5.49617,-16.051981,-0.04206848,-0.027679443,0.30706787,-2.8546302,0.8396246,9.34433
34.80524521,31.26505678,0.0,0.40435106,12-23-54,0.22093797,-0.2924881,-0.03714466,56.0,-5.6637473,-16.050287,-0.04206848,-0.027679443,0.30706787,-2.8546302,0.8396246,9.34433
34.80524521,31.26505678,0.0,0.40435106,12-23-54,0.22093797,-0.2924881,-0.03714466,55.0,-5.7743297,-16.093477,-0.04206848,-0.027679443,0.30706787,-2.8546302,0.8396246,9.34433
34.80524521,31.26505678,0.0,0.40435106,12-23-54,0.22093797,-0.2924881,-0.03714466,55.0,-5.7743297,-16.093477,-0.04206848,-0.027679443,0.30706787,-2.8546302,0.8396246,9.34433
34.80524521,31.26505678,0.0,0.40435106,12-23-54,0.22093797,-0.2924881,-0.03714466,55.0,-5.7743297,-16.093477,-0.04206848,-0.027679443,0.30706787,-2.8546302,0.8396246,9.34433
34.80524521,31.26505678,0.0,0.40435106,12-23-54,0.22093797,-0.2924881,-0.03714466,54.0,-5.904775,-16.208666,-0.04206848,-0.027679443,0.30706787,-2.8546302,0.8396246,9.34433
34.80524521,31.26505678,0.0,0.40435106,12-23-54,0.22093797,-0.2924881,-0.03714466,54.0,-5.904775,-16.208666,-0.04206848,-0.027679443,0.30706787,-2.8546302,0.8396246,9.34433
34.80524521,31.26505678,0.0,0.40435106,12-23-54,0.22093797,-0.2924881,-0.03714466,54.0,-5.904775,-16.208666,-0.04206848,-0.027679443,0.30706787,-2.8546302,0.8396246,9.34433
34.80524521,31.26505678,0.0,0.40435106,12-23-54,0.22093797,-0.2924881,-0.03714466,53.0,-6.4420466,-16.503525,-0.04206848,-0.027679443,0.30706787,-2.8546302,0.8396246,9.34433
34.80524521,31.26505678,0.0,0.40435106,12-23-54,0.22093797,-0.2924881,-0.03714466,52.0,-6.702902,-16.605452,-0.04206848,-0.027679443,0.30706787,-2.8546302,0.8396246,9.34433
34.80524521,31.26505678,0.0,0.40435106,12-23-54,0.22093797,-0.2924881,-0.03714466,50.0,-6.874931,-16.657906,-0.04206848,-0.027679443,0.30706787,-2.8546302,0.8396246,9.34433
34.80524521,31.26505678,0.0,0.40435106,12-23-54,0.22093797,-0.2924881,-0.03714466,50.0,-6.874931,-16.657906,-0.04206848,-0.027679443,0.30706787,-2.8546302,0.8396246,9.34433
34.80524521,31.26505678,0.0,0.40435106,12-23-54,0.22093797,-0.2924881,-0.03714466,50.0,-6.874931,-16.657906,-0.04206848,-0.027679443,0.30706787,-2.8546302,0.8396246,9.34433
34.80524521,31.26505678,0.0,0.40435106,12-23-54,0.22093797,-0.2924881,-0.03714466,49.0,-7.026105,-16.68381,-0.04206848,-0.027679443,0.30706787,-2.8546302,0.8396246,9.34433
34.80524521,31.26505678,0.0,0.40435106,12-23-54,0.22093797,-0.2924881,-0.03714466,49.0,-7.026105,-16.68381,-0.04206848,-0.027679443,0.30706787,-2.8546302,0.8396246,9.34433
34.80524521,31.26505678,0.0,0.40435106,12-23-54,0.22093797,-0.2924881,-0.03714466,49.0,-7.026105,-16.68381,-0.04206848,-0.027679443,0.30706787,-2.8546302,0.8396246,9.34433
34.80524521,31.26505678,0.0,0.40435106,12-23-54,0.057914972,0.09538317,-0.24284267,48.0,-7.483052,-16.751163,-0.049972534,0.14421082,0.73976135,-2.8590112,1.0754732,9.318788
34.80524521,31.26505678,0.0,0.40435106,12-23-54,0.057914972,0.09538317,-0.24284267,47.0,-7.9614553,-16.618498,-0.049972534,0.14421082,0.73976135,-2.8590112,1.0754732,9.318788
34.80524521,31.26505678,0.0,0.40435106,12-23-54,0.057914972,0.09538317,-0.24284267,47.0,-7.9614553,-16.618498,-0.049972534,0.14421082,0.73976135,-2.8590112,1.0754732,9.318788
34.80524521,31.26505678,0.0,0.40435106,12-23-54,0.057914972,0.09538317,-0.24284267,47.0,-7.9614553,-16.618498,-0.049972534,0.14421082,0.73976135,-2.8590112,1.0754732,9.318788
34.80524521,31.26505678,0.0,0.40435106,12-23-54,0.057914972,0.09538317,-0.24284267,46.0,-8.179362,-16.637913,-0.049972534,0.14421082,0.73976135,-2.8590112,1.0754732,9.318788
34.80524521,31.26505678,0.0,0.40435106,12-23-54,0.057914972,0.09538317,-0.24284267,46.0,-8.179362,-16.637913,-0.049972534,0.14421082,0.73976135,-2.8590112,1.0754732,9.318788
34.80524521,31.26505678,0.0,0.40435106,12-23-55,0.057914972,0.09538317,-0.24284267,45.0,-8.369588,-16.63966,-0.049972534,0.14421082,0.73976135,-2.8590112,1.0754732,9.318788
34.80524521,31.26505678,0.0,0.40435106,12-23-55,0.057914972,0.09538317,-0.24284267,45.0,-8.369588,-16.63966,-0.049972534,0.14421082,0.73976135,-2.8590112,1.0754732,9.318788
34.80524521,31.26505678,0.0,0.40435106,12-23-55,0.057914972,0.09538317,-0.24284267,44.0,-8.6019745,-16.469213,-0.049972534,0.14421082,0.73976135,-2.8590112,1.0754732,9.318788
34.80524521,31.26505678,0.0,0.40435106,12-23-55,0.057914972,0.09538317,-0.24284267,42.0,-9.106671,-16.454456,-0.049972534,0.14421082,0.73976135,-2.8590112,1.0754732,9.318788
34.80524521,31.26505678,0.0,0.40435106,12-23-55,0.057914972,0.09538317,-0.24284267,42.0,-9.106671,-16.454456,-0.049972534,0.14421082,0.73976135,-2.8590112,1.0754732,9.318788
34.80524521,31.26505678,0.0,0.40435106,12-23-55,0.057914972,0.09538317,-0.24284267,42.0,-9.106671,-16.454456,-0.049972534,0.14421082,0.73976135,-2.8590112,1.0754732,9.318788
34.80524521,31.26505678,0.0,0.40435106,12-23-55,0.057914972,0.09538317,-0.24284267,42.0,-9.260672,-16.462334,-0.049972534,0.14421082,0.73976135,-2.8590112,1.0754732,9.318788
34.80524521,31.26505678,0.0,0.40435106,12-23-55,0.057914972,0.09538317,-0.24284267,42.0,-9.260672,-16.462334,-0.049972534,0.14421082,0.73976135,-2.8590112,1.0754732,9.318788
34.80524521,31.26505678,0.0,0.40435106,12-23-55,0.057914972,0.09538317,-0.24284267,42.0,-9.37022,-16.467323,-0.049972534,0.14421082,0.73976135,-2.8590112,1.0754732,9.318788
34.80524521,31.26505678,0.0,0.40435106,12-23-55,0.057914972,0.09538317,-0.24284267,42.0,-9.37022,-16.467323,0.018051147,0.051345825,0.548996,-2.8590112,1.0754732,9.318788
34.80524521,31.26505678,0.0,0.40435106,12-23-55,-0.15580893,0.06391895,0.20362377,41.0,-9.476522,-16.533037,0.018051147,0.051345825,0.548996,-2.8919868,1.3960925,9.2659445
34.80524521,31.26505678,0.0,0.40435106,12-23-55,-0.15580893,0.06391895,0.20362377,41.0,-9.557757,-16.553698,0.018051147,0.051345825,0.548996,-2.8919868,1.3960925,9.2659445
34.80524521,31.26505678,0.0,0.40435106,12-23-55,-0.15580893,0.06391895,0.20362377,40.0,-9.6068535,-16.527693,0.018051147,0.051345825,0.548996,-2.8919868,1.3960925,9.2659445
34.80524521,31.26505678,0.0,0.40435106,12-23-55,-0.15580893,0.06391895,0.20362377,39.0,-9.630376,-16.535095,0.018051147,0.051345825,0.548996,-2.8919868,1.3960925,9.2659445
34.80524521,31.26505678,0.0,0.40435106,12-23-55,-0.15580893,0.06391895,0.20362377,39.0,-9.630376,-16.535095,0.018051147,0.051345825,0.548996,-2.8919868,1.3960925,9.2659445
34.80524521,31.26505678,0.0,0.40435106,12-23-55,-0.15580893,0.06391895,0.20362377,39.0,-9.630376,-16.535095,0.018051147,0.051345825,0.548996,-2.8919868,1.3960925,9.2659445
34.80524521,31.26505678,0.0,0.40435106,12-23-55,-0.15580893,0.06391895,0.20362377,39.0,-9.594915,-16.55251,0.018051147,0.051345825,0.548996,-2.8919868,1.3960925,9.2659445
34.80524521,31.26505678,0.0,0.40435106,12-23-55,-0.15580893,0.06391895,0.20362377,39.0,-9.594915,-16.55251,0.018051147,0.051345825,0.548996,-2.8919868,1.3960925,9.2659445
34.80524521,31.26505678,0.0,0.40435106,12-23-55,-0.15580893,0.06391895,0.20362377,38.0,-9.520351,-16.538143,0.018051147,0.051345825,0.548996,-2.8919868,1.3960925,9.2659445
34.80524521,31.26505678,0.0,0.40435106,12-23-55,-0.15580893,0.06391895,0.20362377,38.0,-9.467797,-16.608133,0.018051147,0.051345825,0.548996,-2.8919868,1.3960925,9.2659445
34.80524521,31.26505678,0.0,0.40435106,12-23-55,-0.15580893,0.06391895,0.20362377,38.0,-9.467797,-16.608133,0.018051147,0.051345825,0.548996,-2.8919868,1.3960925,9.2659445
34.80524521,31.26505678,0.0,0.40435106,12-23-55,-0.15580893,0.06391895,0.20362377,38.0,-9.413273,-16.67713,0.018051147,0.051345825,0.548996,-2.8919868,1.3960925,9.2659445
34.80524521,31.26505678,0.0,0.40435106,12-23-55,-0.15580893,0.06391895,0.20362377,38.0,-9.413273,-16.67713,0.018051147,0.051345825,0.548996,-2.8919868,1.3960925,9.2659445
34.80524521,31.26505678,0.0,0.40435106,12-23-55,-0.15580893,0.06391895,0.20362377,37.0,-9.356791,-16.727472,0.018051147,0.051345825,0.548996,-2.8919868,1.3960925,9.2659445
34.80524521,31.26505678,0.0,0.40435106,12-23-55,-0.15580893,0.06391895,0.20362377,37.0,-9.356791,-16.727472,0.018051147,0.051345825,0.548996,-2.8919868,1.3960925,9.2659445
34.80524521,31.26505678,0.0,0.40435106,12-23-55,-0.264894,-0.5187651,-0.31911087,37.0,-9.356791,-16.727472,-0.1174469,0.07707214,0.40560913,-2.8872716,1.5358047,9.245288
34.80524521,31.26505678,0.0,0.40435106,12-23-55,-0.264894,-0.5187651,-0.31911087,36.0,-9.389509,-16.662958,-0.1174469,0.07707214,0.40560913,-2.8872716,1.5358047,9.245288
34.80524521,31.26505678,0.0,0.40435106,12-23-55,-0.264894,-0.5187651,-0.31911087,36.0,-9.389509,-16.662958,-0.1174469,0.07707214,0.40560913,-2.8872716,1.5358047,9.245288
34.80524521,31.26505678,0.0,0.40435106,12-23-55,-0.264894,-0.5187651,-0.31911087,35.0,-9.451825,-16.552553,-0.1174469,0.07707214,0.40560913,-2.8872716,1.5358047,9.245288
34.80524521,31.26505678,0.0,0.40435106,12-23-55,-0.264894,-0.5187651,-0.31911087,34.0,-9.552919,-16.493572,-0.1174469,0.07707214,0.40560913,-2.8872716,1.5358047,9.245288
34.80524521,31.26505678,0.0,0.40435106,12-23-55,-0.264894,-0.5187651,-0.31911087,34.0,-9.552919,-16.493572,-0.1174469,0.07707214,0.40560913,-2.8872716,1.5358047,9.245288
34.80524521,31.26505678,0.0,0.40435106,12-23-55,-0.264894,-0.5187651,-0.31911087,34.0,-9.629542,-16.490204,-0.1174469,0.07707214,0.40560913,-2.8872716,1.5358047,9.245288
34.80524521,31.26505678,0.0,0.40435106,12-23-55,-0.264894,-0.5187651,-0.31911087,34.0,-9.629542,-16.490204,-0.1174469,0.07707214,0.40560913,-2.8872716,1.5358047,9.245288
34.80524521,31.26505678,0.0,0.40435106,12-23-55,-0.264894,-0.5187651,-0.31911087,34.0,-9.629542,-16.490204,-0.1174469,0.07707214,0.40560913,-2.8872716,1.5358047,9.245288
34.80524521,31.26505678,0.0,0.40435106,12-23-55,-0.264894,-0.5187651,-0.31911087,32.0,-9.60511,-16.565397,-0.1174469,0.07707214,0.40560913,-2.8872716,1.5358047,9.245288
34.80524521,31.26505678,0.0,0.40435106,12-23-55,-0.264894,-0.5187651,-0.31911087,31.0,-9.548643,-16.725225,-0.1174469,0.07707214,0.40560913,-2.8872716,1.5358047,9.245288
34.80524521,31.26505678,0.0,0.40435106,12-23-55,-0.264894,-0.5187651,-0.31911087,31.0,-9.548643,-16.725225,-0.1174469,0.07707214,0.40560913,-2.8872716,1.5358047,9.245288
34.80524521,31.26505678,0.0,0.40435106,12-23-55,-0.264894,-0.5187651,-0.31911087,30.0,-9.482017,-16.942575,-0.1174469,0.07707214,0.40560913,-2.8872716,1.5358047,9.245288
34.80524521,31.26505678,0.0,0.40435106,12-23-55,-0.264894,-0.5187651,-0.31911087,30.0,-9.482017,-16.942575,-0.1174469,0.07707214,0.40560913,-2.8872716,1.5358047,9.245288
34.80524521,31.26505678,0.0,0.40435106,12-23-55,-0.264894,-0.5187651,-0.31911087,30.0,-9.342375,-17.138893,-0.1174469,0.07707214,0.40560913,-2.8872716,1.5358047,9.245288
34.80524521,31.26505678,0.0,0.40435106,12-23-55,-0.264894,-0.5187651,-0.31911087,30.0,-9.342375,-17.138893,-0.1174469,0.07707214,0.40560913,-2.8872716,1.5358047,9.245288
34.80524521,31.26505678,0.0,0.40435106,12-23-55,-0.110663414,0.5582875,-0.40988922,30.0,-9.342375,-17.138893,-0.22045898,0.127182,0.59277344,-2.9148116,1.5268842,9.238121
34.80524521,31.26505678,0.0,0.40435106,12-23-55,-0.110663414,0.5582875,-0.40988922,29.0,-8.972935,-16.97395,-0.22045898,0.127182,0.59277344,-2.9148116,1.5268842,9.238121
34.80524521,31.26505678,0.0,0.40435106,12-23-55,-0.110663414,0.5582875,-0.40988922,29.0,-8.8039665,-16.763855,-0.22045898,0.127182,0.59277344,-2.9148116,1.5268842,9.238121
34.80524521,31.26505678,0.0,0.40435106,12-23-55,-0.110663414,0.5582875,-0.40988922,28.0,-8.4906,-16.559649,-0.22045898,0.127182,0.59277344,-2.9148116,1.5268842,9.238121
34.80524521,31.26505678,0.0,0.40435106,12-23-55,-0.110663414,0.5582875,-0.40988922,28.0,-8.4906,-16.559649,-0.22045898,0.127182,0.59277344,-2.9148116,1.5268842,9.238121
34.80524521,31.26505678,0.0,0.40435106,12-23-55,-0.110663414,0.5582875,-0.40988922,28.0,-8.060117,-16.375788,-0.22045898,0.127182,0.59277344,-2.9148116,1.5268842,9.238121
34.80524521,31.26505678,0.0,0.40435106,12-23-55,-0.110663414,0.5582875,-0.40988922,28.0,-8.060117,-16.375788,-0.22045898,0.127182,0.59277344,-2.9148116,1.5268842,9.238121
34.80524521,31.26505678,0.0,0.40435106,12-23-55,-0.110663414,0.5582875,-0.40988922,28.0,-8.060117,-16.375788,-0.22045898,0.127182,0.59277344,-2.9148116,1.5268842,9.238121
34.80524521,31.26505678,0.0,0.40435106,12-23-55,-0.110663414,0.5582875,-0.40988922,27.0,-7.6281643,-16.289427,-0.22045898,0.127182,0.59277344,-2.9148116,1.5268842,9.238121
34.80524521,31.26505678,0.0,0.40435106,12-23-55,-0.110663414,0.5582875,-0.40988922,27.0,-7.245306,-16.360994,-0.22045898,0.127182,0.59277344,-2.9148116,1.5268842,9.238121
34.80524521,31.26505678,0.0,0.40435106,12-23-55,-0.110663414,0.5582875,-0.40988922,27.0,-6.8868833,-16.52168,-0.22045898,0.127182,0.59277344,-2.9148116,1.5268842,9.238121
34.80524521,31.26505678,0.0,0.40435106,12-23-55,-0.110663414,0.5582875,-0.40988922,27.0,-6.5633335,-16.642246,-0.22045898,0.127182,0.59277344,-2.9148116,1.5268842,9.238121
34.80524521,31.26505678,0.0,0.40435106,12-23-55,-0.110663414,0.5582875,-0.40988922,27.0,-6.5633335,-16.642246,-0.22045898,0.127182,0.59277344,-2.9148116,1.5268842,9.238121
34.80524559,31.26505617,0.0,0.46997917,12-23-55,-0.110663414,0.5582875,-0.40988922,26.0,-6.263055,-16.645117,-0.22045898,0.127182,0.59277344,-2.9148116,1.5268842,9.238121
34.80524559,31.26505617,0.0,0.46997917,12-23-55,-0.110663414,0.5582875,-0.40988922,26.0,-6.263055,-16.645117,-0.22045898,0.127182,0.59277344,-2.9148116,1.5268842,9.238121
34.80524559,31.26505617,0.0,0.46997917,12-23-55,-0.551317,0.36855483,-0.4912882,26.0,-6.263055,-16.645117,-0.39761353,-0.03404236,0.35612488,-2.8835473,1.2434336,9.290286
34.80524559,31.26505617,0.0,0.46997917,12-23-55,-0.551317,0.36855483,-0.4912882,26.0,-5.9611387,-16.516108,-0.39761353,-0.03404236,0.35612488,-2.8835473,1.2434336,9.290286
34.80524559,31.26505617,0.0,0.46997917,12-23-55,-0.551317,0.36855483,-0.4912882,25.0,-5.722178,-16.277525,-0.39761353,-0.03404236,0.35612488,-2.8835473,1.2434336,9.290286
34.80524559,31.26505617,0.0,0.46997917,12-23-55,-0.551317,0.36855483,-0.4912882,25.0,-5.5770235,-16.03099,-0.39761353,-0.03404236,0.35612488,-2.8835473,1.2434336,9.290286
34.80524559,31.26505617,0.0,0.46997917,12-23-55,-0.551317,0.36855483,-0.4912882,25.0,-5.4518924,-15.897955,-0.39761353,-0.03404236,0.35612488,-2.8835473,1.2434336,9.290286
34.80524559,31.26505617,0.0,0.46997917,12-23-55,-0.551317,0.36855483,-0.4912882,25.0,-5.4518924,-15.897955,-0.39761353,-0.03404236,0.35612488,-2.8835473,1.2434336,9.290286
34.80524559,31.26505617,0.0,0.46997917,12-23-55,-0.551317,0.36855483,-0.4912882,24.0,-5.2997665,-15.78615,-0.39761353,-0.03404236,0.35612488,-2.8835473,1.2434336,9.290286
34.80524559,31.26505617,0.0,0.46997917,12-23-55,-0.551317,0.36855483,-0.4912882,24.0,-5.2997665,-15.78615,-0.39761353,-0.03404236,0.35612488,-2.8835473,1.2434336,9.290286
34.80524559,31.26505617,0.0,0.46997917,12-23-55,-0.551317,0.36855483,-0.4912882,24.0,-5.2997665,-15.78615,-0.39761353,-0.03404236,0.35612488,-2.8835473,1.2434336,9.290286
34.80524559,31.26505617,0.0,0.46997917,12-23-55,-0.551317,0.36855483,-0.4912882,24.0,-5.1693583,-15.650973,-0.39761353,-0.03404236,0.35612488,-2.8835473,1.2434336,9.290286
34.80524559,31.26505617,0.0,0.46997917,12-23-55,-0.551317,0.36855483,-0.4912882,23.0,-5.0785685,-15.522768,-0.39761353,-0.03404236,0.35612488,-2.8835473,1.2434336,9.290286
34.80524559,31.26505617,0.0,0.46997917,12-23-55,-0.551317,0.36855483,-0.4912882,22.0,-5.034119,-15.364477,-0.39761353,-0.03404236,0.35612488,-2.8835473,1.2434336,9.290286
34.80524559,31.26505617,0.0,0.46997917,12-23-55,-0.551317,0.36855483,-0.4912882,21.0,-5.046294,-15.239073,-0.39761353,-0.03404236,0.35612488,-2.8835473,1.2434336,9.290286
34.80524559,31.26505617,0.0,0.46997917,12-23-55,-0.551317,0.36855483,-0.4912882,21.0,-5.046294,-15.239073,-0.39761353,-0.03404236,0.35612488,-2.8835473,1.2434336,9.290286
34.80524559,31.26505617,0.0,0.46997917,12-23-55,-0.551317,0.36855483,-0.4912882,20.0,-5.083263,-15.192479,-0.39761353,-0.03404236,0.35612488,-2.8835473,1.2434336,9.290286
34.80524559,31.26505617,0.0,0.46997917,12-23-55,-0.551317,0.36855483,-0.4912882,20.0,-5.083263,-15.192479,-0.39761353,-0.03404236,0.35612488,-2.8835473,1.2434336,9.290286
34.80524559,31.26505617,0.0,0.46997917,12-23-55,-0.0737679,-0.7005172,0.03567505,20.0,-5.083263,-15.192479,-0.39761353,-0.03404236,0.35612488,-2.6745915,0.9113468,9.39076
34.80524559,31.26505617,0.0,0.46997917,12-23-55,-0.0737679,-0.7005172,0.03567505,20.0,-5.1317687,-15.149435,-0.18031311,-0.072753906,0.52363586,-2.6745915,0.9113468,9.39076
34.80524559,31.26505617,0.0,0.46997917,12-23-55,-0.0737679,-0.7005172,0.03567505,18.0,-5.275392,-14.8419695,-0.18031311,-0.072753906,0.52363586,-2.6745915,0.9113468,9.39076
34.80524559,31.26505617,0.0,0.46997917,12-23-55,-0.0737679,-0.7005172,0.03567505,18.0,-5.275392,-14.8419695,-0.18031311,-0.072753906,0.52363586,-2.6745915,0.9113468,9.39076
34.80524559,31.26505617,0.0,0.46997917,12-23-55,-0.0737679,-0.7005172,0.03567505,17.0,-5.362332,-14.681062,-0.18031311,-0.072753906,0.52363586,-2.6745915,0.9113468,9.39076
34.80524559,31.26505617,0.0,0.46997917,12-23-55,-0.0737679,-0.7005172,0.03567505,17.0,-5.362332,-14.681062,-0.18031311,-0.072753906,0.52363586,-2.6745915,0.9113468,9.39076
34.80524559,31.26505617,0.0,0.46997917,12-23-55,-0.0737679,-0.7005172,0.03567505,16.0,-5.4451046,-14.60297,-0.18031311,-0.072753906,0.52363586,-2.6745915,0.9113468,9.39076
34.80524559,31.26505617,0.0,0.46997917,12-23-55,-0.0737679,-0.7005172,0.03567505,16.0,-5.4451046,-14.60297,-0.18031311,-0.072753906,0.52363586,-2.6745915,0.9113468,9.39076
34.80524559,31.26505617,0.0,0.46997917,12-23-56,-0.0737679,-0.7005172,0.03567505,15.0,-5.5121145,-14.568885,-0.18031311,-0.072753906,0.52363586,-2.6745915,0.9113468,9.39076
34.80524559,31.26505617,0.0,0.46997917,12-23-56,-0.0737679,-0.7005172,0.03567505,15.0,-5.5121145,-14.568885,-0.18031311,-0.072753906,0.52363586,-2.6745915,0.9113468,9.39076
34.80524559,31.26505617,0.0,0.46997917,12-23-56,-0.0737679,-0.7005172,0.03567505,14.0,-5.5862565,-14.500694,-0.18031311,-0.072753906,0.52363586,-2.6745915,0.9113468,9.39076
34.80524559,31.26505617,0.0,0.46997917,12-23-56,-0.0737679,-0.7005172,0.03567505,13.0,-5.6871104,-14.441823,-0.18031311,-0.072753906,0.52363586,-2.6745915,0.9113468,9.39076
34.80524559,31.26505617,0.0,0.46997917,12-23-56,-0.0737679,-0.7005172,0.03567505,12.0,-5.802572,-14.449984,-0.18031311,-0.072753906,0.52363586,-2.6745915,0.9113468,9.39076
34.80524559,31.26505617,0.0,0.46997917,12-23-56,-0.0737679,-0.7005172,0.03567505,12.0,-5.802572,-14.449984,-0.18031311,-0.072753906,0.52363586,-2.6745915,0.9113468,9.39076
34.80524559,31.26505617,0.0,0.46997917,12-23-56,0.13349509,-0.7886512,0.30547905,12.0,-5.9316993,-14.476282,-0.18031311,-0.072753906,0.52363586,-2.4829524,0.94080484,9.440351
34.80524559,31.26505617,0.0,0.46997917,12-23-56,0.13349509,-0.7886512,0.30547905,12.0,-5.9316993,-14.476282,-0.18031311,-0.072753906,0.52363586,-2.4829524,0.94080484,9.440351
34.80524559,31.26505617,0.0,0.46997917,12-23-56,0.13349509,-0.7886512,0.30547905,11.0,-6.092494,-14.488015,-0.18031311,-0.072753906,0.52363586,-2.4829524,0.94080484,9.440351
34.80524559,31.26505617,0.0,0.46997917,12-23-56,0.13349509,-0.7886512,0.30547905,11.0,-6.092494,-14.488015,-0.18031311,-0.072753906,0.52363586,-2.4829524,0.94080484,9.440351
34.80524559,31.26505617,0.0,0.46997917,12-23-56,0.13349509,-0.7886512,0.30547905,9.0,-6.517023,-14.387928,-0.06272888,0.018997192,0.704422,-2.4829524,0.94080484,9.440351
34.80524559,31.26505617,0.0,0.46997917,12-23-56,0.13349509,-0.7886512,0.30547905,8.0,-6.771464,-14.2776785,-0.06272888,0.018997192,0.704422,-2.4829524,0.94080484,9.440351
34.80524559,31.26505617,0.0,0.46997917,12-23-56,0.13349509,-0.7886512,0.30547905,8.0,-6.771464,-14.2776785,-0.06272888,0.018997192,0.704422,-2.4829524,0.94080484,9.440351
34.80524559,31.26505617,0.0,0.46997917,12-23-56,0.13349509,-0.7886512,0.30547905,8.0,-6.771464,-14.2776785,-0.06272888,0.018997192,0.704422,-2.4829524,0.94080484,9.440351
34.80524559,31.26505617,0.0,0.46997917,12-23-56,0.13349509,-0.7886512,0.30547905,7.0,-7.0576,-14.210844,-0.06272888,0.018997192,0.704422,-2.4829524,0.94080484,9.440351
34.80524559,31.26505617,0.0,0.46997917,12-23-56,0.13349509,-0.7886512,0.30547905,7.0,-7.0576,-14.210844,-0.06272888,0.018997192,0.704422,-2.4829524,0.94080484,9.440351
34.80524559,31.26505617,0.0,0.46997917,12-23-56,0.13349509,-0.7886512,0.30547905,7.0,-7.3317056,-14.230348,-0.06272888,0.018997192,0.704422,-2.4829524,0.94080484,9.440351
34.80524559,31.26505617,0.0,0.46997917,12-23-56,0.13349509,-0.7886512,0.30547905,7.0,-7.3317056,-14.230348,-0.06272888,0.018997192,0.704422,-2.4829524,0.94080484,9.440351
34.80524559,31.26505617,0.0,0.46997917,12-23-56,0.13349509,-0.7886512,0.30547905,5.0,-7.8082166,-14.176217,-0.06272888,0.018997192,0.704422,-2.4829524,0.94080484,9.440351
34.80524559,31.26505617,0.0,0.46997917,12-23-56,0.13349509,-0.7886512,0.30547905,4.0,-8.025378,-14.078878,-0.06272888,0.018997192,0.704422,-2.4829524,0.94080484,9.440351
34.80524559,31.26505617,0.0,0.46997917,12-23-56,0.13349509,-0.7886512,0.30547905,4.0,-8.025378,-14.078878,-0.06272888,0.018997192,0.704422,-2.4829524,0.94080484,9.440351
34.80524559,31.26505617,0.0,0.46997917,12-23-56,0.13349509,-0.7886512,0.30547905,3.0,-8.198399,-13.987842,-0.06272888,0.018997192,0.704422,-2.4829524,0.94080484,9.440351
34.80524559,31.26505617,0.0,0.46997917,12-23-56,-0.36395812,-0.04731238,-0.16940498,2.0,-8.323638,-13.8968,-0.06272888,0.018997192,0.704422,-2.3876307,1.221047,9.432849
34.80524559,31.26505617,0.0,0.46997917,12-23-56,-0.36395812,-0.04731238,-0.16940498,2.0,-8.323638,-13.8968,-0.06272888,0.018997192,0.704422,-2.3876307,1.221047,9.432849
34.80524559,31.26505617,0.0,0.46997917,12-23-56,-0.36395812,-0.04731238,-0.16940498,2.0,-8.323638,-13.8968,-0.06272888,0.018997192,0.704422,-2.3876307,1.221047,9.432849
34.80524559,31.26505617,0.0,0.46997917,12-23-56,-0.36395812,-0.04731238,-0.16940498,2.0,-8.323638,-13.8968,-0.06272888,0.018997192,0.704422,-2.3876307,1.221047,9.432849
34.80524559,31.26505617,0.0,0.46997917,12-23-56,-0.36395812,-0.04731238,-0.16940498,1.0,-8.396283,-13.65492,0.007095337,0.020553589,0.6802368,-2.3876307,1.221047,9.432849
34.80524559,31.26505617,0.0,0.46997917,12-23-56,-0.36395812,-0.04731238,-0.16940498,0.0,-8.327326,-13.532536,0.007095337,0.020553589,0.6802368,-2.3876307,1.221047,9.432849
34.80524559,31.26505617,0.0,0.46997917,12-23-56,-0.36395812,-0.04731238,-0.16940498,359.0,-8.117954,-13.81157,0.007095337,0.020553589,0.6802368,-2.3876307,1.221047,9.432849
34.80524559,31.26505617,0.0,0.46997917,12-23-56,-0.36395812,-0.04731238,-0.16940498,359.0,-8.117954,-13.81157,0.007095337,0.020553589,0.6802368,-2.3876307,1.221047,9.432849
34.80524559,31.26505617,0.0,0.46997917,12-23-56,-0.36395812,-0.04731238,-0.16940498,359.0,-8.117954,-13.81157,0.007095337,0.020553589,0.6802368,-2.3876307,1.221047,9.432849
34.80524559,31.26505617,0.0,0.46997917,12-23-56,-0.36395812,-0.04731238,-0.16940498,359.0,-8.117954,-13.81157,0.007095337,0.020553589,0.6802368,-2.3876307,1.221047,9.432849
34.80524559,31.26505617,0.0,0.46997917,12-23-56,-0.36395812,-0.04731238,-0.16940498,359.0,-8.117954,-13.81157,0.007095337,0.020553589,0.6802368,-2.3876307,1.221047,9.432849
34.80524559,31.26505617,0.0,0.46997917,12-23-56,-0.36395812,-0.04731238,-0.16940498,359.0,-8.117954,-13.81157,0.007095337,0.020553589,0.6802368,-2.3876307,1.221047,9.432849
34.80524559,31.26505617,0.0,0.46997917,12-23-56,-0.36395812,-0.04731238,-0.16940498,358.0,-7.718254,-14.162028,0.007095337,0.020553589,0.6802368,-2.3876307,1.221047,9.432849
34.80524559,31.26505617,0.0,0.46997917,12-23-56,-0.36395812,-0.04731238,-0.16940498,357.0,-7.534627,-14.116159,0.007095337,0.020553589,0.6802368,-2.3876307,1.221047,9.432849
34.80524559,31.26505617,0.0,0.46997917,12-23-56,-0.13928533,0.90270114,-0.05652237,356.0,-7.216277,-13.972069,0.007095337,0.020553589,0.6802368,-2.3279228,1.3224599,9.434101
34.80524559,31.26505617,0.0,0.46997917,12-23-56,-0.13928533,0.90270114,-0.05652237,356.0,-7.216277,-13.972069,0.007095337,0.020553589,0.6802368,-2.3279228,1.3224599,9.434101
34.80524559,31.26505617,0.0,0.46997917,12-23-56,-0.13928533,0.90270114,-0.05652237,356.0,-7.216277,-13.972069,0.007095337,0.020553589,0.6802368,-2.3279228,1.3224599,9.434101
34.80524559,31.26505617,0.0,0.46997917,12-23-56,-0.13928533,0.90270114,-0.05652237,356.0,-7.216277,-13.972069,0.007095337,0.020553589,0.6802368,-2.3279228,1.3224599,9.434101
34.80524559,31.26505617,0.0,0.46997917,12-23-56,-0.13928533,0.90270114,-0.05652237,356.0,-7.216277,-13.972069,0.007095337,0.020553589,0.6802368,-2.3279228,1.3224599,9.434101
34.80524559,31.26505617,0.0,0.46997917,12-23-56,-0.13928533,0.90270114,-0.05652237,356.0,-7.216277,-13.972069,0.007095337,0.020553589,0.6802368,-2.3279228,1.3224599,9.434101
34.80524559,31.26505617,0.0,0.46997917,12-23-56,-0.13928533,0.90270114,-0.05652237,355.0,-6.7104125,-13.989751,-0.2889557,0.08842468,0.5101013,-2.3279228,1.3224599,9.434101
34.80524559,31.26505617,0.0,0.46997917,12-23-56,-0.13928533,0.90270114,-0.05652237,355.0,-6.4242206,-14.153899,-0.2889557,0.08842468,0.5101013,-2.3279228,1.3224599,9.434101
34.80524559,31.26505617,0.0,0.46997917,12-23-56,-0.13928533,0.90270114,-0.05652237,354.0,-5.805249,-14.661676,-0.2889557,0.08842468,0.5101013,-2.3279228,1.3224599,9.434101
34.80524559,31.26505617,0.0,0.46997917,12-23-56,-0.13928533,0.90270114,-0.05652237,354.0,-5.805249,-14.661676,-0.2889557,0.08842468,0.5101013,-2.3279228,1.3224599,9.434101
34.80524559,31.26505617,0.0,0.46997917,12-23-56,-0.13928533,0.90270114,-0.05652237,353.0,-5.525191,-14.804404,-0.2889557,0.08842468,0.5101013,-2.3279228,1.3224599,9.434101
34.80524559,31.26505617,0.0,0.46997917,12-23-56,-0.13928533,0.90270114,-0.05652237,353.0,-5.525191,-14.804404,-0.2889557,0.08842468,0.5101013,-2.3279228,1.3224599,9.434101
34.80524559,31.26505617,0.0,0.46997917,12-23-56,-0.13928533,0.90270114,-0.05652237,353.0,-5.525191,-14.804404,-0.2889557,0.08842468,0.5101013,-2.3279228,1.3224599,9.434101
34.80524559,31.26505617,0.0,0.46997917,12-23-56,-0.13928533,0.90270114,-0.05652237,353.0,-5.525191,-14.804404,-0.2889557,0.08842468,0.5101013,-2.3279228,1.3224599,9.434101
34.80524559,31.26505617,0.0,0.46997917,12-23-56,-0.13928533,0.90270114,-0.05652237,352.0,-5.3536696,-14.86955,-0.2889557,0.08842468,0.5101013,-2.3279228,1.3224599,9.434101
34.80524559,31.26505617,0.0,0.46997917,12-23-56,-0.13928533,0.90270114,-0.05652237,351.0,-5.2062635,-14.913899,-0.2889557,0.08842468,0.5101013,-2.3279228,1.3224599,9.434101
34.80524521,31.26505562,0.11,0.4783412,12-23-56,-0.29768252,0.5232103,-0.42531967,350.0,-4.7847896,-14.901341,-0.2889557,0.08842468,0.5101013,-2.394952,0.9954975,9.457461
34.80524521,31.26505562,0.11,0.4783412,12-23-56,-0.29768252,0.5232103,-0.42531967,350.0,-4.7847896,-14.901341,-0.2889557,0.08842468,0.5101013,-2.394952,0.9954975,9.457461
34.80524521,31.26505562,0.11,0.4783412,12-23-56,-0.29768252,0.5232103,-0.42531967,350.0,-4.7847896,-14.901341,-0.2889557,0.08842468,0.5101013,-2.394952,0.9954975,9.457461
34.80524521,31.26505562,0.11,0.4783412,12-23-56,-0.29768252,0.5232103,-0.42531967,350.0,-4.7847896,-14.901341,-0.2889557,0.08842468,0.5101013,-2.394952,0.9954975,9.457461
34.80524521,31.26505562,0.11,0.4783412,12-23-56,-0.29768252,0.5232103,-0.42531967,350.0,-4.7847896,-14.901341,-0.2889557,0.08842468,0.5101013,-2.394952,0.9954975,9.457461
34.80524521,31.26505562,0.11,0.4783412,12-23-56,-0.29768252,0.5232103,-0.42531967,350.0,-4.5941596,-14.944269,-0.2889557,0.08842468,0.5101013,-2.394952,0.9954975,9.457461
34.80524521,31.26505562,0.11,0.4783412,12-23-56,-0.29768252,0.5232103,-0.42531967,349.0,-4.432927,-15.011867,-0.34951782,0.13084412,0.5003357,-2.394952,0.9954975,9.457461
34.80524521,31.26505562,0.11,0.4783412,12-23-56,-0.29768252,0.5232103,-0.42531967,349.0,-4.2839303,-15.095845,-0.34951782,0.13084412,0.5003357,-2.394952,0.9954975,9.457461
34.80524521,31.26505562,0.11,0.4783412,12-23-56,-0.29768252,0.5232103,-0.42531967,347.0,-4.030069,-15.301221,-0.34951782,0.13084412,0.5003357,-2.394952,0.9954975,9.457461
34.80524521,31.26505562,0.11,0.4783412,12-23-56,-0.29768252,0.5232103,-0.42531967,347.0,-4.030069,-15.301221,-0.34951782,0.13084412,0.5003357,-2.394952,0.9954975,9.457461
34.80524521,31.26505562,0.11,0.4783412,12-23-56,-0.29768252,0.5232103,-0.42531967,347.0,-4.030069,-15.301221,-0.34951782,0.13084412,0.5003357,-2.394952,0.9954975,9.457461
34.80524521,31.26505562,0.11,0.4783412,12-23-56,-0.29768252,0.5232103,-0.42531967,347.0,-4.030069,-15.301221,-0.34951782,0.13084412,0.5003357,-2.394952,0.9954975,9.457461
34.80524521,31.26505562,0.11,0.4783412,12-23-56,-0.29768252,0.5232103,-0.42531967,346.0,-3.9747832,-15.414422,-0.34951782,0.13084412,0.5003357,-2.394952,0.9954975,9.457461
34.80524521,31.26505562,0.11,0.4783412,12-23-56,-0.29768252,0.5232103,-0.42531967,346.0,-3.9747832,-15.414422,-0.34951782,0.13084412,0.5003357,-2.394952,0.9954975,9.457461
34.80524521,31.26505562,0.11,0.4783412,12-23-56,-0.29768252,0.5232103,-0.42531967,345.0,-3.9880743,-15.560801,-0.34951782,0.13084412,0.5003357,-2.394952,0.9954975,9.457461
34.80524521,31.26505562,0.11,0.4783412,12-23-56,-0.29768252,0.5232103,-0.42531967,344.0,-4.029029,-15.722627,-0.34951782,0.13084412,0.5003357,-2.394952,0.9954975,9.457461
34.80524521,31.26505562,0.11,0.4783412,12-23-56,-0.19826746,-0.3441366,0.031291008,342.0,-4.188797,-15.932124,-0.34951782,0.13084412,0.5003357,-2.518841,0.68818206,9.452631
34.80524521,31.26505562,0.11,0.4783412,12-23-56,-0.19826746,-0.3441366,0.031291008,342.0,-4.188797,-15.932124,-0.34951782,0.13084412,0.5003357,-2.518841,0.68818206,9.452631
34.80524521,31.26505562,0.11,0.4783412,12-23-56,-0.19826746,-0.3441366,0.031291008,342.0,-4.188797,-15.932124,-0.34951782,0.13084412,0.5003357,-2.518841,0.68818206,9.452631
34.80524521,31.26505562,0.11,0.4783412,12-23-56,-0.19826746,-0.3441366,0.031291008,342.0,-4.188797,-15.932124,-0.34951782,0.13084412,0.5003357,-2.518841,0.68818206,9.452631
34.80524521,31.26505562,0.11,0.4783412,12-23-56,-0.19826746,-0.3441366,0.031291008,342.0,-4.188797,-15.932124,-0.34951782,0.13084412,0.5003357,-2.518841,0.68818206,9.452631
34.80524521,31.26505562,0.11,0.4783412,12-23-56,-0.19826746,-0.3441366,0.031291008,342.0,-4.188797,-15.932124,-0.34951782,0.13084412,0.5003357,-2.518841,0.68818206,9.452631
34.80524521,31.26505562,0.11,0.4783412,12-23-56,-0.19826746,-0.3441366,0.031291008,340.0,-4.366659,-16.20433,-0.20063782,0.1462555,0.70162964,-2.518841,0.68818206,9.452631
34.80524521,31.26505562,0.11,0.4783412,12-23-56,-0.19826746,-0.3441366,0.031291008,340.0,-4.366659,-16.20433,-0.20063782,0.1462555,0.70162964,-2.518841,0.68818206,9.452631
34.80524521,31.26505562,0.11,0.4783412,12-23-57,-0.19826746,-0.3441366,0.031291008,338.0,-4.5233197,-16.544596,-0.20063782,0.1462555,0.70162964,-2.518841,0.68818206,9.452631
34.80524521,31.26505562,0.11,0.4783412,12-23-57,-0.19826746,-0.3441366,0.031291008,338.0,-4.5233197,-16.544596,-0.20063782,0.1462555,0.70162964,-2.518841,0.68818206,9.452631
34.80524521,31.26505562,0.11,0.4783412,12-23-57,-0.19826746,-0.3441366,0.031291008,338.0,-4.5233197,-16.544596,-0.20063782,0.1462555,0.70162964,-2.518841,0.68818206,9.452631
34.80524521,31.26505562,0.11,0.4783412,12-23-57,-0.19826746,-0.3441366,0.031291008,338.0,-4.5233197,-16.544596,-0.20063782,0.1462555,0.70162964,-2.518841,0.68818206,9.452631
34.80524521,31.26505562,0.11,0.4783412,12-23-57,-0.19826746,-0.3441366,0.031291008,338.0,-4.5233197,-16.544596,-0.20063782,0.1462555,0.70162964,-2.518841,0.68818206,9.452631
34.80524521,31.26505562,0.11,0.4783412,12-23-57,-0.19826746,-0.3441366,0.031291008,338.0,-4.5233197,-16.544596,-0.20063782,0.1462555,0.70162964,-2.518841,0.68818206,9.452631
34.80524521,31.26505562,0.11,0.4783412,12-23-57,-0.19826746,-0.3441366,0.031291008,337.0,-4.5761294,-16.596375,-0.20063782,0.1462555,0.70162964,-2.518841,0.68818206,9.452631
