Longitude,Latitude,Speed,Distance,Time,Acc X,Acc Y,Acc Z,Heading,Pitch,Roll,gyro_x,gyro_y,gyro_z,gravity_x,gravity_y,gravity_z
34.80047655286534,31.261739233704954,0.0,0.0,11-11-45,-0.007360287,-0.005320072,-6.637573E-4,256.0,-3.3808315,-0.45094857,0.0014801025,-0.002029419,0.0010681152,-0.08401948,0.57260275,9.789558
34.80047655286534,31.261739233704954,0.0,0.0,11-11-45,-0.005518645,-0.0028697848,0.0033960342,256.0,-3.3747432,-0.44715303,0.0014801025,-0.002029419,0.0010681152,-0.082657434,0.5743262,9.789469
34.80047655286534,31.261739233704954,0.0,0.0,11-11-45,-0.005518645,-0.0028697848,0.0033960342,256.0,-3.3886602,-0.44990078,0.0016479492,-0.0019683838,9.613037E-4,-0.082657434,0.5743262,9.789469
34.80047655286534,31.261739233704954,0.0,0.0,11-11-45,-0.0029978976,-0.0039116144,-3.1089783E-4,256.0,-3.3905218,-0.45750073,0.0016479492,-0.0019683838,9.613037E-4,-0.08044339,0.57596076,9.7893915
34.80047655286534,31.261739233704954,0.0,0.0,11-11-45,-0.0029978976,-0.0039116144,-3.1089783E-4,256.0,-3.390264,-0.45057315,0.002243042,-0.0017089844,0.0010223389,-0.08044339,0.57596076,9.7893915
34.80047655286534,31.261739233704954,0.0,0.0,11-11-46,-0.008686788,-0.004255414,0.001739502,256.0,-3.3897347,-0.45302612,0.002243042,-0.0017089844,0.0010223389,-0.081285045,0.57743317,9.789298
34.80047655286534,31.261739233704954,0.0,0.0,11-11-46,-0.008686788,-0.004255414,0.001739502,256.0,-3.3872423,-0.45902392,0.0015411377,-0.001739502,5.187988E-4,-0.081285045,0.57743317,9.789298
34.80047655286534,31.261739233704954,0.0,0.0,11-11-46,-0.0054964796,-0.008256316,-0.0023641586,256.0,-3.3894536,-0.46221977,0.0015411377,-0.001739502,5.187988E-4,-0.080452286,0.57711035,9.789324
34.80047655286534,31.261739233704954,0.0,0.0,11-11-46,-0.0054964796,-0.008256316,-0.0023641586,256.0,-3.3850641,-0.45597667,0.0016937256,-0.0020141602,7.324219E-4,-0.080452286,0.57711035,9.789324
34.80047655286534,31.261739233704954,0.0,0.0,11-11-46,-0.010635637,-0.008649826,0.0011587143,256.0,-3.3801308,-0.46022266,0.0016937256,-0.0020141602,7.324219E-4,-0.08194696,0.57607436,9.789372
34.80047655286534,31.261739233704954,0.0,0.0,11-11-46,-0.010635637,-0.008649826,0.0011587143,256.0,-3.3714936,-0.46042183,0.0013275146,-0.0016937256,8.087158E-4,-0.08194696,0.57607436,9.789372
34.80047655286534,31.261739233704954,0.0,0.0,11-11-46,-0.0056926757,-0.0062743425,0.0018844604,256.0,-3.3822496,-0.4588619,0.0013275146,-0.0016937256,8.087158E-4,-0.081184834,0.5755659,9.789409
34.80047655286534,31.261739233704954,0.0,0.0,11-11-46,-0.0056926757,-0.0062743425,0.0018844604,256.0,-3.3796427,-0.45597395,0.0015869141,-0.0019836426,3.9672852E-4,-0.081184834,0.5755659,9.789409
34.80047655286534,31.261739233704954,0.0,0.0,11-11-46,-0.009240568,-0.007435262,0.0036468506,256.0,-3.3811882,-0.45467377,0.0015869141,-0.0019836426,3.9672852E-4,-0.08212962,0.5746116,9.789456
34.80047655286534,31.261739233704954,0.0,0.0,11-11-46,-0.009240568,-0.007435262,0.0036468506,256.0,-3.3838205,-0.4471923,0.001373291,-0.0017700195,8.239746E-4,-0.08212962,0.5746116,9.789456
34.80047655286534,31.261739233704954,0.0,0.0,11-11-47,-0.005837694,-0.0026752353,9.3746185E-4,256.0,-3.381648,-0.44700336,0.001373291,-0.0017700195,8.239746E-4,-0.08126608,0.5761128,9.789376
34.80047655286534,31.261739233704954,0.0,0.0,11-11-47,-0.005837694,-0.0026752353,9.3746185E-4,256.0,-3.3845575,-0.4464356,0.0016174316,-0.001663208,6.5612793E-4,-0.08126608,0.5761128,9.789376
34.80047655286534,31.261739233704954,0.0,0.0,11-11-47,-0.0024743453,-0.0071415305,-0.0050621033,256.0,-3.384981,-0.45162162,0.0016174316,-0.001663208,6.5612793E-4,-0.07895476,0.5757536,9.789416
34.80047655286534,31.261739233704954,0.0,0.0,11-11-47,-0.010245316,-0.007175088,-0.0032691956,256.0,-3.3826766,-0.45195845,0.0015106201,-0.001876831,8.544922E-4,-0.0804749,0.5754235,9.789423
34.80047655286534,31.261739233704954,0.0,0.0,11-11-47,-0.010245316,-0.007175088,-0.0032691956,256.0,-3.3766286,-0.4502119,0.0015106201,-0.001876831,8.544922E-4,-0.0804749,0.5754235,9.789423
34.80047655286534,31.261739233704954,0.0,0.0,11-11-47,-0.010245316,-0.007175088,-0.0032691956,256.0,-3.3736544,-0.45293793,0.001373291,-0.001876831,6.5612793E-4,-0.081122264,0.57570165,9.789401
34.80047655286534,31.261739233704954,0.0,0.0,11-11-47,-0.00862921,-0.004973352,3.709793E-4,256.0,-3.3767917,-0.44472364,0.001373291,-0.001876831,6.5612793E-4,-0.081122264,0.57570165,9.789401
34.80047655286534,31.261739233704954,0.0,0.0,11-11-47,-0.0061056986,-0.009028316,0.0016937256,256.0,-3.3808396,-0.4492608,0.001739502,-0.0017089844,8.392334E-4,-0.08054933,0.5742737,9.78949
34.80047655286534,31.261739233704954,0.0,0.0,11-11-47,-0.0061056986,-0.009028316,0.0016937256,256.0,-3.3824656,-0.44585013,0.001739502,-0.0017089844,8.392334E-4,-0.08054933,0.5742737,9.78949
34.80047655286534,31.261739233704954,0.0,0.0,11-11-47,-0.006036006,-0.0030072331,0.0065641403,256.0,-3.39007,-0.44991717,0.0017089844,-0.002105713,3.8146973E-4,-0.07953562,0.5760107,9.789396
34.80047655286534,31.261739233704954,0.0,0.0,11-11-48,-0.006036006,-0.0030072331,0.0065641403,256.0,-3.3888893,-0.45109767,0.0017089844,-0.002105713,3.8146973E-4,-0.07953562,0.5760107,9.789396
34.80047655286534,31.261739233704954,0.0,0.0,11-11-48,-0.008166544,-0.0050398707,-0.0012426376,256.0,-3.3900514,-0.45393687,0.0013427734,-0.0019073486,4.8828125E-4,-0.079667926,0.57653975,9.789364
34.80047655286534,31.261739233704954,0.0,0.0,11-11-48,-0.008166544,-0.0050398707,-0.0012426376,256.0,-3.3938181,-0.45652822,0.0013427734,-0.0019073486,4.8828125E-4,-0.079667926,0.57653975,9.789364
34.80047655286534,31.261739233704954,0.0,0.0,11-11-48,-0.0087964535,-0.003775537,-0.00630188,256.0,-3.3926857,-0.46590698,0.0011138916,-0.0016174316,5.493164E-4,-0.080731444,0.5773634,9.789307
34.80047655286534,31.261739233704954,0.0,0.0,11-11-48,-0.0087964535,-0.003775537,-0.00630188,256.0,-3.3825445,-0.45873472,0.0011138916,-0.0016174316,5.493164E-4,-0.080731444,0.5773634,9.789307
34.80047655286534,31.261739233704954,0.0,0.0,11-11-48,-0.012022443,-0.005585611,-0.0010881424,256.0,-3.3796384,-0.4640869,0.0015716553,-0.0018005371,8.087158E-4,-0.08331273,0.57742625,9.789281
34.80047655286534,31.261739233704954,0.0,0.0,11-11-48,-0.012022443,-0.005585611,-0.0010881424,256.0,-3.3836293,-0.45990604,0.0015716553,-0.0018005371,8.087158E-4,-0.08331273,0.57742625,9.789281
34.80047655286534,31.261739233704954,0.0,0.0,11-11-48,-0.005678542,-0.00985086,0.0034971237,256.0,-3.388245,-0.46224794,0.0014953613,-0.0016937256,5.493164E-4,-0.082632236,0.5755513,9.789397
34.80047655286534,31.261739233704954,0.0,0.0,11-11-48,-0.005678542,-0.00985086,0.0034971237,256.0,-3.3711221,-0.4606545,0.0014953613,-0.0016937256,5.493164E-4,-0.082632236,0.5755513,9.789397
34.80047655286534,31.261739233704954,0.0,0.0,11-11-48,-0.0069331154,-0.00536263,0.0046539307,256.0,-3.3626523,-0.45682114,0.0016021729,-0.0017700195,9.3078613E-4,-0.08242947,0.5756934,9.789391
34.80047655286534,31.261739233704954,0.0,0.0,11-11-49,-0.0069331154,-0.00536263,0.0046539307,256.0,-3.3653576,-0.4557212,0.0016021729,-0.0017700195,9.3078613E-4,-0.08242947,0.5756934,9.789391
34.80047655286534,31.261739233704954,0.0,0.0,11-11-49,-0.00539393,-0.013044119,1.335144E-5,256.0,-3.3767834,-0.45802388,0.0013885498,-0.0018157959,4.4250488E-4,-0.08160021,0.5718858,9.78962
34.80047655286534,31.261739233704954,0.0,0.0,11-11-49,-0.00539393,-0.013044119,1.335144E-5,256.0,-3.376987,-0.46339804,0.0013885498,-0.0018157959,4.4250488E-4,-0.08160021,0.5718858,9.78962
34.80047655286534,31.261739233704954,0.0,0.0,11-11-49,-0.0067005083,0.0019372702,0.0031003952,256.0,-3.3712149,-0.45960048,0.001083374,-0.0016174316,7.6293945E-5,-0.0818188,0.57522064,9.789424
34.80047655286534,31.261739233704954,0.0,0.0,11-11-49,-0.0067005083,0.0019372702,0.0031003952,256.0,-3.369967,-0.4553366,0.001083374,-0.0016174316,7.6293945E-5,-0.0818188,0.57522064,9.789424
34.80047655286534,31.261739233704954,0.0,0.0,11-11-49,-0.0071402267,-0.0071672797,0.0038261414,256.0,-3.373428,-0.45856994,0.0016479492,-0.0019378662,9.3078613E-4,-0.08183747,0.5743609,9.789474
34.80047655286534,31.261739233704954,0.0,0.0,11-11-49,-0.0071402267,-0.0071672797,0.0038261414,256.0,-3.3746116,-0.4482387,0.0016479492,-0.0019378662,9.3078613E-4,-0.08183747,0.5743609,9.789474
34.80047655286534,31.261739233704954,0.0,0.0,11-11-49,-0.007860318,-0.006268561,0.002491951,256.0,-3.3715353,-0.44908768,0.0016784668,-0.0018615723,4.7302246E-4,-0.08182557,0.5743445,9.7894745
34.80047655286534,31.261739233704954,0.0,0.0,11-11-49,-0.007860318,-0.006268561,0.002491951,256.0,-3.3825905,-0.4448659,0.0016784668,-0.0018615723,4.7302246E-4,-0.08182557,0.5743445,9.7894745
34.80047655286534,31.261739233704954,0.0,0.0,11-11-49,-0.003511861,-0.007457912,-0.00623703,256.0,-3.3862083,-0.45280895,0.001739502,-0.0018005371,9.918213E-4,-0.079920635,0.5743096,9.789493
34.80047655286534,31.261739233704954,0.0,0.0,11-11-50,-0.003511861,-0.007457912,-0.00623703,256.0,-3.3874102,-0.45130017,0.001739502,-0.0018005371,9.918213E-4,-0.079920635,0.5743096,9.789493
34.80047655286534,31.261739233704954,0.0,0.0,11-11-50,-0.00829456,-0.0017231107,-0.006679535,256.0,-3.3900273,-0.4433854,0.0011901855,-0.0017089844,6.2561035E-4,-0.08063558,0.57648414,9.789359
34.80047655286534,31.261739233704954,0.0,0.0,11-11-50,-0.00829456,-0.0017231107,-0.006679535,256.0,-3.3867414,-0.44584218,0.0011901855,-0.0017089844,6.2561035E-4,-0.08063558,0.57648414,9.789359
34.80047655286534,31.261739233704954,0.0,0.0,11-11-50,-0.0028636009,-0.0022972226,-6.4373016E-4,256.0,-3.3903735,-0.44490704,0.001449585,-0.0018463135,6.2561035E-4,-0.078583926,0.5777688,9.7893
34.80047655286534,31.261739233704954,0.0,0.0,11-11-50,-0.0028636009,-0.0022972226,-6.4373016E-4,256.0,-3.3884501,-0.436889,0.001449585,-0.0018463135,6.2561035E-4,-0.078583926,0.5777688,9.7893
34.80047655286534,31.261739233704954,0.0,0.0,11-11-50,-0.008823983,-0.0057554245,0.005142212,256.0,-3.3850427,-0.44439945,0.001373291,-0.0019989014,4.7302246E-4,-0.07902328,0.5777575,9.789297
34.80047655286534,31.261739233704954,0.0,0.0,11-11-50,-0.008823983,-0.0057554245,0.005142212,256.0,-3.3824477,-0.44490626,0.001373291,-0.0019989014,4.7302246E-4,-0.07902328,0.5777575,9.789297
34.80047655286534,31.261739233704954,0.0,0.0,11-11-50,-0.007932089,-0.0095540285,-0.0038442612,256.0,-3.3827825,-0.44042826,0.0019226074,-0.0016479492,6.5612793E-4,-0.07922859,0.5764639,9.7893715
34.80047655286534,31.261739233704954,0.0,0.0,11-11-50,-0.007932089,-0.0095540285,-0.0038442612,256.0,-3.3849452,-0.44697785,0.0019226074,-0.0016479492,6.5612793E-4,-0.07922859,0.5764639,9.7893715
34.80047655286534,31.261739233704954,0.0,0.0,11-11-50,-0.0049070194,-0.007429838,0.0030260086,256.0,-3.3802643,-0.45053005,0.0014038086,-0.0016021729,6.1035156E-4,-0.07843684,0.57581073,9.789416
34.80047655286534,31.261739233704954,0.0,0.0,11-11-51,-0.0049070194,-0.007429838,0.0030260086,256.0,-3.3746588,-0.4546189,0.0014038086,-0.0016021729,6.1035156E-4,-0.07843684,0.57581073,9.789416
34.80047655286534,31.261739233704954,0.0,0.0,11-11-51,-0.010332793,-0.006160021,0.004723549,256.0,-3.377164,-0.44925314,0.0013122559,-0.0016174316,5.645752E-4,-0.080357604,0.57537675,9.789427
34.80047655286534,31.261739233704954,0.0,0.0,11-11-51,-0.010332793,-0.006160021,0.004723549,256.0,-3.3853886,-0.45065275,0.0013122559,-0.0016174316,5.645752E-4,-0.080357604,0.57537675,9.789427
34.80047655286534,31.261739233704954,0.0,0.0,11-11-51,-0.005787015,-0.0067103505,-0.0017614365,256.0,-3.3788993,-0.44881392,0.0012664795,-0.001663208,8.392334E-4,-0.080032706,0.5746841,9.78947
34.80047655286534,31.261739233704954,0.0,0.0,11-11-51,-0.005787015,-0.0067103505,-0.0017614365,256.0,-3.3774517,-0.4490545,0.0012664795,-0.001663208,8.392334E-4,-0.080032706,0.5746841,9.78947
34.80047655286534,31.261739233704954,0.0,0.0,11-11-51,-0.0060980693,-0.0026435256,-0.0010938644,256.0,-3.3792894,-0.45054245,0.0012664795,-0.0014648438,6.4086914E-4,-0.07995624,0.5758733,9.789401
34.80047655286534,31.261739233704954,0.0,0.0,11-11-51,-0.0060980693,-0.0026435256,-0.0010938644,256.0,-3.3832073,-0.45214304,0.0012664795,-0.0014648438,6.4086914E-4,-0.07995624,0.5758733,9.789401
34.80047655286534,31.261739233704954,0.0,0.0,11-11-51,-0.0069277063,-0.0051142573,0.0015802383,256.0,-3.3835545,-0.45661137,0.0015258789,-0.0015869141,2.746582E-4,-0.08030756,0.57604474,9.789388
34.80047655286534,31.261739233704954,0.0,0.0,11-11-51,-0.0069277063,-0.0051142573,0.0015802383,256.0,-3.3871837,-0.45416838,0.0015258789,-0.0015869141,2.746582E-4,-0.08030756,0.57604474,9.789388
34.80047655286534,31.261739233704954,0.0,0.0,11-11-51,-0.006532006,-0.0051651597,-0.0020217896,256.0,-3.3858862,-0.46001592,0.0014953613,-0.0017547607,0.0012054443,-0.080240235,0.5765082,9.789361
34.80047655286534,31.261739233704954,0.0,0.0,11-11-52,-0.006532006,-0.0051651597,-0.0020217896,256.0,-3.3766649,-0.45669433,0.0014953613,-0.0017547607,0.0012054443,-0.080240235,0.5765082,9.789361
34.80047655286534,31.261739233704954,0.0,0.0,11-11-52,-0.010462455,-0.0062918067,6.4849854E-4,256.0,-3.3727815,-0.45989665,0.0013580322,-0.0015411377,8.8500977E-4,-0.082117036,0.57620835,9.789363
34.80047655286534,31.261739233704954,0.0,0.0,11-11-52,-0.010462455,-0.0062918067,6.4849854E-4,256.0,-3.3767986,-0.46593922,0.0013580322,-0.0015411377,8.8500977E-4,-0.082117036,0.57620835,9.789363
34.80047655286534,31.261739233704954,0.0,0.0,11-11-52,-0.0043326616,-0.008749485,0.00417614,256.0,-3.3776464,-0.46861422,0.001449585,-0.0014648438,5.79834E-4,-0.081222095,0.5745172,9.78947
34.80047655286534,31.261739233704954,0.0,0.0,11-11-52,-0.0043326616,-0.008749485,0.00417614,256.0,-3.3753798,-0.46932203,0.001449585,-0.0014648438,5.79834E-4,-0.081222095,0.5745172,9.78947
34.80047655286534,31.261739233704954,0.0,0.0,11-11-52,-0.010362111,-0.0037528872,0.0061330795,256.0,-3.3809154,-0.46628478,0.0014648438,-0.0015869141,5.0354004E-4,-0.08324755,0.5752875,9.789408
34.80047655286534,31.261739233704954,0.0,0.0,11-11-52,-0.010362111,-0.0037528872,0.0061330795,256.0,-3.380287,-0.47040364,0.0014648438,-0.0015869141,5.0354004E-4,-0.08324755,0.5752875,9.789408
34.80047655286534,31.261739233704954,0.0,0.0,11-11-52,-0.0052414685,-0.00518018,-0.005091667,256.0,-3.3846958,-0.47011578,0.0017089844,-0.001663208,6.2561035E-4,-0.08267509,0.5760393,9.789369
34.80047655286534,31.261739233704954,0.0,0.0,11-11-52,-0.0052414685,-0.00518018,-0.005091667,256.0,-3.388837,-0.46797794,0.0017089844,-0.001663208,6.2561035E-4,-0.08267509,0.5760393,9.789369
34.80047655286534,31.261739233704954,0.0,0.0,11-11-52,-0.007793106,-0.00670135,-9.822845E-4,256.0,-3.3914557,-0.4569666,0.0016326904,-0.0016784668,0.0011138916,-0.083220586,0.57604265,9.789363
34.80047655286534,31.261739233704954,0.0,0.0,11-11-53,-0.007793106,-0.00670135,-9.822845E-4,256.0,-3.3838375,-0.45221233,0.0016326904,-0.0016784668,0.0011138916,-0.083220586,0.57604265,9.789363
34.80047655286534,31.261739233704954,0.0,0.0,11-11-53,-0.00369443,-0.004292786,-0.002770424,256.0,-3.3882096,-0.44872427,0.0015563965,-0.0014343262,9.460449E-4,-0.08186853,0.5770526,9.789315
34.80047655286534,31.261739233704954,0.0,0.0,11-11-53,-0.00369443,-0.004292786,-0.002770424,256.0,-3.3854334,-0.44974765,0.0015563965,-0.0014343262,9.460449E-4,-0.08186853,0.5770526,9.789315
34.80047655286534,31.261739233704954,0.0,0.0,11-11-53,-0.0019500703,-0.007468283,-0.0012722015,256.0,-3.3865075,-0.44382074,0.0013122559,-0.0014343262,6.866455E-4,-0.07994776,0.5762429,9.789379
34.80047655286534,31.261739233704954,0.0,0.0,11-11-53,-0.0019500703,-0.007468283,-0.0012722015,256.0,-3.3817089,-0.43913406,0.0013122559,-0.0014343262,6.866455E-4,-0.07994776,0.5762429,9.789379
34.80047655286534,31.261739233704954,0.0,0.0,11-11-53,-0.0030251592,-0.00467366,5.016327E-4,256.0,-3.3849783,-0.43380708,9.918213E-4,-0.0013275146,6.1035156E-4,-0.07865652,0.5762937,9.789386
34.80047655286534,31.261739233704954,0.0,0.0,11-11-53,-0.0030251592,-0.00467366,5.016327E-4,256.0,-3.380734,-0.43391362,9.918213E-4,-0.0013275146,6.1035156E-4,-0.07865652,0.5762937,9.789386
34.80047655286534,31.261739233704954,0.0,0.0,11-11-53,-0.0012060851,-0.006218314,-0.004989624,256.0,-3.3846688,-0.4372857,0.0014648438,-0.0017547607,7.6293945E-4,-0.076234415,0.5757426,9.789438
34.80047655286534,31.261739233704954,0.0,0.0,11-11-53,-0.0012060851,-0.006218314,-0.004989624,256.0,-3.389796,-0.43543726,0.0014648438,-0.0017547607,7.6293945E-4,-0.076234415,0.5757426,9.789438
34.80047655286534,31.261739233704954,0.0,0.0,11-11-53,-0.008584835,-0.0041490793,0.0016088486,256.0,-3.3911757,-0.4351012,0.0012817383,-0.0019073486,3.6621094E-4,-0.07682429,0.57647717,9.789391
34.80047655286534,31.261739233704954,0.0,0.0,11-11-54,-0.008584835,-0.0041490793,0.0016088486,256.0,-3.3932934,-0.4443371,0.0012817383,-0.0019073486,3.6621094E-4,-0.07682429,0.57647717,9.789391
34.80047655286534,31.261739233704954,0.0,0.0,11-11-54,-0.0076225474,-0.0030771494,-0.0012245178,256.0,-3.3942308,-0.44778273,0.0012054443,-0.0016174316,5.340576E-4,-0.0770721,0.57756954,9.789324
34.80047655286534,31.261739233704954,0.0,0.0,11-11-54,-0.0076225474,-0.0030771494,-0.0012245178,256.0,-3.3956573,-0.4498623,0.0012054443,-0.0016174316,5.340576E-4,-0.0770721,0.57756954,9.789324
34.80047655286534,31.261739233704954,0.0,0.0,11-11-54,-0.011700556,-0.0027207732,7.7438354E-4,256.0,-3.3929698,-0.45447055,0.0016174316,-0.0015411377,6.713867E-4,-0.07985926,0.57873666,9.789232
34.80047655286534,31.261739233704954,0.0,0.0,11-11-54,-0.011700556,-0.0027207732,7.7438354E-4,256.0,-3.3928573,-0.45366502,0.0016174316,-0.0015411377,6.713867E-4,-0.07985926,0.57873666,9.789232
34.80047655286534,31.261739233704954,0.0,0.0,11-11-54,-0.009100512,-0.0049661994,0.0065555573,256.0,-3.3984628,-0.45871338,0.0011138916,-0.0016937256,8.392334E-4,-0.08110788,0.57876575,9.789221
34.80047655286534,31.261739233704954,0.0,0.0,11-11-54,-0.009100512,-0.0049661994,0.0065555573,256.0,-3.4005377,-0.45557,0.0011138916,-0.0016937256,8.392334E-4,-0.08110788,0.57876575,9.789221
34.80047655286534,31.261739233704954,0.0,0.0,11-11-54,-0.0075579137,-0.0053927302,-2.9850006E-4,256.0,-3.4054804,-0.4537671,0.001663208,-0.0013427734,4.4250488E-4,-0.081821136,0.5788566,9.789209
34.80047655286534,31.261739233704954,0.0,0.0,11-11-54,-0.0075579137,-0.0053927302,-2.9850006E-4,256.0,-3.4063952,-0.44625095,0.001663208,-0.0013427734,4.4250488E-4,-0.081821136,0.5788566,9.789209
34.80047655286534,31.261739233704954,0.0,0.0,11-11-54,-0.0025064573,-0.0050899386,-4.043579E-4,256.0,-3.4010284,-0.44570288,0.0015563965,-0.0015258789,3.2043457E-4,-0.08022441,0.579513,9.789184
34.80047655286534,31.261739233704954,0.0,0.0,11-11-55,-0.0025064573,-0.0050899386,-4.043579E-4,256.0,-3.385741,-0.44540954,0.0015563965,-0.0015258789,3.2043457E-4,-0.08022441,0.579513,9.789184
34.80047655286534,31.261739233704954,0.0,0.0,11-11-55,-0.0017969534,-0.0042858124,7.648468E-4,256.0,-3.3785865,-0.43869555,8.239746E-4,-0.001373291,3.0517578E-4,-0.0781011,0.5797589,9.7891865
34.80047655286534,31.261739233704954,0.0,0.0,11-11-55,-0.0017969534,-0.0042858124,7.648468E-4,256.0,-3.3790557,-0.44957143,8.239746E-4,-0.001373291,3.0517578E-4,-0.0781011,0.5797589,9.7891865
34.80047655286534,31.261739233704954,0.0,0.0,11-11-55,-0.006990351,-0.0134372115,-0.006412506,256.0,-3.3784573,-0.44921163,0.0013122559,-0.0015258789,7.019043E-4,-0.07875819,0.57535756,9.78944
34.80047655286534,31.261739233704954,0.0,0.0,11-11-55,-0.006990351,-0.0134372115,-0.006412506,256.0,-3.3878038,-0.45202753,0.0013122559,-0.0015258789,7.019043E-4,-0.07875819,0.57535756,9.78944
34.80047655286534,31.261739233704954,0.0,0.0,11-11-55,-0.0066860616,-0.0040113926,0.0024023056,256.0,-3.382312,-0.44967088,0.0011291504,-0.0015106201,6.2561035E-4,-0.07917132,0.57587105,9.789407
34.80047655286534,31.261739233704954,0.0,0.0,11-11-55,-0.0066860616,-0.0040113926,0.0024023056,256.0,-3.3842714,-0.45084456,0.0011291504,-0.0015106201,6.2561035E-4,-0.07917132,0.57587105,9.789407
34.80047655286534,31.261739233704954,0.0,0.0,11-11-55,-0.0067404658,-0.002764523,0.002796173,256.0,-3.3822527,-0.4452555,0.0014648438,-0.0015411377,9.918213E-4,-0.07945404,0.5770204,9.789337
34.80047655286534,31.261739233704954,0.0,0.0,11-11-55,-0.0067404658,-0.002764523,0.002796173,256.0,-3.3849525,-0.4456243,0.0014648438,-0.0015411377,9.918213E-4,-0.07945404,0.5770204,9.789337
34.80047655286534,31.261739233704954,0.0,0.0,11-11-55,-0.0063978434,-0.008055687,-0.004473686,256.0,-3.386851,-0.4402631,0.0015563965,-0.0017242432,3.2043457E-4,-0.07934457,0.5759207,9.789403
34.80047655286534,31.261739233704954,0.0,0.0,11-11-56,-0.0063978434,-0.008055687,-0.004473686,256.0,-3.3867128,-0.43952918,0.0015563965,-0.0017242432,3.2043457E-4,-0.07934457,0.5759207,9.789403
34.80047655286534,31.261739233704954,0.0,0.0,11-11-56,-0.0048119724,-0.0045220256,-8.3065033E-4,256.0,-3.387818,-0.4410076,0.0011749268,-0.0014190674,6.1035156E-4,-0.078441575,0.57635045,9.789385
34.80047655286534,31.261739233704954,0.0,0.0,11-11-56,-0.0048119724,-0.0045220256,-8.3065033E-4,256.0,-3.3849213,-0.44589922,0.0011749268,-0.0014190674,6.1035156E-4,-0.078441575,0.57635045,9.789385
34.80047655286534,31.261739233704954,0.0,0.0,11-11-56,-0.0044616014,-0.0043738484,-0.0014257431,256.0,-3.3843908,-0.44741446,0.0010375977,-0.0010375977,3.6621094E-4,-0.07797927,0.5767199,9.789367
34.80047655286534,31.261739233704954,0.0,0.0,11-11-56,-0.0044616014,-0.0043738484,-0.0014257431,256.0,-3.39397,-0.4489402,0.0010375977,-0.0010375977,3.6621094E-4,-0.07797927,0.5767199,9.789367
34.80047655286534,31.261739233704954,0.0,0.0,11-11-56,-0.007066086,-0.003575325,0.012703896,256.0,-3.3956594,-0.45494995,0.0012664795,-0.0010986328,7.4768066E-4,-0.079353645,0.57698447,9.78934
34.80047655286534,31.261739233704954,0.0,0.0,11-11-56,-0.007066086,-0.003575325,0.012703896,256.0,-3.3906217,-0.4487944,0.0012664795,-0.0010986328,7.4768066E-4,-0.079353645,0.57698447,9.78934
34.80047655286534,31.261739233704954,0.0,0.0,11-11-56,-0.0052225664,-0.0015301108,0.006167412,256.0,-3.3912866,-0.44812417,0.0013427734,-0.0013885498,6.866455E-4,-0.079733886,0.57831526,9.789259
34.80047655286534,31.261739233704954,0.0,0.0,11-11-56,-0.0052225664,-0.0015301108,0.006167412,256.0,-3.3826985,-0.4450429,0.0013427734,-0.0013885498,6.866455E-4,-0.079733886,0.57831526,9.789259
34.80047655286534,31.261739233704954,0.0,0.0,11-11-56,-0.004159875,-0.0060871243,-7.4005127E-4,256.0,-3.3763347,-0.44881517,7.4768066E-4,-0.001739502,3.3569336E-4,-0.07879714,0.5775562,9.78931
34.80047655286534,31.261739233704954,0.0,0.0,11-11-57,-0.004159875,-0.0060871243,-7.4005127E-4,256.0,-3.3747067,-0.44629827,7.4768066E-4,-0.001739502,3.3569336E-4,-0.079093665,0.5764269,9.789375
34.80047655286534,31.261739233704954,0.0,0.0,11-11-57,-0.007441357,-0.006774366,-0.0023288727,256.0,-3.3756287,-0.44951388,0.001449585,-0.0015106201,3.3569336E-4,-0.079093665,0.5764269,9.789375
34.80047655286534,31.261739233704954,0.0,0.0,11-11-57,-0.0073545277,-0.0073695183,-9.069443E-4,256.0,-3.383413,-0.4479959,0.001449585,-0.0015106201,3.3569336E-4,-0.07977333,0.57540756,9.78943
34.80047655286534,31.261739233704954,0.0,0.0,11-11-57,-0.0073545277,-0.0073695183,-9.069443E-4,256.0,-3.3873324,-0.4442525,0.0010681152,-0.0019836426,4.119873E-4,-0.07977333,0.57540756,9.78943
34.80047655286534,31.261739233704954,0.0,0.0,11-11-57,-0.005807832,-0.004324317,0.00116539,256.0,-3.3845003,-0.44427884,0.0010681152,-0.0019836426,4.119873E-4,-0.07953348,0.57624656,9.789382
34.80047655286534,31.261739233704954,0.0,0.0,11-11-57,-0.005807832,-0.004324317,0.00116539,256.0,-3.388753,-0.44932187,0.0018463135,-8.239746E-4,3.8146973E-4,-0.07953348,0.57624656,9.789382
34.80047655286534,31.261739233704954,0.0,0.0,11-11-57,-0.0042269304,-0.005551696,-0.016274452,256.0,-3.3907952,-0.45406944,0.0018463135,-8.239746E-4,3.8146973E-4,-0.078687556,0.5766436,9.789366
34.80047655286534,31.261739233704954,0.0,0.0,11-11-57,-0.0042269304,-0.005551696,-0.016274452,256.0,-3.391168,-0.4524127,0.0012969971,-0.0016937256,2.4414063E-4,-0.078687556,0.5766436,9.789366
34.80047655286534,31.261739233704954,0.0,0.0,11-11-57,-0.008737229,-0.0021608472,0.0051822662,256.0,-3.394125,-0.45147502,0.0012969971,-0.0016937256,2.4414063E-4,-0.08031961,0.57785046,9.789281
34.80047655286534,31.261739233704954,0.0,0.0,11-11-58,-0.008737229,-0.0021608472,0.0051822662,256.0,-3.3953028,-0.4503605,0.0012969971,-0.0014801025,7.6293945E-4,-0.08031961,0.57785046,9.789281
34.80047655286534,31.261739233704954,0.0,0.0,11-11-58,-0.004484847,-0.0036929846,0.0059394836,256.0,-3.3953314,-0.45623422,0.0012969971,-0.0014801025,7.6293945E-4,-0.07979333,0.57885164,9.789227
34.80047655286534,31.261739233704954,0.0,0.0,11-11-58,-0.004484847,-0.0036929846,0.0059394836,256.0,-3.3965144,-0.46593636,0.0016021729,-0.0011291504,0.0011749268,-0.07979333,0.57885164,9.789227
34.80047655286534,31.261739233704954,0.0,0.0,11-11-58,-0.00850112,-0.006395161,6.427765E-4,256.0,-3.3969483,-0.46245006,0.0016021729,-0.0011291504,0.0011749268,-0.08147973,0.57857144,9.789228
34.80047655286534,31.261739233704954,0.0,0.0,11-11-58,-0.00850112,-0.006395161,6.427765E-4,256.0,-3.3973382,-0.46233442,0.0014953613,-0.0013580322,3.6621094E-4,-0.08147973,0.57857144,9.789228
34.80047655286534,31.261739233704954,0.0,0.0,11-11-58,-0.0065080523,-0.004339695,0.0064754486,256.0,-3.3954628,-0.45732433,0.0014953613,-0.0013580322,3.6621094E-4,-0.08188591,0.5790572,9.789197
34.80047655286534,31.261739233704954,0.0,0.0,11-11-58,-0.0065080523,-0.004339695,0.0064754486,256.0,-3.3933914,-0.46049312,0.0013122559,-0.0015106201,6.1035156E-4,-0.08188591,0.5790572,9.789197
34.80047655286534,31.261739233704954,0.0,0.0,11-11-58,-0.0042136237,-0.008632779,-0.008667946,256.0,-3.3891869,-0.46024656,0.0013122559,-0.0015106201,6.1035156E-4,-0.08114398,0.5781514,9.789257
34.80047655286534,31.261739233704954,0.0,0.0,11-11-58,-0.0042136237,-0.008632779,-0.008667946,256.0,-3.3898544,-0.45068264,0.0018463135,-0.0014953613,6.5612793E-4,-0.08114398,0.5781514,9.789257
34.80047655286534,31.261739233704954,0.0,0.0,11-11-58,-0.0064460635,-0.0072343946,0.0058193207,256.0,-3.3891368,-0.44591904,0.0018463135,-0.0014953613,6.5612793E-4,-0.08114731,0.57719815,9.789312
34.80047655286534,31.261739233704954,0.0,0.0,11-11-59,-0.0064460635,-0.0072343946,0.0058193207,256.0,-3.3874793,-0.45035854,0.0011901855,-0.0020141602,4.119873E-4,-0.08114731,0.57719815,9.789312
34.80047655286534,31.261739233704954,0.0,0.0,11-11-59,-0.0027421713,-0.0056803823,-8.716583E-4,256.0,-3.3767455,-0.445678,0.0011901855,-0.0020141602,4.119873E-4,-0.07880823,0.57723486,9.78933
34.80047655286534,31.261739233704954,0.0,0.0,11-11-59,-0.0027421713,-0.0056803823,-8.716583E-4,256.0,-3.3759592,-0.44906783,0.0015258789,-0.0014038086,4.5776367E-4,-0.07880823,0.57723486,9.78933
34.80047655286534,31.261739233704954,0.0,0.0,11-11-59,-0.0076655,-0.0099262,0.007836342,256.0,-3.3727312,-0.44687515,0.0015258789,-0.0014038086,4.5776367E-4,-0.079206966,0.57474744,9.789473
34.80047655286534,31.261739233704954,0.0,0.0,11-11-59,-0.0076655,-0.0099262,0.007836342,256.0,-3.3787477,-0.4477404,0.0010528564,-0.0019073486,7.7819824E-4,-0.079206966,0.57474744,9.789473
34.80047655286534,31.261739233704954,0.0,0.0,11-11-59,-0.006869644,-0.0059043765,-0.0016736984,256.0,-3.3723407,-0.44253233,0.0010528564,-0.0019073486,7.7819824E-4,-0.07941338,0.5743579,9.7894945
34.80047655286534,31.261739233704954,0.0,0.0,11-11-59,-0.006869644,-0.0059043765,-0.0016736984,256.0,-3.3794937,-0.4519095,0.0014038086,-0.0012359619,1.9836426E-4,-0.07941338,0.5743579,9.7894945
34.80047655286534,31.261739233704954,0.0,0.0,11-11-59,-0.0051012263,-0.0054282546,-0.0057878494,256.0,-3.3732085,-0.45043528,0.0014038086,-0.0012359619,1.9836426E-4,-0.078832164,0.5745303,9.789489
34.80047655286534,31.261739233704954,0.0,0.0,11-11-59,-0.0051012263,-0.0054282546,-0.0057878494,256.0,-3.3855703,-0.45208207,0.001373291,-0.0016174316,7.4768066E-4,-0.078832164,0.5745303,9.789489
34.80047655286534,31.261739233704954,0.0,0.0,11-11-59,-0.008598983,-0.0055336356,-0.008522034,256.0,-3.382822,-0.45639557,0.001373291,-0.0016174316,7.4768066E-4,-0.080358826,0.5748886,9.789454
34.80047655286534,31.261739233704954,0.0,0.0,11-12-00,-0.008598983,-0.0055336356,-0.008522034,256.0,-3.3890398,-0.45078427,0.0015411377,-0.0014648438,5.340576E-4,-0.080358826,0.5748886,9.789454
34.80047655286534,31.261739233704954,0.0,0.0,11-12-00,-0.0073446333,-0.0015637279,0.0074310303,256.0,-3.3853252,-0.45443228,0.0015411377,-0.0014648438,5.340576E-4,-0.08108689,0.5768761,9.789332
34.80047655286534,31.261739233704954,0.0,0.0,11-12-00,-0.0073446333,-0.0015637279,0.0074310303,256.0,-3.388153,-0.45070168,0.0014343262,-0.0018157959,8.69751E-4,-0.08108689,0.5768761,9.789332
34.80047655286534,31.261739233704954,0.0,0.0,11-12-00,-0.005393468,-0.005182922,9.899139E-4,256.0,-3.3877044,-0.45257849,0.0014343262,-0.0018157959,8.69751E-4,-0.08031199,0.57690305,9.789337
34.80047655286534,31.261739233704954,0.0,0.0,11-12-00,-0.005393468,-0.005182922,9.899139E-4,256.0,-3.3809395,-0.45246845,8.239746E-4,-0.0016479492,9.0026855E-4,-0.08031199,0.57690305,9.789337
34.80047655286534,31.261739233704954,0.0,0.0,11-12-00,-0.0068684965,-0.0033800006,-2.2983551E-4,256.0,-3.380637,-0.45283446,8.239746E-4,-0.0016479492,9.0026855E-4,-0.08037891,0.57712287,9.789324
34.80047655286534,31.261739233704954,0.0,0.0,11-12-00,-0.0068684965,-0.0033800006,-2.2983551E-4,256.0,-3.3785655,-0.45213616,9.765625E-4,-0.0014038086,3.3569336E-4,-0.08037891,0.57712287,9.789324
34.80047655286534,31.261739233704954,0.0,0.0,11-12-00,-0.0048860908,-0.0049652457,0.0019721985,256.0,-3.376331,-0.4557421,9.765625E-4,-0.0014038086,3.3569336E-4,-0.07997822,0.5765278,9.789362
34.80047655286534,31.261739233704954,0.0,0.0,11-12-00,-0.0048860908,-0.0049652457,0.0019721985,256.0,-3.3758106,-0.45537433,0.0014648438,-0.0012207031,5.340576E-4,-0.07997822,0.5765278,9.789362
34.80047655286534,31.261739233704954,0.0,0.0,11-12-00,-0.0075460896,-0.0069603324,0.002822876,256.0,-3.3761792,-0.4578688,0.0014648438,-0.0012207031,5.340576E-4,-0.08111053,0.5754861,9.789413
34.80047655286534,31.261739233704954,0.0,0.0,11-12-01,-0.0075460896,-0.0069603324,0.002822876,256.0,-3.3817554,-0.4590447,0.0011138916,-0.0013885498,6.5612793E-4,-0.08111053,0.5754861,9.789413
34.80047655286534,31.261739233704954,0.0,0.0,11-12-01,-0.005292304,-0.004656732,0.0067300797,256.0,-3.3903818,-0.45875868,0.0011138916,-0.0013885498,6.5612793E-4,-0.0808381,0.57560015,9.78941
34.80047655286534,31.261739233704954,0.0,0.0,11-12-01,-0.005292304,-0.004656732,0.0067300797,256.0,-3.3845606,-0.45309168,0.0014038086,-0.0016937256,8.392334E-4,-0.0808381,0.57560015,9.78941
34.80047655286534,31.261739233704954,0.0,0.0,11-12-01,-0.0072750524,-3.4838915E-4,-9.0408325E-4,256.0,-3.3800335,-0.45593333,0.0014038086,-0.0016937256,8.392334E-4,-0.081355564,0.5779588,9.789266
34.80047655286534,31.261739233704954,0.0,0.0,11-12-01,-0.0072750524,-3.4838915E-4,-9.0408325E-4,256.0,-3.378036,-0.45469502,0.0013122559,-0.0015106201,8.544922E-4,-0.081355564,0.5779588,9.789266
34.80047655286534,31.261739233704954,0.0,0.0,11-12-01,-0.0044117793,-0.009396672,-7.572174E-4,256.0,-3.379082,-0.45175332,0.0013122559,-0.0015106201,8.544922E-4,-0.08066127,0.57600373,9.789387
34.80047655286534,31.261739233704954,0.0,0.0,11-12-01,-0.0044117793,-0.009396672,-7.572174E-4,256.0,-3.376221,-0.44723275,0.0012969971,-0.0014038086,6.2561035E-4,-0.08066127,0.57600373,9.789387
34.80047655286534,31.261739233704954,0.0,0.0,11-12-01,-0.0048354715,-0.00607121,0.0042734146,256.0,-3.383418,-0.44595098,0.0012969971,-0.0014038086,6.2561035E-4,-0.080105536,0.5755429,9.789419
34.80047655286534,31.261739233704954,0.0,0.0,11-12-01,-0.0048354715,-0.00607121,0.0042734146,256.0,-3.3846698,-0.4473134,0.001373291,-0.001449585,8.239746E-4,-0.080105536,0.5755429,9.789419
34.80047655286534,31.261739233704954,0.0,0.0,11-12-01,-0.0030748919,-0.0046893954,1.5258789E-4,256.0,-3.385857,-0.45068568,0.001373291,-0.001449585,8.239746E-4,-0.078436874,0.5757033,9.789423
34.80047655286534,31.261739233704954,0.0,0.0,11-12-02,-0.0030748919,-0.0046893954,1.5258789E-4,256.0,-3.3839126,-0.4495252,0.0012664795,-0.0016326904,6.4086914E-4,-0.078436874,0.5757033,9.789423
34.80047655286534,31.261739233704954,0.0,0.0,11-12-02,-0.009321153,-0.0025367737,-0.002524376,256.0,-3.3823912,-0.452359,0.0012664795,-0.0016326904,6.4086914E-4,-0.079920635,0.57695454,9.789337
34.80047655286534,31.261739233704954,0.0,0.0,11-12-02,-0.009321153,-0.0025367737,-0.002524376,256.0,-3.37981,-0.4470611,0.001083374,-0.0013885498,0.0010223389,-0.079920635,0.57695454,9.789337
34.80047655286534,31.261739233704954,0.0,0.0,11-12-02,-0.0071107596,-0.007125497,0.0038795471,256.0,-3.3823395,-0.4475422,0.001083374,-0.0013885498,0.0010223389,-0.08056824,0.5757318,9.789404
34.80047655286534,31.261739233704954,0.0,0.0,11-12-02,-0.0071107596,-0.007125497,0.0038795471,256.0,-3.3872066,-0.44404346,0.0014190674,-0.0014190674,6.713867E-4,-0.08056824,0.5757318,9.789404
34.80047655286534,31.261739233704954,0.0,0.0,11-12-02,-0.0015196726,-0.004058838,-0.0033569336,256.0,-3.3905318,-0.4503177,0.0014190674,-0.0014190674,6.713867E-4,-0.07856695,0.5764547,9.789377
34.80047655286534,31.261739233704954,0.0,0.0,11-12-02,-0.0015196726,-0.004058838,-0.0033569336,256.0,-3.3829396,-0.44824177,0.0013427734,-0.0012512207,8.239746E-4,-0.07856695,0.5764547,9.789377
34.80047655286534,31.261739233704954,0.0,0.0,11-12-02,-0.006306812,-0.0022776127,-0.0052423477,256.0,-3.3840213,-0.442741,0.0013427734,-0.0012512207,8.239746E-4,-0.07927135,0.57803214,9.789279
34.80047655286534,31.261739233704954,0.0,0.0,11-12-02,-0.006306812,-0.0022776127,-0.0052423477,256.0,-3.389895,-0.43718168,9.1552734E-4,-0.001159668,4.4250488E-4,-0.07927135,0.57803214,9.789279
34.80047655286534,31.261739233704954,0.0,0.0,11-12-02,-0.0049649924,-0.0070436597,0.0049819946,256.0,-3.3939302,-0.4394239,9.1552734E-4,-0.001159668,4.4250488E-4,-0.07928221,0.57660556,9.789363
34.80047655286534,31.261739233704954,0.0,0.0,11-12-03,-0.0049649924,-0.0070436597,0.0049819946,256.0,-3.3961391,-0.44105598,0.0013427734,-0.0012512207,4.119873E-4,-0.07928221,0.57660556,9.789363
34.80047655286534,31.261739233704954,0.0,0.0,11-12-03,-7.033646E-4,-3.607273E-4,-0.0013580322,256.0,-3.4037788,-0.43822056,0.0013427734,-0.0012512207,4.119873E-4,-0.07702827,0.5788644,9.7892475
34.80047655286534,31.261739233704954,0.0,0.0,11-12-03,-7.033646E-4,-3.607273E-4,-0.0013580322,256.0,-3.3983297,-0.44503844,0.0014038086,-0.0012817383,8.69751E-4,-0.07702827,0.5788644,9.7892475
34.80047655286534,31.261739233704954,0.0,0.0,11-12-03,-0.006786719,-0.0038388968,0.005701065,256.0,-3.3994496,-0.44710124,0.0014038086,-0.0012817383,8.69751E-4,-0.077947125,0.5795474,9.7892
34.80047655286534,31.261739233704954,0.0,0.0,11-12-03,-0.006786719,-0.0038388968,0.005701065,256.0,-3.4007797,-0.44522262,0.0012969971,-0.0011749268,7.4768066E-4,-0.077947125,0.5795474,9.7892
34.80047655286534,31.261739233704954,0.0,0.0,11-12-03,-0.00531929,-0.006334126,-9.57489E-4,256.0,-3.388379,-0.44776177,0.0012969971,-0.0011749268,7.4768066E-4,-0.078226335,0.57888377,9.789237
34.80047655286534,31.261739233704954,0.0,0.0,11-12-03,-0.00531929,-0.006334126,-9.57489E-4,256.0,-3.394708,-0.44886336,0.0012664795,-9.918213E-4,4.8828125E-4,-0.078226335,0.57888377,9.789237
34.80047655286534,31.261739233704954,0.0,0.0,11-12-03,-0.006498553,-0.0048927665,0.0046024323,256.0,-3.399292,-0.4513465,0.0012664795,-9.918213E-4,4.8828125E-4,-0.07915525,0.5787346,9.789238
34.80047655286534,31.261739233704954,0.0,0.0,11-12-03,-0.006498553,-0.0048927665,0.0046024323,256.0,-3.3994887,-0.4484726,0.0012207031,-0.0017700195,4.8828125E-4,-0.07915525,0.5787346,9.789238
34.80047655286534,31.261739233704954,0.0,0.0,11-12-03,-0.0064001605,-0.0049575567,-0.0021514893,256.0,-3.3999166,-0.44568533,0.0012207031,-0.0017700195,4.8828125E-4,-0.07960908,0.5789891,9.78922
34.80047655286534,31.261739233704954,0.0,0.0,11-12-04,-0.0064001605,-0.0049575567,-0.0021514893,256.0,-3.399536,-0.44259584,0.0014648438,-0.0016326904,9.3078613E-4,-0.07960908,0.5789891,9.78922
34.80047655286534,31.261739233704954,0.0,0.0,11-12-04,-0.0051588416,-0.0044841766,-9.5272064E-4,256.0,-3.4040465,-0.44227794,0.0014648438,-0.0016326904,9.3078613E-4,-0.07884959,0.5793851,9.789203
34.80047655286534,31.261739233704954,0.0,0.0,11-12-04,-0.0051588416,-0.0044841766,-9.5272064E-4,256.0,-3.4025207,-0.4457463,0.0012054443,-0.0013580322,7.324219E-4,-0.07884959,0.5793851,9.789203
34.80047655286534,31.261739233704954,0.0,0.0,11-12-04,-0.0053453,-0.0052779913,-0.0024576187,256.0,-3.4012213,-0.44912004,0.0012054443,-0.0013580322,7.324219E-4,-0.078434564,0.5795404,9.789197
34.80047655286534,31.261739233704954,0.0,0.0,11-12-04,-0.0053453,-0.0052779913,-0.0024576187,256.0,-3.4038408,-0.4497572,0.0015716553,-0.0012512207,5.340576E-4,-0.078434564,0.5795404,9.789197
34.80047655286534,31.261739233704954,0.0,0.0,11-12-04,-0.006949924,-0.004886985,-0.0012140274,256.0,-3.4095862,-0.45334098,0.0015716553,-0.0012512207,5.340576E-4,-0.07920751,0.5800108,9.789163
34.80047655286534,31.261739233704954,0.0,0.0,11-12-04,-0.006949924,-0.004886985,-0.0012140274,256.0,-3.4089637,-0.45298997,0.0013122559,-0.0012512207,5.493164E-4,-0.07920751,0.5800108,9.789163
34.80047655286534,31.261739233704954,0.0,0.0,11-12-04,-0.005633004,-0.0036386847,0.0026960373,256.0,-3.4047105,-0.4477863,0.0013122559,-0.0012512207,5.493164E-4,-0.07932276,0.5809509,9.789105
34.80047655286534,31.261739233704954,0.0,0.0,11-12-04,-0.005633004,-0.0036386847,0.0026960373,256.0,-3.390929,-0.44484743,0.0012664795,-0.0014190674,5.187988E-4,-0.07932276,0.5809509,9.789105
34.80047655286534,31.261739233704954,0.0,0.0,11-12-04,-0.0068448186,-0.0080804825,-0.0018501282,256.0,-3.3945832,-0.43583995,0.0012664795,-0.0014190674,5.187988E-4,-0.08001974,0.5795249,9.789185
34.80047655286534,31.261739233704954,0.0,0.0,11-12-05,-0.0068448186,-0.0080804825,-0.0018501282,256.0,-3.391117,-0.4283673,0.0014953613,-0.001449585,5.79834E-4,-0.08001974,0.5795249,9.789185
34.80047655286534,31.261739233704954,0.0,0.0,11-12-05,-6.285906E-4,-0.009410083,-0.002251625,256.0,-3.3877351,-0.42459026,0.0014953613,-0.001449585,5.79834E-4,-0.07747101,0.5776164,9.789318
34.80047655286534,31.261739233704954,0.0,0.0,11-12-05,-6.285906E-4,-0.009410083,-0.002251625,256.0,-3.3891766,-0.42944917,0.001159668,-0.001373291,5.950928E-4,-0.07747101,0.5776164,9.789318
34.80047655286534,31.261739233704954,0.0,0.0,11-12-05,-0.0015181229,-0.005129814,0.0028009415,256.0,-3.3974154,-0.4321633,0.001159668,-0.001373291,5.950928E-4,-0.07540431,0.57767147,9.7893305
34.80047655286534,31.261739233704954,0.0,0.0,11-12-05,-0.0015181229,-0.005129814,0.0028009415,256.0,-3.3991518,-0.4342595,0.0013275146,-0.0014648438,0.0010223389,-0.07540431,0.57767147,9.7893305
34.80047655286534,31.261739233704954,0.0,0.0,11-12-05,-0.00677073,-0.0048257113,-5.1116943E-4,256.0,-3.4038951,-0.4383219,0.0013275146,-0.0014648438,0.0010223389,-0.07609782,0.5777395,9.789322
34.80047655286534,31.261739233704954,0.0,0.0,11-12-05,-0.00677073,-0.0048257113,-5.1116943E-4,256.0,-3.4076242,-0.43768775,0.0015563965,-0.0011749268,9.3078613E-4,-0.07609782,0.5777395,9.789322
34.80047655286534,31.261739233704954,0.0,0.0,11-12-05,-0.008358397,-0.0017401576,-0.0013494492,256.0,-3.4083776,-0.44606328,0.0015563965,-0.0011749268,9.3078613E-4,-0.0775966,0.579799,9.789187
34.80047655286534,31.261739233704954,0.0,0.0,11-12-05,-0.008358397,-0.0017401576,-0.0013494492,256.0,-3.4158351,-0.43490332,0.0015563965,-0.0011749268,9.3078613E-4,-0.0775966,0.579799,9.789187
34.80047655286534,31.261739233704954,0.0,0.0,11-12-05,-0.0065777823,-0.004529774,0.0032491684,256.0,-3.4185252,-0.43629634,0.0015563965,-0.0012664795,6.866455E-4,-0.0782743,0.580583,9.789136
34.80047655286534,31.261739233704954,0.0,0.0,11-12-06,-0.0065777823,-0.004529774,0.0032491684,256.0,-3.411697,-0.43852448,0.0015563965,-0.0012664795,6.866455E-4,-0.0782743,0.580583,9.789136
34.80047655286534,31.261739233704954,0.0,0.0,11-12-06,-0.0025100037,-0.0027700663,-7.46727E-4,256.0,-3.3992572,-0.44113493,0.0013580322,-0.001373291,6.5612793E-4,-0.07700389,0.5820378,9.78906
34.80047655286534,31.261739233704954,0.0,0.0,11-12-06,-0.0025100037,-0.0027700663,-7.46727E-4,256.0,-3.396872,-0.44558737,0.0013580322,-0.001373291,6.5612793E-4,-0.07700389,0.5820378,9.78906
34.80047655286534,31.261739233704954,0.0,0.0,11-12-06,-0.0078039467,-0.0069714785,0.0037145615,256.0,-3.3960466,-0.44705603,0.0011444092,-0.0015258789,3.3569336E-4,-0.07800266,0.5809185,9.789118
34.80047655286534,31.261739233704954,0.0,0.0,11-12-06,-0.0078039467,-0.0069714785,0.0037145615,256.0,-3.3957515,-0.4523308,0.0011444092,-0.0015258789,3.3569336E-4,-0.07800266,0.5809185,9.789118
34.80047655286534,31.261739233704954,0.0,0.0,11-12-06,-0.008644253,-0.010430872,8.945465E-4,256.0,-3.400664,-0.4486876,0.0015258789,-0.0016021729,3.6621094E-4,-0.07916207,0.57832396,9.789263
34.80047655286534,31.261739233704954,0.0,0.0,11-12-06,-0.008644253,-0.010430872,8.945465E-4,256.0,-3.390607,-0.4450483,0.0015258789,-0.0016021729,3.6621094E-4,-0.07916207,0.57832396,9.789263
34.80047655286534,31.261739233704954,0.0,0.0,11-12-06,-0.007072419,-0.007871032,0.0011034012,256.0,-3.393877,-0.44580677,0.0016174316,-9.765625E-4,8.239746E-4,-0.0801251,0.5775378,9.789301
34.80047655286534,31.261739233704954,0.0,0.0,11-12-06,-0.007072419,-0.007871032,0.0011034012,256.0,-3.4017444,-0.4454303,0.0016174316,-9.765625E-4,8.239746E-4,-0.0801251,0.5775378,9.789301
34.80047655286534,31.261739233704954,0.0,0.0,11-12-06,-0.0025701225,-0.00708884,-5.760193E-4,256.0,-3.4023237,-0.44129896,0.0018005371,-0.0015258789,7.019043E-4,-0.07881725,0.5775018,9.789314
34.80047655286534,31.261739233704954,0.0,0.0,11-12-07,-0.004752539,-0.0019370914,-0.004102707,256.0,-3.3970268,-0.444187,8.544922E-4,-0.0016174316,6.2561035E-4,-0.078093916,0.5792438,9.789217
34.80047655286534,31.261739233704954,0.0,0.0,11-12-07,-0.004752539,-0.0019370914,-0.004102707,256.0,-3.4017482,-0.44309008,8.544922E-4,-0.0016174316,6.2561035E-4,-0.078093916,0.5792438,9.789217
34.80047655286534,31.261739233704954,0.0,0.0,11-12-07,-0.0070279166,-0.0038930178,0.008769989,256.0,-3.4051344,-0.44353288,8.544922E-4,-0.0016174316,6.2561035E-4,-0.0785109,0.5795089,9.789198
34.80047655286534,31.261739233704954,0.0,0.0,11-12-07,-0.0070279166,-0.0038930178,0.008769989,256.0,-3.3992136,-0.44174656,0.001663208,-0.0014648438,3.2043457E-4,-0.0785109,0.5795089,9.789198
34.80047655286534,31.261739233704954,0.0,0.0,11-12-07,-0.0054104477,-0.0069639683,-0.009054184,256.0,-3.404797,-0.44378722,0.001663208,-0.0014648438,3.2043457E-4,-0.07838217,0.57906324,9.789225
34.80047655286534,31.261739233704954,0.0,0.0,11-12-07,-0.0054104477,-0.0069639683,-0.009054184,256.0,-3.4055264,-0.44143435,0.0011138916,-0.0014648438,5.493164E-4,-0.07838217,0.57906324,9.789225
34.80047655286534,31.261739233704954,0.0,0.0,11-12-07,-0.0039827228,-0.0030437708,-0.0026216507,256.0,-3.3989375,-0.44675395,0.0012817383,-0.0014953613,3.3569336E-4,-0.07745071,0.57997555,9.789179
34.80047655286534,31.261739233704954,0.0,0.0,11-12-07,-0.0039827228,-0.0030437708,-0.0026216507,256.0,-3.3950617,-0.44281164,0.0012817383,-0.0014953613,3.3569336E-4,-0.07745071,0.57997555,9.789179
34.80047655286534,31.261739233704954,0.0,0.0,11-12-07,-0.009895109,-0.006988585,0.00603199,256.0,-3.3964775,-0.4457997,0.0012817383,-0.0014953613,3.3569336E-4,-0.079232186,0.5790023,9.789222
34.80047655286534,31.261739233704954,0.0,0.0,11-12-07,-0.009895109,-0.006988585,0.00603199,256.0,-3.3952267,-0.4383556,0.0014190674,-0.0015716553,8.392334E-4,-0.079232186,0.5790023,9.789222
34.80047655286534,31.261739233704954,0.0,0.0,11-12-08,-0.004392229,-0.005744159,0.0038003922,256.0,-3.3980258,-0.43485498,0.0014190674,-0.0015716553,8.392334E-4,-0.0783075,0.5788469,9.789239
34.80047655286534,31.261739233704954,0.0,0.0,11-12-08,-0.004392229,-0.005744159,0.0038003922,256.0,-3.396411,-0.4325334,0.0014038086,-0.0015716553,7.019043E-4,-0.0783075,0.5788469,9.789239
34.80047655286534,31.261739233704954,0.0,0.0,11-12-08,-0.0016031936,-0.0043931603,0.0027160645,256.0,-3.3988013,-0.42993876,0.0014038086,-0.0015716553,7.019043E-4,-0.07600144,0.5795513,9.789215
34.80047655286534,31.261739233704954,0.0,0.0,11-12-08,-0.0016031936,-0.0043931603,0.0027160645,256.0,-3.39564,-0.4226332,0.0015869141,-0.0015563965,6.713867E-4,-0.07600144,0.5795513,9.789215
34.80047655286534,31.261739233704954,0.0,0.0,11-12-08,-0.0064446405,-0.0076821446,-4.644394E-4,256.0,-3.3907824,-0.4239076,0.0015869141,-0.0015563965,6.713867E-4,-0.076030575,0.57883054,9.789257
34.80047655286534,31.261739233704954,0.0,0.0,11-12-08,-0.0064446405,-0.0076821446,-4.644394E-4,256.0,-3.3912694,-0.4283748,0.0015258789,-0.0016174316,6.2561035E-4,-0.076030575,0.57883054,9.789257
34.80047655286534,31.261739233704954,0.0,0.0,11-12-08,-0.004345186,-0.010111749,-0.0019636154,256.0,-3.3897178,-0.42794645,0.0015258789,-0.0016174316,6.2561035E-4,-0.0750684,0.57671976,9.78939
34.80047655286534,31.261739233704954,0.0,0.0,11-12-08,-0.004345186,-0.010111749,-0.0019636154,256.0,-3.3915653,-0.42283598,0.0013885498,-0.0015411377,6.713867E-4,-0.0750684,0.57671976,9.78939
34.80047655286534,31.261739233704954,0.0,0.0,11-12-08,-0.006907746,-0.004896581,8.506775E-4,256.0,-3.3886113,-0.4288758,0.0013885498,-0.0015411377,6.713867E-4,-0.075474344,0.57706726,9.789366
34.80047655286534,31.261739233704954,0.0,0.0,11-12-08,-0.006907746,-0.004896581,8.506775E-4,256.0,-3.38525,-0.4232562,0.0013275146,-0.0015106201,7.324219E-4,-0.075474344,0.57706726,9.789366
34.80047655286534,31.261739233704954,0.0,0.0,11-12-09,-0.007626638,-0.007818222,-0.0026817322,256.0,-3.3825803,-0.42237025,0.0013275146,-0.0015106201,7.324219E-4,-0.07605778,0.57592654,9.789429
34.80047655286534,31.261739233704954,0.0,0.0,11-12-09,-0.007626638,-0.007818222,-0.0026817322,256.0,-3.3897734,-0.42914832,0.0013427734,-0.0017242432,5.187988E-4,-0.07605778,0.57592654,9.789429
34.80047655286534,31.261739233704954,0.0,0.0,11-12-09,-0.0047557056,-0.004576504,2.1076202E-4,256.0,-3.3886034,-0.42740437,0.0013427734,-0.0017242432,5.187988E-4,-0.07526033,0.57625234,9.789415
34.80047655286534,31.261739233704954,0.0,0.0,11-12-09,-0.0047557056,-0.004576504,2.1076202E-4,256.0,-3.3899882,-0.4295015,0.001449585,-0.0014038086,3.5095215E-4,-0.07526033,0.57625234,9.789415
34.80047655286534,31.261739233704954,0.0,0.0,11-12-09,-0.0072455406,-0.003512621,0.00253582,256.0,-3.3912477,-0.4351503,0.001449585,-0.0014038086,3.5095215E-4,-0.07583713,0.5772587,9.789352
34.80047655286534,31.261739233704954,0.0,0.0,11-12-09,-0.0072455406,-0.003512621,0.00253582,256.0,-3.3972692,-0.4366193,0.0013275146,-0.0015716553,6.5612793E-4,-0.07583713,0.5772587,9.789352
34.80047655286534,31.261739233704954,0.0,0.0,11-12-09,-0.009053826,-0.00514555,-0.003692627,256.0,-3.3972018,-0.44059375,0.0013275146,-0.0015716553,6.5612793E-4,-0.07759506,0.5774484,9.789327
34.80047655286534,31.261739233704954,0.0,0.0,11-12-09,-0.009053826,-0.00514555,-0.003692627,256.0,-3.397592,-0.4366695,0.0012664795,-0.0011444092,3.0517578E-4,-0.07759506,0.5774484,9.789327
34.80047655286534,31.261739233704954,0.0,0.0,11-12-09,-0.0062322468,-0.0021753907,-0.001909256,256.0,-3.3983772,-0.4351859,0.0012664795,-0.0011444092,3.0517578E-4,-0.07793359,0.5789302,9.789237
34.80047655286534,31.261739233704954,0.0,0.0,11-12-09,-0.0062322468,-0.0021753907,-0.001909256,256.0,-3.4018362,-0.4383964,0.001373291,-0.0015716553,5.493164E-4,-0.07793359,0.5789302,9.789237
34.80047655286534,31.261739233704954,0.0,0.0,11-12-10,-0.004407659,-0.0045586824,0.0029411316,256.0,-3.4025223,-0.4359674,0.001373291,-0.0015716553,5.493164E-4,-0.077252574,0.5790806,9.789233
34.80047655286534,31.261739233704954,0.0,0.0,11-12-10,-0.004407659,-0.0045586824,0.0029411316,256.0,-3.4010222,-0.43665132,0.0011138916,-0.0014038086,4.119873E-4,-0.077252574,0.5790806,9.789233
34.80047655286534,31.261739233704954,0.0,0.0,11-12-10,-0.0055939183,-0.0030569434,-0.0015249252,256.0,-3.410909,-0.43704048,0.0011138916,-0.0014038086,4.119873E-4,-0.077262916,0.5801188,9.789171
34.80047655286534,31.261739233704954,0.0,0.0,11-12-10,-0.0055939183,-0.0030569434,-0.0015249252,256.0,-3.403451,-0.43970305,0.0014190674,-0.0014648438,7.4768066E-4,-0.077262916,0.5801188,9.789171
34.80047655286534,31.261739233704954,0.0,0.0,11-12-10,-0.00635653,-0.002352655,0.004385948,256.0,-3.406016,-0.434352,0.0014190674,-0.0014648438,7.4768066E-4,-0.07730689,0.58130366,9.789101
34.80047655286534,31.261739233704954,0.0,0.0,11-12-10,-0.00635653,-0.002352655,0.004385948,256.0,-3.404896,-0.43856812,0.0011291504,-0.0017852783,6.2561035E-4,-0.07730689,0.58130366,9.789101
34.80047655286534,31.261739233704954,0.0,0.0,11-12-10,-0.00615938,-0.0067956448,0.0036344528,256.0,-3.4015386,-0.43174788,0.0011291504,-0.0017852783,6.2561035E-4,-0.07690068,0.5803052,9.789164
34.80047655286534,31.261739233704954,0.0,0.0,11-12-10,-0.00615938,-0.0067956448,0.0036344528,256.0,-3.4123168,-0.443671,0.0012512207,-0.0017700195,5.79834E-4,-0.07690068,0.5803052,9.789164
34.80047655286534,31.261739233704954,0.0,0.0,11-12-10,-0.007236369,-0.0069330335,-8.8500977E-4,256.0,-3.4116786,-0.44570276,0.0012512207,-0.0017700195,5.79834E-4,-0.076911785,0.5798888,9.789188
34.80047655286534,31.261739233704954,0.0,0.0,11-12-10,-0.007236369,-0.0069330335,-8.8500977E-4,256.0,-3.410272,-0.45105147,0.0018920898,-0.001663208,4.8828125E-4,-0.076911785,0.5798888,9.789188
34.80047655286534,31.261739233704954,0.0,0.0,11-12-11,-0.012282088,-0.0018562675,0.002049446,256.0,-3.4151626,-0.45796406,0.0018920898,-0.001663208,4.8828125E-4,-0.07991086,0.58199096,9.78904
34.80047655286534,31.261739233704954,0.0,0.0,11-12-11,-0.012282088,-0.0018562675,0.002049446,256.0,-3.4140265,-0.45734197,0.0012817383,-0.0012054443,8.392334E-4,-0.07991086,0.58199096,9.78904
34.80047655286534,31.261739233704954,0.0,0.0,11-12-11,-0.008274019,-0.0067101717,-0.0025177002,256.0,-3.407883,-0.45556754,0.0012817383,-0.0012054443,8.392334E-4,-0.08129039,0.5812159,9.789074
34.80047655286534,31.261739233704954,0.0,0.0,11-12-11,-0.008274019,-0.0067101717,-0.0025177002,256.0,-3.4135797,-0.4490805,0.0010223389,-0.0014648438,5.493164E-4,-0.08129039,0.5812159,9.789074
34.80047655286534,31.261739233704954,0.0,0.0,11-12-11,-0.004494168,-0.005884409,-0.005870819,256.0,-3.4118972,-0.44468677,0.0010223389,-0.0014648438,5.493164E-4,-0.08046621,0.5811687,9.7890835
34.80047655286534,31.261739233704954,0.0,0.0,11-12-11,-0.004494168,-0.005884409,-0.005870819,256.0,-3.4043646,-0.43924496,0.0016174316,-0.001739502,7.019043E-4,-0.08046621,0.5811687,9.7890835
34.80047655286534,31.261739233704954,0.0,0.0,11-12-11,-0.004495837,-0.004738033,-0.0015077591,256.0,-3.4063294,-0.4423479,0.0016174316,-0.001739502,7.019043E-4,-0.079656586,0.5819727,9.789042
34.80047655286534,31.261739233704954,0.0,0.0,11-12-11,-0.004495837,-0.004738033,-0.0015077591,256.0,-3.4067078,-0.44913805,0.0017242432,-0.0012664795,5.187988E-4,-0.079656586,0.5819727,9.789042
34.80047655286534,31.261739233704954,0.0,0.0,11-12-11,-0.0021303967,-0.010067046,-0.0012979507,256.0,-3.396962,-0.45090714,0.0017242432,-0.0012664795,5.187988E-4,-0.078109615,0.57999355,9.789172
34.80047655286534,31.261739233704954,0.0,0.0,11-12-11,-0.0021303967,-0.010067046,-0.0012979507,256.0,-3.4040442,-0.4494323,0.0014038086,-0.0013427734,6.713867E-4,-0.078109615,0.57999355,9.789172
34.80047655286534,31.261739233704954,0.0,0.0,11-12-12,-0.009463102,-0.0071647167,9.6321106E-5,256.0,-3.3969269,-0.4520022,0.0014038086,-0.0013427734,6.713867E-4,-0.079928786,0.57901657,9.789215
34.80047655286534,31.261739233704954,0.0,0.0,11-12-12,-0.009463102,-0.0071647167,9.6321106E-5,256.0,-3.3993254,-0.44943395,0.0010681152,-0.0014801025,6.866455E-4,-0.079928786,0.57901657,9.789215
34.80047655286534,31.261739233704954,0.0,0.0,11-12-12,-0.007094696,-0.0047561526,-1.335144E-5,256.0,-3.4079556,-0.44102085,0.0010681152,-0.0014801025,6.866455E-4,-0.08026511,0.57923716,9.7892
34.80047655286534,31.261739233704954,0.0,0.0,11-12-12,-0.007094696,-0.0047561526,-1.335144E-5,256.0,-3.415314,-0.44116828,0.0017089844,-0.0018920898,9.765625E-4,-0.08026511,0.57923716,9.7892
34.80047655286534,31.261739233704954,0.0,0.0,11-12-12,-0.0040379614,-0.005284548,-0.0016565323,256.0,-3.417429,-0.4401744,0.0017089844,-0.0018920898,9.765625E-4,-0.07882852,0.5794541,9.789198
34.80047655286534,31.261739233704954,0.0,0.0,11-12-12,-0.0040379614,-0.005284548,-0.0016565323,256.0,-3.4191723,-0.4356973,0.0010223389,-0.0018157959,6.4086914E-4,-0.07882852,0.5794541,9.789198
34.80047655286534,31.261739233704954,0.0,0.0,11-12-12,-0.00487116,4.2623281E-4,0.0015087128,256.0,-3.4209187,-0.43808916,0.0010223389,-0.0018157959,6.4086914E-4,-0.07763565,0.58212155,9.78905
34.80047655286534,31.261739233704954,0.0,0.0,11-12-12,-0.00487116,4.2623281E-4,0.0015087128,256.0,-3.413992,-0.4385546,0.001449585,-0.0014801025,7.171631E-4,-0.07763565,0.58212155,9.78905
34.80047655286534,31.261739233704954,0.0,0.0,11-12-12,-0.0053936318,-0.002929926,0.0035429,256.0,-3.4088578,-0.42831936,0.001449585,-0.0014801025,7.171631E-4,-0.07722625,0.582866,9.789008
34.80047655286534,31.261739233704954,0.0,0.0,11-12-12,-0.0053936318,-0.002929926,0.0035429,256.0,-3.4126413,-0.42716852,0.0010986328,-0.0015869141,5.493164E-4,-0.07722625,0.582866,9.789008
34.80047655286534,31.261739233704954,0.0,0.0,11-12-13,-0.0060661063,-0.008767605,-0.0025539398,256.0,-3.410048,-0.42958948,0.0010986328,-0.0015869141,5.493164E-4,-0.077282235,0.58097094,9.789121
34.80047655286534,31.261739233704954,0.0,0.0,11-12-13,-0.0060661063,-0.008767605,-0.0025539398,256.0,-3.4113822,-0.43003112,0.0011138916,-0.001663208,5.645752E-4,-0.077282235,0.58097094,9.789121
34.80047655286534,31.261739233704954,0.0,0.0,11-12-13,-0.0036394224,-0.0047342777,0.0048732758,256.0,-3.4095137,-0.41965315,0.0011138916,-0.001663208,5.645752E-4,-0.075665005,0.58084595,9.789141
34.80047655286534,31.261739233704954,0.0,0.0,11-12-13,-0.0036394224,-0.0047342777,0.0048732758,256.0,-3.4073431,-0.4300833,0.0011444092,-0.001373291,2.746582E-4,-0.075665005,0.58084595,9.789141
34.80047655286534,31.261739233704954,0.0,0.0,11-12-13,-0.004721448,-0.0046702027,0.0013399124,256.0,-3.4077394,-0.420831,0.0011444092,-0.001373291,2.746582E-4,-0.0750585,0.5807504,9.789151
34.80047655286534,31.261739233704954,0.0,0.0,11-12-13,-0.004721448,-0.0046702027,0.0013399124,256.0,-3.4093723,-0.42255235,0.0014343262,-0.0018157959,5.79834E-4,-0.0750585,0.5807504,9.789151
34.80047655286534,31.261739233704954,0.0,0.0,11-12-13,-0.0076916516,-0.005486846,0.0043268204,256.0,-3.4197211,-0.4266605,0.0014343262,-0.0018157959,5.79834E-4,-0.07587821,0.5807301,9.789146
34.80047655286534,31.261739233704954,0.0,0.0,11-12-13,-0.0076916516,-0.005486846,0.0043268204,256.0,-3.4147053,-0.4263018,0.001449585,-0.0013275146,7.171631E-4,-0.07587821,0.5807301,9.789146
34.80047655286534,31.261739233704954,0.0,0.0,11-12-13,-0.0065140203,-0.0032417774,-0.0055675507,256.0,-3.4174678,-0.4214882,0.001449585,-0.0013275146,7.171631E-4,-0.0758876,0.5825552,9.789038
34.80047655286534,31.261739233704954,0.0,0.0,11-12-13,-0.0065140203,-0.0032417774,-0.0055675507,256.0,-3.4196405,-0.41981304,0.001953125,-0.0016021729,7.4768066E-4,-0.0758876,0.5825552,9.789038
34.80047655286534,31.261739233704954,0.0,0.0,11-12-14,-0.0043438748,-0.006750703,2.8133392E-4,256.0,-3.4229653,-0.4202758,0.001953125,-0.0016021729,7.4768066E-4,-0.07519702,0.5822703,9.78906
34.80047655286534,31.261739233704954,0.0,0.0,11-12-14,-0.0043438748,-0.006750703,2.8133392E-4,256.0,-3.4212968,-0.42096987,0.0013427734,-0.0014343262,6.4086914E-4,-0.07519702,0.5822703,9.78906
34.80047655286534,31.261739233704954,0.0,0.0,11-12-14,-0.0043858364,-0.0038836002,8.401871E-4,256.0,-3.415096,-0.41955513,0.0013427734,-0.0014343262,6.4086914E-4,-0.0743381,0.5832944,9.789005
34.80047655286534,31.261739233704954,0.0,0.0,11-12-14,-0.0043858364,-0.0038836002,8.401871E-4,256.0,-3.4163043,-0.42366856,0.0013122559,-0.0013275146,5.79834E-4,-0.0743381,0.5832944,9.789005
34.80047655286534,31.261739233704954,0.0,0.0,11-12-14,-0.006654829,-0.009105206,-0.004260063,256.0,-3.405571,-0.42291588,0.0013122559,-0.0013275146,5.79834E-4,-0.07446608,0.5816557,9.789103
34.80047655286534,31.261739233704954,0.0,0.0,11-12-14,-0.006654829,-0.009105206,-0.004260063,256.0,-3.405823,-0.42099288,0.0011749268,-0.0019683838,6.5612793E-4,-0.07446608,0.5816557,9.789103
34.80047655286534,31.261739233704954,0.0,0.0,11-12-14,-0.0074799135,-0.006109178,0.001121521,256.0,-3.3987682,-0.41807094,0.0011749268,-0.0019683838,6.5612793E-4,-0.07494497,0.580902,9.789143
34.80047655286534,31.261739233704954,0.0,0.0,11-12-14,-0.0074799135,-0.006109178,0.001121521,256.0,-3.391093,-0.41745135,9.460449E-4,-0.001663208,7.324219E-4,-0.07494497,0.580902,9.789143
34.80047655286534,31.261739233704954,0.0,0.0,11-12-14,-0.005177848,-0.0074435472,0.004693985,256.0,-3.3945854,-0.4234664,9.460449E-4,-0.001663208,7.324219E-4,-0.07414201,0.5790326,9.78926
34.80047655286534,31.261739233704954,0.0,0.0,11-12-14,-0.005177848,-0.0074435472,0.004693985,256.0,-3.3999379,-0.42618915,0.0012817383,-0.0015258789,4.5776367E-4,-0.07414201,0.5790326,9.78926
34.80047655286534,31.261739233704954,0.0,0.0,11-12-15,-0.0098262355,-0.007830799,0.005897522,256.0,-3.3989632,-0.42428318,0.0012817383,-0.0015258789,4.5776367E-4,-0.0755301,0.5772634,9.789354
34.80047655286534,31.261739233704954,0.0,0.0,11-12-15,-0.0098262355,-0.007830799,0.005897522,256.0,-3.3963997,-0.42500517,0.0011291504,-0.0018463135,5.187988E-4,-0.0755301,0.5772634,9.789354
34.80047655286534,31.261739233704954,0.0,0.0,11-12-15,-0.006430149,-5.367398E-4,-0.0048675537,256.0,-3.3995726,-0.42106143,0.0011291504,-0.0018463135,5.187988E-4,-0.075481616,0.5796073,9.789216
34.80047655286534,31.261739233704954,0.0,0.0,11-12-15,-0.006430149,-5.367398E-4,-0.0048675537,256.0,-3.3912466,-0.41379365,0.0012207031,-0.0012817383,1.2207031E-4,-0.075481616,0.5796073,9.789216
34.80047655286534,31.261739233704954,0.0,0.0,11-12-15,-0.0051906183,-0.0056449175,4.787445E-4,256.0,-3.3935316,-0.41401127,0.0012207031,-0.0012817383,1.2207031E-4,-0.07518261,0.57899475,9.789254
34.80047655286534,31.261739233704954,0.0,0.0,11-12-15,-0.0051906183,-0.0056449175,4.787445E-4,256.0,-3.3900397,-0.42071155,0.0011749268,-0.0015563965,2.746582E-4,-0.07518261,0.57899475,9.789254
34.80047655286534,31.261739233704954,0.0,0.0,11-12-15,-0.002676271,-0.005872607,-0.0045175552,256.0,-3.3961673,-0.4216604,0.0011749268,-0.0015563965,2.746582E-4,-0.073688135,0.57877254,9.789279
34.80047655286534,31.261739233704954,0.0,0.0,11-12-15,-0.002676271,-0.005872607,-0.0045175552,256.0,-3.3995216,-0.42310736,0.0014801025,-0.0016937256,2.2888184E-4,-0.073688135,0.57877254,9.789279
34.80047655286534,31.261739233704954,0.0,0.0,11-12-15,-0.009983189,-0.008472264,0.0032014847,256.0,-3.4005845,-0.42174044,0.0014801025,-0.0016937256,2.2888184E-4,-0.075506106,0.5773842,9.789347
34.80047655286534,31.261739233704954,0.0,0.0,11-12-15,-0.009983189,-0.008472264,0.0032014847,256.0,-3.4025187,-0.42051777,0.0014801025,-0.0011901855,8.544922E-4,-0.075506106,0.5773842,9.789347
34.80047655286534,31.261739233704954,0.0,0.0,11-12-16,-0.004587181,-0.0013180971,0.0042877197,256.0,-3.4023485,-0.4198048,0.0014801025,-0.0011901855,8.544922E-4,-0.07483556,0.5794811,9.789228
34.80047655286534,31.261739233704954,0.0,0.0,11-12-16,-0.004587181,-0.0013180971,0.0042877197,256.0,-3.409065,-0.4225892,0.0015716553,-0.0018463135,7.324219E-4,-0.07483556,0.5794811,9.789228
34.80047655286534,31.261739233704954,0.0,0.0,11-12-16,-0.005846314,-0.0047368407,-0.003537178,256.0,-3.4080641,-0.41861254,0.0015716553,-0.0018463135,7.324219E-4,-0.07466084,0.5802711,9.789183
34.80047655286534,31.261739233704954,0.0,0.0,11-12-16,-0.005846314,-0.0047368407,-0.003537178,256.0,-3.4081364,-0.42393696,0.0016479492,-0.0013427734,5.187988E-4,-0.07466084,0.5802711,9.789183
34.80047655286534,31.261739233704954,0.0,0.0,11-12-16,-0.007001579,-0.0040022135,2.7942657E-4,256.0,-3.4134638,-0.41980037,0.0016479492,-0.0013427734,5.187988E-4,-0.07492141,0.58130753,9.789119
34.80047655286534,31.261739233704954,0.0,0.0,11-12-16,-0.0073910356,-0.008223593,0.0071964264,256.0,-3.4142838,-0.41019803,0.0016021729,-0.0016937256,5.493164E-4,-0.075582035,0.579988,9.789192
