Longitude,Latitude,Speed,Distance,Time,Acc X,Acc Y,Acc Z,Heading,Pitch,Roll,gyro_x,gyro_y,gyro_z,gravity_x,gravity_y,gravity_z
34.79421755,31.25845971,0.0,0.0,10-57-55,-0.029120207,-0.005047679,-0.043214798,257.0,-4.0669007,19.373941,0.016494751,0.039535522,0.0041503906,3.2110064,0.70012456,9.23957
34.79421755,31.25845971,0.0,0.0,10-57-55,0.060741186,0.025042832,0.015878677,256.0,-4.611276,18.142307,0.018508911,0.009841919,8.239746E-4,3.184675,0.7644268,9.243587
34.79421755,31.25845971,0.0,0.0,10-57-55,0.060741186,0.025042832,0.015878677,256.0,-4.472413,18.011393,-0.018615723,0.1328125,0.008834839,3.184675,0.7644268,9.243587
34.79421755,31.25845971,0.0,0.0,10-57-55,-0.034115314,2.9599667E-4,-0.042744637,256.0,-4.8059373,17.42833,0.0027160645,0.024520874,0.012878418,3.0403893,0.7405981,9.293973
34.79421755,31.25845971,0.0,0.0,10-57-55,-0.023729324,0.062616885,0.054255486,256.0,-4.1949067,16.425394,0.0027160645,0.024520874,0.012878418,2.8896148,0.724648,9.343201
34.79421755,31.25845971,0.0,0.0,10-57-56,-0.023729324,0.062616885,0.054255486,256.0,-3.9397016,15.829737,-0.03526306,0.12161255,0.025527954,2.8896148,0.724648,9.343201
34.79421755,31.25845971,0.0,0.0,10-57-56,-0.006144762,-0.044819534,-0.08666992,256.0,-3.707826,15.351726,-0.03526306,0.12161255,0.025527954,2.6917312,0.64199847,9.408125
34.79421755,31.25845971,0.0,0.0,10-57-56,-0.006144762,-0.044819534,-0.08666992,256.0,-3.8732378,14.791513,-0.02168274,0.08377075,0.012252808,2.6917312,0.64199847,9.408125
34.79421755,31.25845971,0.0,0.0,10-57-56,-0.016146898,-0.019914746,-0.02029705,256.0,-3.9131947,14.6082535,-0.02168274,0.08377075,0.012252808,2.5369267,0.6266346,9.452075
34.79421755,31.25845971,0.0,0.0,10-57-56,-0.016146898,-0.019914746,-0.02029705,255.0,-3.9945273,14.268036,0.024337769,0.08137512,0.015823364,2.5369267,0.6266346,9.452075
34.79421755,31.25845971,0.0,0.0,10-57-56,-0.057825804,-0.034012496,0.091433525,255.0,-4.288938,14.129145,0.024337769,0.08137512,0.015823364,2.4176261,0.68225825,9.479451
34.79421755,31.25845971,0.0,0.0,10-57-56,-0.057825804,-0.034012496,0.091433525,255.0,-4.2272606,14.434682,0.06867981,0.026031494,0.034698486,2.4176261,0.68225825,9.479451
34.79421755,31.25845971,0.0,0.0,10-57-56,0.0034730434,0.07241404,-0.05580902,255.0,-4.225389,14.458718,0.06867981,0.026031494,0.034698486,2.4236102,0.73617876,9.473887
34.79421755,31.25845971,0.0,0.0,10-57-56,0.0034730434,0.07241404,-0.05580902,254.0,-3.3129041,14.293414,-0.05580139,-0.03274536,0.06854248,2.4236102,0.73617876,9.473887
34.79421755,31.25845971,0.0,0.0,10-57-56,-0.015687704,-0.07320964,0.1850853,254.0,-3.5323317,14.488528,-0.05580139,-0.03274536,0.06854248,2.4283354,0.61650074,9.481218
34.79421755,31.25845971,0.0,0.0,10-57-57,-0.015687704,-0.07320964,0.1850853,254.0,-4.3189015,14.551961,0.028823853,-0.018447876,0.03453064,2.4283354,0.61650074,9.481218
34.79421755,31.25845971,0.0,0.0,10-57-57,-0.0057661533,-0.08901173,-0.06183815,254.0,-4.9717293,14.755469,0.028823853,-0.018447876,0.03453064,2.4614563,0.6609195,9.469679
34.79421755,31.25845971,0.0,0.0,10-57-57,-0.0057661533,-0.08901173,-0.06183815,255.0,-4.8102,14.859792,0.11024475,-0.013015747,0.0017547607,2.4614563,0.6609195,9.469679
34.79421755,31.25845971,0.0,0.0,10-57-57,-0.03102994,-0.0023866892,-0.060362816,255.0,-4.582481,14.5178795,0.11024475,-0.013015747,0.0017547607,2.4767282,0.7631581,9.458002
34.79421755,31.25845971,0.0,0.0,10-57-57,-0.03102994,-0.0023866892,-0.060362816,255.0,-4.6672306,14.724376,-0.04386902,-0.0029907227,-0.023971558,2.4767282,0.7631581,9.458002
34.79421755,31.25845971,0.0,0.0,10-57-57,0.015070438,0.04779762,0.0130319595,255.0,-4.967093,14.883495,-0.04386902,-0.0029907227,-0.023971558,2.504072,0.7811004,9.449333
34.79421755,31.25845971,0.0,0.0,10-57-57,0.015070438,0.04779762,0.0130319595,255.0,-5.063393,14.771991,0.038360596,-0.0075683594,0.005569458,2.504072,0.7811004,9.449333
34.79421755,31.25845971,0.0,0.0,10-57-57,-0.0028607845,-0.0019772053,-0.08231163,255.0,-4.682303,14.673568,0.038360596,-0.0075683594,0.005569458,2.50724,0.79428566,9.447393
34.79421755,31.25845971,0.0,0.0,10-57-57,-0.0028607845,-0.0019772053,-0.08231163,255.0,-4.952693,14.471788,-0.022109985,0.017059326,-0.0062408447,2.50724,0.79428566,9.447393
34.79421755,31.25845971,0.0,0.0,10-57-57,-0.031290293,0.011331916,0.11371231,255.0,-4.8161297,14.438063,-0.022109985,0.017059326,-0.0062408447,2.457124,0.79289633,9.460669
34.79421755,31.25845971,0.0,0.0,10-57-58,-0.031290293,0.011331916,0.11371231,256.0,-4.656326,14.428684,-0.017120361,0.0019989014,-0.021194458,2.457124,0.79289633,9.460669
34.79421755,31.25845971,0.0,0.0,10-57-58,-0.08432412,-0.003355205,0.026392937,256.0,-4.4235926,14.393806,-0.017120361,0.0019989014,-0.021194458,2.4212508,0.7781286,9.471137
34.79421755,31.25845971,0.0,0.0,10-57-58,-0.08432412,-0.003355205,0.026392937,256.0,-4.3174176,14.468588,-0.038101196,-0.020706177,-0.027328491,2.4212508,0.7781286,9.471137
34.79421755,31.25845971,0.0,0.0,10-57-58,-0.027624846,-0.006788671,0.048823357,256.0,-4.617627,14.603628,-0.038101196,-0.020706177,-0.027328491,2.4295375,0.7470945,9.471515
34.79421755,31.25845971,0.0,0.0,10-57-58,-0.027624846,-0.006788671,0.048823357,256.0,-5.0314064,14.733552,0.041137695,-0.016098022,0.0046081543,2.4295375,0.7470945,9.471515
34.79421755,31.25845971,0.0,0.0,10-57-58,0.016204119,0.030538023,-0.04031849,256.0,-4.990362,14.701168,0.041137695,-0.016098022,0.0046081543,2.4649959,0.80053157,9.457977
34.79421755,31.25845971,0.0,0.0,10-57-58,0.016204119,0.030538023,-0.04031849,256.0,-4.9008036,14.759652,0.008163452,-0.011856079,3.9672852E-4,2.4649959,0.80053157,9.457977
34.79421755,31.25845971,0.0,0.0,10-57-58,-0.004662752,0.01797378,0.024211884,256.0,-4.8634,14.757248,0.008163452,-0.011856079,3.9672852E-4,2.4784713,0.8280544,9.452085
34.79421755,31.25845971,0.0,0.0,10-57-58,-0.004662752,0.01797378,0.024211884,256.0,-4.914554,14.861438,0.0011749268,-0.013427734,0.0015869141,2.4784713,0.8280544,9.452085
34.79421755,31.25845971,0.0,0.0,10-57-58,-0.00990653,-0.02176249,-0.0498991,256.0,-4.879382,14.888389,0.0011749268,-0.013427734,0.0015869141,2.50621,0.80375034,9.446866
34.79421755,31.25845971,0.0,0.0,10-57-59,-0.00990653,-0.02176249,-0.0498991,256.0,-4.859223,14.858658,-0.011016846,-0.013320923,0.0023040771,2.50621,0.80375034,9.446866
34.79421755,31.25845971,0.0,0.0,10-57-59,-0.030089617,-0.0020626783,0.016988754,256.0,-4.780028,14.859668,-0.011016846,-0.013320923,0.0023040771,2.5079334,0.80157226,9.446594
34.79421755,31.25845971,0.0,0.0,10-57-59,-0.030089617,-0.0020626783,0.016988754,256.0,-4.9222627,14.829689,-0.012893677,0.0054779053,-0.012573242,2.5079334,0.80157226,9.446594
34.79421755,31.25845971,0.0,0.0,10-57-59,0.018457174,-0.0121949315,0.0045022964,256.0,-5.187839,14.818393,-0.012893677,0.0054779053,-0.012573242,2.5125813,0.8101187,9.44463
34.79421755,31.25845971,0.0,0.0,10-57-59,0.018457174,-0.0121949315,0.0045022964,256.0,-5.1629167,14.842999,0.05290222,-0.0053710938,-0.0060424805,2.5125813,0.8101187,9.44463
34.79421755,31.25845971,0.0,0.0,10-57-59,-0.054160118,-0.016586125,0.024114609,256.0,-5.153696,14.86329,0.05290222,-0.0053710938,-0.0060424805,2.4953034,0.8342172,9.447112
34.79421755,31.25845971,0.0,0.0,10-57-59,-0.054160118,-0.016586125,0.024114609,256.0,-5.224428,14.906364,-0.004760742,-0.010375977,0.0026245117,2.4953034,0.8342172,9.447112
34.79421755,31.25845971,0.0,0.0,10-57-59,-0.0059735775,0.011202514,-0.02898693,256.0,-5.1076493,14.864106,-0.004760742,-0.010375977,0.0026245117,2.512163,0.8538021,9.440892
34.79421755,31.25845971,0.0,0.0,10-57-59,-0.0059735775,0.011202514,-0.02898693,256.0,-5.1640763,14.964273,-9.918213E-4,-3.3569336E-4,-1.5258789E-4,2.512163,0.8538021,9.440892
34.79421755,31.25845971,0.0,0.0,10-57-59,-9.353161E-4,-0.002692163,0.072460175,256.0,-5.0871215,15.150262,-9.918213E-4,-3.3569336E-4,-1.5258789E-4,2.5192375,0.8505548,9.4393
34.79421755,31.25845971,0.0,0.0,10-58-00,-9.353161E-4,-0.002692163,0.072460175,256.0,-5.018752,15.36862,-0.001159668,-0.03074646,-0.0022583008,2.5192375,0.8505548,9.4393
34.79421755,31.25845971,0.0,0.0,10-58-00,0.003083706,0.0059896708,-0.104997635,256.0,-4.9546585,15.278456,-0.001159668,-0.03074646,-0.0022583008,2.5659847,0.82727337,9.428771
34.79421755,31.25845971,0.0,0.0,10-58-00,0.003083706,0.0059896708,-0.104997635,256.0,-5.1733584,15.226361,-4.5776367E-5,0.0016479492,0.012771606,2.5659847,0.82727337,9.428771
34.79421755,31.25845971,0.0,0.0,10-58-00,-0.0069332123,0.016352355,0.040585518,256.0,-4.953039,15.256879,-4.5776367E-5,0.0016479492,0.012771606,2.5745873,0.828838,9.426289
34.79421755,31.25845971,0.0,0.0,10-58-00,-0.0069332123,0.016352355,0.040585518,256.0,-5.075638,15.244444,-0.01739502,-0.009002686,-0.0024719238,2.5745873,0.828838,9.426289
34.79421755,31.25845971,0.0,0.0,10-58-00,-0.0012245178,-0.020044029,0.02453041,256.0,-5.211067,15.270994,-0.01739502,-0.009002686,-0.0024719238,2.578277,0.843967,9.423937
34.79421755,31.25845971,0.0,0.0,10-58-00,-0.0012245178,-0.020044029,0.02453041,256.0,-5.231278,15.367,0.021057129,-0.00491333,-0.0024719238,2.578277,0.843967,9.423937
34.79421755,31.25845971,0.0,0.0,10-58-00,-0.033769608,-0.008170366,-0.015174866,256.0,-5.2126913,15.426603,0.021057129,-0.00491333,-0.0024719238,2.5850422,0.85189366,9.4213705
34.79421755,31.25845971,0.0,0.0,10-58-00,1.9073486E-5,0.019494534,-0.018260956,256.0,-5.2657027,15.377662,-0.004043579,-0.010864258,7.019043E-4,2.6001337,0.8688467,9.415668
34.79421755,31.25845971,0.0,0.0,10-58-00,1.9073486E-5,0.019494534,-0.018260956,256.0,-5.409807,15.306568,-0.004043579,-0.010864258,7.019043E-4,2.6001337,0.8688467,9.415668
34.79421755,31.25845971,0.0,0.0,10-58-01,-0.016903639,-0.014862359,0.032423973,256.0,-5.526127,15.391108,0.025680542,-0.0033569336,0.009597778,2.5906847,0.879147,9.417316
34.79421755,31.25845971,0.0,0.0,10-58-01,-0.016903639,-0.014862359,0.032423973,256.0,-5.6721005,15.38692,0.025680542,-0.0033569336,0.009597778,2.5906847,0.879147,9.417316
34.79421755,31.25845971,0.0,0.0,10-58-01,-0.03953147,0.0055089593,0.018764496,256.0,-5.5029674,15.378558,0.024398804,-0.0077667236,0.012191772,2.5885854,0.9034496,9.415593
34.79421755,31.25845971,0.0,0.0,10-58-01,-0.03953147,0.0055089593,0.018764496,256.0,-5.3084,15.509926,0.024398804,-0.0077667236,0.012191772,2.5885854,0.9034496,9.415593
34.79421755,31.25845971,0.0,0.0,10-58-01,0.01738429,-0.0012207627,-0.009263992,256.0,-5.054936,15.594299,-0.03768921,-0.016143799,0.0016326904,2.6238458,0.8687619,9.409095
34.79421755,31.25845971,0.0,0.0,10-58-01,0.01738429,-0.0012207627,-0.009263992,256.0,-4.891943,15.520418,-0.03768921,-0.016143799,0.0016326904,2.6238458,0.8687619,9.409095
34.79421755,31.25845971,0.0,0.0,10-58-01,-0.02254796,-0.008409739,-0.039600372,256.0,-4.8050013,15.429813,-0.02748108,0.0051116943,-0.0072631836,2.621104,0.81608504,9.414575
34.79421755,31.25845971,0.0,0.0,10-58-01,-0.02254796,-0.008409739,-0.039600372,256.0,-4.9154844,15.399649,-0.02748108,0.0051116943,-0.0072631836,2.621104,0.81608504,9.414575
34.79421755,31.25845971,0.0,0.0,10-58-01,-0.009439945,-0.0011048317,-2.5081635E-4,256.0,-4.663555,15.310711,0.004043579,0.009780884,0.00819397,2.5973148,0.78809536,9.423548
34.79421755,31.25845971,0.0,0.0,10-58-01,-0.009439945,-0.0011048317,-2.5081635E-4,256.0,-4.386622,15.236573,0.004043579,0.009780884,0.00819397,2.5973148,0.78809536,9.423548
34.79421755,31.25845971,0.0,0.0,10-58-02,-0.022873402,-0.042726398,0.056168556,256.0,-4.6643796,15.166108,-0.03276062,0.011398315,-0.001953125,2.5719337,0.7593542,9.432864
34.79421755,31.25845971,0.0,0.0,10-58-02,-0.022873402,-0.042726398,0.056168556,256.0,-4.8230224,15.243197,-0.03276062,0.011398315,-0.001953125,2.5719337,0.7593542,9.432864
34.79421755,31.25845971,0.0,0.0,10-58-02,-0.0046727657,0.04302275,-0.01980877,256.0,-4.6371713,15.298654,0.027786255,-0.015014648,0.0014038086,2.578886,0.7742583,9.429754
34.79421755,31.25845971,0.0,0.0,10-58-02,-0.0046727657,0.04302275,-0.01980877,256.0,-4.5669894,15.269456,0.027786255,-0.015014648,0.0014038086,2.578886,0.7742583,9.429754
34.79421755,31.25845971,0.0,0.0,10-58-02,-0.028057575,-0.011621356,0.060173035,256.0,-4.843776,15.287181,-0.0093688965,-0.005874634,-0.0050811768,2.5723646,0.77598184,9.431394
34.79421755,31.25845971,0.0,0.0,10-58-02,-0.028057575,-0.011621356,0.060173035,256.0,-5.111305,15.294075,-0.0093688965,-0.005874634,-0.0050811768,2.5723646,0.77598184,9.431394
34.79421755,31.25845971,0.0,0.0,10-58-02,5.7959557E-4,0.0064384937,-0.036610603,256.0,-4.8282604,15.362204,0.030639648,-0.0074768066,0.009063721,2.5880075,0.8098614,9.424263
34.79421755,31.25845971,0.0,0.0,10-58-02,5.7959557E-4,0.0064384937,-0.036610603,256.0,-4.240328,15.304973,0.030639648,-0.0074768066,0.009063721,2.5880075,0.8098614,9.424263
34.79421755,31.25845971,0.0,0.0,10-58-02,-0.013100147,0.009969294,-0.013802528,256.0,-4.2553277,15.319331,-0.078430176,0.002029419,-0.007675171,2.5843012,0.7613676,9.429321
34.79421755,31.25845971,0.0,0.0,10-58-02,-0.013100147,0.009969294,-0.013802528,256.0,-4.659256,15.258164,-0.078430176,0.002029419,-0.007675171,2.5843012,0.7613676,9.429321
34.79421755,31.25845971,0.0,0.0,10-58-03,-0.010601759,-0.026385665,0.038739204,256.0,-4.6807055,15.167953,0.050338745,0.004470825,0.010665894,2.5683756,0.7309028,9.436081
34.79421755,31.25845971,0.0,0.0,10-58-03,-0.010601759,-0.026385665,0.038739204,256.0,-4.4800997,15.218138,0.050338745,0.004470825,0.010665894,2.5683756,0.7309028,9.436081
34.79421755,31.25845971,0.0,0.0,10-58-03,-0.0459404,-0.006326437,0.0242939,256.0,-4.855234,15.256599,-0.013153076,-0.009613037,-0.0026245117,2.5555024,0.7638131,9.436969
34.79421755,31.25845971,0.0,0.0,10-58-03,-0.0459404,-0.006326437,0.0242939,256.0,-5.07484,15.344286,-0.013153076,-0.009613037,-0.0026245117,2.5555024,0.7638131,9.436969
34.79421755,31.25845971,0.0,0.0,10-58-03,-0.0066342354,0.026344359,-0.024618149,256.0,-5.337944,15.388772,0.06387329,-0.014343262,0.02432251,2.5836422,0.82040334,9.424548
34.79421755,31.25845971,0.0,0.0,10-58-03,-0.0066342354,0.026344359,-0.024618149,256.0,-5.389506,15.279389,0.06387329,-0.014343262,0.02432251,2.5836422,0.82040334,9.424548
34.79421755,31.25845971,0.0,0.0,10-58-03,-0.056183815,-0.034401298,-0.024529457,255.0,-5.2290854,15.163657,0.021438599,-0.0013275146,0.011154175,2.575254,0.8715364,9.422255
34.79421755,31.25845971,0.0,0.0,10-58-03,-0.056183815,-0.034401298,-0.024529457,255.0,-4.8927383,15.016426,0.021438599,-0.0013275146,0.011154175,2.575254,0.8715364,9.422255
34.79421755,31.25845971,0.0,0.0,10-58-03,-0.047102213,-0.016777396,0.081627846,255.0,-4.782485,14.869571,-0.04927063,0.013122559,0.007217407,2.5315092,0.82725304,9.438087
34.79421755,31.25845971,0.0,0.0,10-58-03,-0.047102213,-0.016777396,0.081627846,255.0,-4.8621807,14.751557,-0.04927063,0.013122559,0.007217407,2.5315092,0.82725304,9.438087
34.79421755,31.25845971,0.0,0.0,10-58-04,-0.009486437,-0.015395045,-0.052126884,255.0,-4.925821,14.736865,0.018753052,0.015930176,0.008758545,2.5072992,0.7898138,9.447753
34.79421755,31.25845971,0.0,0.0,10-58-04,-0.009486437,-0.015395045,-0.052126884,255.0,-5.0888634,14.720776,0.018753052,0.015930176,0.008758545,2.5072992,0.7898138,9.447753
34.79421755,31.25845971,0.0,0.0,10-58-04,-0.012363195,0.009549618,0.036392212,255.0,-5.0715766,14.747733,0.016494751,-0.0029144287,0.016220093,2.4873495,0.8200937,9.450446
34.79421755,31.25845971,0.0,0.0,10-58-04,-0.012363195,0.009549618,0.036392212,255.0,-5.3429856,14.829539,0.016494751,-0.0029144287,0.016220093,2.4873495,0.8200937,9.450446
34.79421755,31.25845971,0.0,0.0,10-58-04,0.01766944,-0.01719135,-0.020464897,255.0,-5.302106,14.82103,0.03086853,-0.0018615723,-0.0010375977,2.5032406,0.85348165,9.443291
34.79421755,31.25845971,0.0,0.0,10-58-04,0.01766944,-0.01719135,-0.020464897,255.0,-5.0190325,14.791287,0.03086853,-0.0018615723,-0.0010375977,2.5032406,0.85348165,9.443291
34.79421755,31.25845971,0.0,0.0,10-58-04,0.006062269,-0.013987243,0.006450653,255.0,-4.8814034,14.763367,-0.033111572,-8.392334E-4,-0.009399414,2.5069659,0.8473062,9.442859
34.79421755,31.25845971,0.0,0.0,10-58-04,0.006062269,-0.013987243,0.006450653,256.0,-4.896152,14.831761,-0.033111572,-8.392334E-4,-0.009399414,2.5069659,0.8473062,9.442859
34.79421755,31.25845971,0.0,0.0,10-58-04,-0.022768974,-0.002161622,0.019675255,256.0,-4.9488115,14.793527,0.0043029785,3.0517578E-4,-0.011169434,2.494369,0.82037884,9.44857
34.79421755,31.25845971,0.0,0.0,10-58-05,-0.022768974,-0.002161622,0.019675255,256.0,-5.0981827,14.758047,0.0043029785,3.0517578E-4,-0.011169434,2.494369,0.82037884,9.44857
34.79421755,31.25845971,0.0,0.0,10-58-05,0.01924777,-0.012010038,-0.0098695755,256.0,-5.1614594,14.719102,0.007980347,0.0016021729,-0.016921997,2.4995682,0.8328698,9.446104
34.79421755,31.25845971,0.0,0.0,10-58-05,0.01924777,-0.012010038,-0.0098695755,256.0,-5.1126494,14.606535,0.007980347,0.0016021729,-0.016921997,2.4995682,0.8328698,9.446104
34.79421755,31.25845971,0.0,0.0,10-58-05,-0.029899359,0.014885485,0.030994415,256.0,-5.030312,14.581716,-0.021026611,0.013977051,-0.014373779,2.4705114,0.84425485,9.452735
34.79421755,31.25845971,0.0,0.0,10-58-05,-0.029899359,0.014885485,0.030994415,256.0,-4.895027,14.5764065,-0.021026611,0.013977051,-0.014373779,2.4705114,0.84425485,9.452735
34.79421755,31.25845971,0.0,0.0,10-58-05,0.013765812,0.020833552,-0.0490427,256.0,-5.1345673,14.584562,-0.003112793,-0.0019989014,-0.0067596436,2.474477,0.8315207,9.4528265
34.79421755,31.25845971,0.0,0.0,10-58-05,0.013765812,0.020833552,-0.0490427,256.0,-5.091747,14.48605,-0.003112793,-0.0019989014,-0.0067596436,2.474477,0.8315207,9.4528265
34.79421755,31.25845971,0.0,0.0,10-58-05,0.006186962,-0.017290771,-0.019773483,256.0,-4.969694,14.412919,0.0035247803,0.006164551,-0.0015563965,2.466642,0.8252583,9.455422
34.79421755,31.25845971,0.0,0.0,10-58-05,0.006186962,-0.017290771,-0.019773483,256.0,-5.27841,14.332039,0.0035247803,0.006164551,-0.0015563965,2.466642,0.8252583,9.455422
34.79421755,31.25845971,0.0,0.0,10-58-05,-0.041827917,0.0013583302,0.04946804,256.0,-5.5321236,14.312306,0.03617859,0.007232666,0.0053710938,2.4283643,0.86129314,9.462114
34.79421755,31.25845971,0.0,0.0,10-58-06,-0.041827917,0.0013583302,0.04946804,256.0,-5.682026,14.237704,0.03617859,0.007232666,0.0053710938,2.4283643,0.86129314,9.462114
34.79421755,31.25845971,0.0,0.0,10-58-06,-0.03097868,0.02625537,0.016558647,255.0,-5.5618677,14.21665,0.014816284,-0.0027923584,0.011306763,2.41062,0.9185232,9.461269
34.79421755,31.25845971,0.0,0.0,10-58-06,-0.016222,-0.021546662,-0.018891335,255.0,-5.584418,14.193972,0.014816284,-0.0027923584,0.011306763,2.4043515,0.93214947,9.461532
34.79421755,31.25845971,0.0,0.0,10-58-06,-0.016222,-0.021546662,-0.018891335,255.0,-5.603665,14.15497,0.009902954,0.005874634,0.0077056885,2.4043515,0.93214947,9.461532
34.79421755,31.25845971,0.0,0.0,10-58-06,-0.012758493,-0.030102253,0.03159046,256.0,-5.7824345,14.203804,0.009902954,0.005874634,0.0077056885,2.3942947,0.9356988,9.463731
34.79421755,31.25845971,0.0,0.0,10-58-06,-0.012758493,-0.030102253,0.03159046,256.0,-5.7821145,14.18709,0.015380859,-0.0032043457,-6.713867E-4,2.3942947,0.9356988,9.463731
34.79421755,31.25845971,0.0,0.0,10-58-06,-0.017258406,-0.021797001,-0.016165733,256.0,-5.6676607,14.087759,0.015380859,-0.0032043457,-6.713867E-4,2.3862815,0.9381864,9.465508
34.79421755,31.25845971,0.0,0.0,10-58-06,-0.017258406,-0.021797001,-0.016165733,256.0,-5.641256,14.02719,-0.0137786865,-0.002380371,-0.009109497,2.3862815,0.9381864,9.465508
34.79421755,31.25845971,0.0,0.0,10-58-06,-0.035559177,0.0421378,0.023010254,256.0,-5.6751595,14.124939,-0.0137786865,-0.002380371,-0.009109497,2.3722072,0.9396834,9.468897
34.79421755,31.25845971,0.0,0.0,10-58-06,-0.035559177,0.0421378,0.023010254,256.0,-5.591038,14.076861,-0.024963379,-0.0063476563,-0.0023651123,2.3722072,0.9396834,9.468897
34.79421755,31.25845971,0.0,0.0,10-58-07,-0.016293049,-0.009641647,0.033028603,256.0,-5.7014184,14.031442,-0.024963379,-0.0063476563,-0.0023651123,2.3722856,0.93098456,9.469737
34.79421755,31.25845971,0.0,0.0,10-58-07,-0.016293049,-0.009641647,0.033028603,256.0,-5.7533216,14.121406,0.044204712,-0.0074157715,-0.0017089844,2.3722856,0.93098456,9.469737
34.79421755,31.25845971,0.0,0.0,10-58-07,0.023492575,0.020890832,-0.04351902,256.0,-5.3862867,14.194544,0.044204712,-0.0074157715,-0.0017089844,2.3966937,0.9230922,9.464362
34.79421755,31.25845971,0.0,0.0,10-58-07,0.023492575,0.020890832,-0.04351902,256.0,-5.3790493,14.079163,-0.04890442,0.0025787354,-0.013031006,2.3966937,0.9230922,9.464362
34.79421755,31.25845971,0.0,0.0,10-58-07,-0.014872074,-0.01881051,0.03131199,256.0,-5.2967477,14.007682,-0.04890442,0.0025787354,-0.013031006,2.3832147,0.8842378,9.471473
34.79421755,31.25845971,0.0,0.0,10-58-07,-0.014872074,-0.01881051,0.03131199,256.0,-5.2439947,14.159085,-0.005645752,-0.0056152344,-0.008758545,2.3832147,0.8842378,9.471473
34.79421755,31.25845971,0.0,0.0,10-58-07,-0.0047221184,0.021045208,-0.005132675,256.0,-4.936103,14.25399,-0.005645752,-0.0056152344,-0.008758545,2.3899572,0.86780286,9.471293
34.79421755,31.25845971,0.0,0.0,10-58-07,-0.0047221184,0.021045208,-0.005132675,256.0,-4.8316813,14.251832,-0.041259766,-0.018493652,-0.008956909,2.3899572,0.86780286,9.471293
34.79421755,31.25845971,0.0,0.0,10-58-07,-0.02130723,-0.046726942,0.009649277,256.0,-4.870926,14.320208,-0.041259766,-0.018493652,-0.008956909,2.4109812,0.81133264,9.470971
34.79421755,31.25845971,0.0,0.0,10-58-07,-0.02130723,-0.046726942,0.009649277,256.0,-4.815269,14.37886,7.019043E-4,-0.004837036,9.0026855E-4,2.4109812,0.81133264,9.470971
34.79421755,31.25845971,0.0,0.0,10-58-08,-0.009519815,5.621314E-4,-0.016739845,256.0,-4.9340034,14.355046,7.019043E-4,-0.004837036,9.0026855E-4,2.4225538,0.8078036,9.468319
34.79421755,31.25845971,0.0,0.0,10-58-08,-0.009519815,5.621314E-4,-0.016739845,256.0,-4.890202,14.304813,0.010803223,-0.006652832,0.0019683838,2.4225538,0.8078036,9.468319
34.79421755,31.25845971,0.0,0.0,10-58-08,-0.02091217,0.0043096542,0.0018587112,256.0,-4.564632,14.317349,0.010803223,-0.006652832,0.0019683838,2.4220717,0.7923958,9.469745
34.79421755,31.25845971,0.0,0.0,10-58-08,-0.02091217,0.0043096542,0.0018587112,256.0,-4.5605307,14.406075,-0.030212402,-0.008331299,-0.0020141602,2.4220717,0.7923958,9.469745
34.79421755,31.25845971,0.0,0.0,10-58-08,-0.00835228,0.0010040402,-0.009343147,256.0,-4.683332,14.449749,-0.030212402,-0.008331299,-0.0020141602,2.4336333,0.77105784,9.468542
34.79421755,31.25845971,0.0,0.0,10-58-08,-0.00835228,0.0010040402,-0.009343147,256.0,-4.7560225,14.464013,0.017181396,0.0021820068,0.0046081543,2.4336333,0.77105784,9.468542
34.79421755,31.25845971,0.0,0.0,10-58-08,0.018453836,0.009224534,0.0010128021,256.0,-4.4140697,14.399408,0.017181396,0.0021820068,0.0046081543,2.447843,0.7601675,9.465759
34.79421755,31.25845971,0.0,0.0,10-58-08,0.018453836,0.009224534,0.0010128021,256.0,-4.4689527,14.390304,-0.032470703,-0.01222229,-0.0050354004,2.447843,0.7601675,9.465759
34.79421755,31.25845971,0.0,0.0,10-58-08,-0.04713106,-0.011722386,9.946823E-4,256.0,-4.8414426,14.438463,-0.032470703,-0.01222229,-0.0050354004,2.4327447,0.7621604,9.46949
34.79421755,31.25845971,0.0,0.0,10-58-08,-0.04713106,-0.011722386,9.946823E-4,256.0,-4.8080163,14.324459,0.02885437,0.01020813,-0.003753662,2.4327447,0.7621604,9.46949
34.79421755,31.25845971,0.0,0.0,10-58-09,0.0033771992,0.021948278,-0.005757332,256.0,-4.5864263,14.302033,0.02885437,0.01020813,-0.003753662,2.4269261,0.7821546,9.469354
34.79421755,31.25845971,0.0,0.0,10-58-09,0.0033771992,0.021948278,-0.005757332,256.0,-4.557991,14.367083,-0.027069092,-0.006011963,-0.0135650635,2.4269261,0.7821546,9.469354
34.79421755,31.25845971,0.0,0.0,10-58-09,-0.009288311,0.021197438,0.060825348,256.0,-4.4124017,14.407437,-0.027069092,-0.006011963,-0.0135650635,2.4144244,0.7622087,9.4741745
34.79421755,31.25845971,0.0,0.0,10-58-09,-0.009288311,0.021197438,0.060825348,256.0,-4.421469,14.571677,-0.014541626,-0.021697998,-0.0032196045,2.4144244,0.7622087,9.4741745
34.79421755,31.25845971,0.0,0.0,10-58-09,0.011640787,-0.022181809,-0.05070877,256.0,-4.6172233,14.591372,-0.014541626,-0.021697998,-0.0032196045,2.461398,0.74424607,9.463509
34.79421755,31.25845971,0.0,0.0,10-58-09,0.011640787,-0.022181809,-0.05070877,256.0,-4.8158846,14.496628,0.043624878,0.0045166016,0.013076782,2.461398,0.74424607,9.463509
34.79421755,31.25845971,0.0,0.0,10-58-09,-0.028735876,-0.021130681,0.003809929,256.0,-4.7279882,14.424696,0.043624878,0.0045166016,0.013076782,2.4654016,0.7678749,9.460579
34.79421755,31.25845971,0.0,0.0,10-58-09,-0.028735876,-0.021130681,0.003809929,256.0,-4.6812983,14.402927,9.613037E-4,4.119873E-4,0.004348755,2.4654016,0.7678749,9.460579
34.79421755,31.25845971,0.0,0.0,10-58-09,-0.03309679,-0.034911275,0.047647476,256.0,-4.7780614,14.423574,9.613037E-4,4.119873E-4,0.004348755,2.435387,0.7747505,9.46779
34.79421755,31.25845971,0.0,0.0,10-58-09,-0.03309679,-0.034911275,0.047647476,256.0,-4.962327,14.495197,0.012420654,0.0011138916,0.0014343262,2.435387,0.7747505,9.46779
34.79421755,31.25845971,0.0,0.0,10-58-10,0.016823292,0.028254151,-0.03524685,256.0,-4.886901,14.374058,0.012420654,0.0011138916,0.0014343262,2.4398055,0.8033938,9.464264
34.79421755,31.25845971,0.0,0.0,10-58-10,0.016823292,0.028254151,-0.03524685,256.0,-4.266497,14.270778,-0.036392212,0.0022583008,7.7819824E-4,2.4398055,0.8033938,9.464264
34.79421755,31.25845971,0.0,0.0,10-58-10,-0.046214104,-0.016661882,0.008552551,256.0,-4.1731887,14.243383,-0.036392212,0.0022583008,7.7819824E-4,2.4095795,0.7464265,9.476664
34.79421755,31.25845971,0.0,0.0,10-58-10,-0.046214104,-0.016661882,0.008552551,256.0,-4.4917545,14.239162,0.00579834,0.002532959,0.0057678223,2.4095795,0.7464265,9.476664
34.79421755,31.25845971,0.0,0.0,10-58-10,-0.007183075,-0.025165617,0.04380417,256.0,-4.2863407,14.270523,0.00579834,0.002532959,0.0057678223,2.4022787,0.7144669,9.48098
34.79421755,31.25845971,0.0,0.0,10-58-10,-0.007183075,-0.025165617,0.04380417,256.0,-3.8391407,14.180016,-0.046707153,0.0064086914,0.015655518,2.4022787,0.7144669,9.48098
34.79421755,31.25845971,0.0,0.0,10-58-10,0.008433104,0.017633319,-0.049409866,256.0,-3.8786106,14.037934,-0.046707153,0.0064086914,0.015655518,2.4044702,0.6960252,9.481796
34.79421755,31.25845971,0.0,0.0,10-58-10,0.008433104,0.017633319,-0.049409866,256.0,-4.191469,13.987388,0.019561768,0.014129639,-0.0101623535,2.4044702,0.6960252,9.481796
34.79421755,31.25845971,0.0,0.0,10-58-10,-0.0063898563,-0.0027161837,0.02955532,256.0,-4.574483,13.973188,0.019561768,0.014129639,-0.0101623535,2.3810794,0.6739435,9.489291
34.79421755,31.25845971,0.0,0.0,10-58-10,-0.0063898563,-0.0027161837,0.02955532,256.0,-4.396939,13.967002,0.02357483,-0.012710571,-0.003326416,2.3810794,0.6739435,9.489291
34.79421755,31.25845971,0.0,0.0,10-58-11,-0.04768896,0.036684155,0.028626442,256.0,-4.236812,14.004959,0.02357483,-0.012710571,-0.003326416,2.3544986,0.7316696,9.491648
34.79421755,31.25845971,0.0,0.0,10-58-11,-0.04768896,0.036684155,0.028626442,256.0,-4.363879,14.140252,-0.007904053,-0.00920105,-0.0093688965,2.3544986,0.7316696,9.491648
34.79421755,31.25845971,0.0,0.0,10-58-11,0.004520893,-0.043570995,-0.02908802,256.0,-4.424021,14.21357,-0.007904053,-0.00920105,-0.0093688965,2.380114,0.7100352,9.486901
34.79421755,31.25845971,0.0,0.0,10-58-11,0.004520893,-0.043570995,-0.02908802,256.0,-4.0929594,14.186018,-0.021453857,-0.006515503,-0.009399414,2.380114,0.7100352,9.486901
34.79421755,31.25845971,0.0,0.0,10-58-11,0.003870964,0.006788671,0.017813683,256.0,-4.281491,14.129423,-0.021453857,-0.006515503,-0.009399414,2.398698,0.70391256,9.482676
34.79421755,31.25845971,0.0,0.0,10-58-11,0.003870964,0.006788671,0.017813683,256.0,-4.5875034,14.266669,0.0385437,-0.02130127,-0.012786865,2.398698,0.70391256,9.482676
34.79421755,31.25845971,0.0,0.0,10-58-11,-0.06658745,-0.017652035,0.025187492,256.0,-4.658762,14.439896,0.0385437,-0.02130127,-0.012786865,2.3896353,0.7205962,9.48371
34.79421755,31.25845971,0.0,0.0,10-58-11,-0.06658745,-0.017652035,0.025187492,256.0,-4.5486736,14.4639015,-0.002090454,-0.020736694,-0.003982544,2.3896353,0.7205962,9.48371
34.79421755,31.25845971,0.0,0.0,10-58-11,0.0026247501,0.008107364,-0.065093994,256.0,-4.420487,14.487424,-0.002090454,-0.020736694,-0.003982544,2.429813,0.76136863,9.470307
34.79421755,31.25845971,0.0,0.0,10-58-11,-0.013979673,0.0012577772,0.013286591,256.0,-4.452479,14.6212845,-0.012817383,-0.012893677,-0.0022735596,2.4566388,0.74380594,9.464781
34.79421755,31.25845971,0.0,0.0,10-58-12,-0.013979673,0.0012577772,0.013286591,256.0,-4.6574845,14.686056,-0.012817383,-0.012893677,-0.0022735596,2.4566388,0.74380594,9.464781
34.79421755,31.25845971,0.0,0.0,10-58-12,-0.029518843,-0.006892085,0.03988266,256.0,-4.8341074,14.636795,0.036026,-0.011306763,2.746582E-4,2.4689693,0.7670406,9.459716
34.79421755,31.25845971,0.0,0.0,10-58-12,-0.029518843,-0.006892085,0.03988266,256.0,-4.5933223,14.607238,0.036026,-0.011306763,2.746582E-4,2.4689693,0.7670406,9.459716
34.79421755,31.25845971,0.0,0.0,10-58-12,-0.0110116005,0.009002686,-0.08704853,256.0,-4.4472466,14.511608,-0.034088135,0.006011963,-0.0023040771,2.4691503,0.77223945,9.459246
34.79421755,31.25845971,0.0,0.0,10-58-12,-0.0110116005,0.009002686,-0.08704853,256.0,-4.435029,14.367112,-0.034088135,0.006011963,-0.0023040771,2.4691503,0.77223945,9.459246
34.79421755,31.25845971,0.0,0.0,10-58-12,-0.042003155,-0.041570604,0.108270645,256.0,-4.243563,14.298167,-0.007797241,0.0068206787,-0.004180908,2.4205034,0.70796573,9.476831
34.79421755,31.25845971,0.0,0.0,10-58-12,-0.042003155,-0.041570604,0.108270645,256.0,-4.17413,14.340067,-0.007797241,0.0068206787,-0.004180908,2.4205034,0.70796573,9.476831
34.79421755,31.25845971,0.0,0.0,10-58-12,0.058131695,0.020301998,-0.036082268,256.0,-4.1184993,14.415739,-0.020492554,0.0025787354,-0.023132324,2.4424238,0.6988612,9.471882
34.79421755,31.25845971,0.0,0.0,10-58-12,0.058131695,0.020301998,-0.036082268,256.0,-3.7193449,14.435835,-0.020492554,0.0025787354,-0.023132324,2.4424238,0.6988612,9.471882
34.79421755,31.25845971,0.0,0.0,10-58-12,-0.03593397,-0.021875143,0.09816456,256.0,-3.937117,14.594556,-0.022842407,-0.025909424,-0.01512146,2.4356058,0.6546223,9.476797
34.79421755,31.25845971,0.0,0.0,10-58-13,-0.03593397,-0.021875143,0.09816456,256.0,-4.356384,14.758536,-0.022842407,-0.025909424,-0.01512146,2.4356058,0.6546223,9.476797
34.79421755,31.25845971,0.0,0.0,10-58-13,0.007426977,0.027634025,-0.10021114,256.0,-4.4028087,14.851771,0.041122437,-0.021102905,0.008544922,2.4956248,0.69306004,9.458431
34.79421755,31.25845971,0.0,0.0,10-58-13,0.007426977,0.027634025,-0.10021114,256.0,-4.2057886,14.945163,0.041122437,-0.021102905,0.008544922,2.4956248,0.69306004,9.458431
34.79421755,31.25845971,0.0,0.0,10-58-13,0.014568329,0.005671859,0.025740623,256.0,-4.2406855,14.996652,-0.01586914,-0.0043029785,-9.765625E-4,2.5224257,0.7173747,9.449505
34.79421755,31.25845971,0.0,0.0,10-58-13,0.014568329,0.005671859,0.025740623,256.0,-4.2629514,14.993492,-0.01586914,-0.0043029785,-9.765625E-4,2.5224257,0.7173747,9.449505
34.79421755,31.25845971,0.0,0.0,10-58-13,-0.03139019,-0.046617925,-0.027181625,256.0,-4.3970814,15.002949,0.02078247,-0.010040283,0.0029907227,2.5246599,0.6982062,9.450343
34.79421755,31.25845971,0.0,0.0,10-58-13,-0.03139019,-0.046617925,-0.027181625,256.0,-4.5576844,14.928514,0.02078247,-0.010040283,0.0029907227,2.5246599,0.6982062,9.450343
34.79421755,31.25845971,0.0,0.0,10-58-13,-0.0017387867,-0.021079898,0.01142025,256.0,-4.7434225,14.899229,0.035964966,0.005355835,1.373291E-4,2.530592,0.7416911,9.445442
34.79421755,31.25845971,0.0,0.0,10-58-13,-0.0017387867,-0.021079898,0.01142025,256.0,-4.54949,14.8088665,0.035964966,0.005355835,1.373291E-4,2.530592,0.7416911,9.445442
34.79421755,31.25845971,0.0,0.0,10-58-13,-0.033370733,-0.009338856,0.019881248,256.0,-4.675717,14.784601,-0.004989624,4.8828125E-4,-0.005203247,2.5085113,0.76807266,9.4492235
34.79421755,31.25845971,0.0,0.0,10-58-14,-0.033370733,-0.009338856,0.019881248,256.0,-4.920961,14.710999,-0.004989624,4.8828125E-4,-0.005203247,2.5085113,0.76807266,9.4492235
34.79421755,31.25845971,0.0,0.0,10-58-14,-0.032474518,-0.0042015314,0.009049416,256.0,-5.004219,14.689614,0.028121948,0.0053100586,-7.019043E-4,2.4841948,0.79214877,9.453658
34.79421755,31.25845971,0.0,0.0,10-58-14,-0.032474518,-0.0042015314,0.009049416,256.0,-4.71504,14.742605,0.028121948,0.0053100586,-7.019043E-4,2.4841948,0.79214877,9.453658
34.79421755,31.25845971,0.0,0.0,10-58-14,0.008324623,0.020246148,0.046720505,256.0,-4.9154468,14.762521,-0.011001587,-0.011703491,-0.0027923584,2.4822292,0.8166734,9.452088
34.79421755,31.25845971,0.0,0.0,10-58-14,0.008324623,0.020246148,0.046720505,256.0,-4.912792,14.79037,-0.011001587,-0.011703491,-0.0027923584,2.4822292,0.8166734,9.452088
34.79421755,31.25845971,0.0,0.0,10-58-14,-0.008164167,-0.007157862,-0.06060314,256.0,-4.8599744,14.745635,-0.0018310547,0.001373291,0.0022277832,2.4936318,0.8037345,9.450195
34.79421755,31.25845971,0.0,0.0,10-58-14,-0.008164167,-0.007157862,-0.06060314,256.0,-4.6921926,14.688673,-0.0018310547,0.001373291,0.0022277832,2.4936318,0.8037345,9.450195
34.79421755,31.25845971,0.0,0.0,10-58-14,-0.04479456,2.0492077E-4,0.032465935,256.0,-4.6496973,14.651655,-0.016723633,-0.0029296875,-0.004837036,2.4772666,0.7869971,9.455907
34.79421755,31.25845971,0.0,0.0,10-58-14,-0.04479456,2.0492077E-4,0.032465935,256.0,-4.7583513,14.754232,-0.016723633,-0.0029296875,-0.004837036,2.4772666,0.7869971,9.455907
34.79421755,31.25845971,0.0,0.0,10-58-14,5.643368E-4,-0.019715846,0.062088966,256.0,-4.859282,14.732681,0.019866943,-0.013473511,-0.014221191,2.4845574,0.7774213,9.454786
34.79421755,31.25845971,0.0,0.0,10-58-15,5.643368E-4,-0.019715846,0.062088966,256.0,-4.8046775,14.79448,0.019866943,-0.013473511,-0.014221191,2.4845574,0.7774213,9.454786
34.79421755,31.25845971,0.0,0.0,10-58-15,-0.040788174,0.027436852,-0.046747208,256.0,-4.9772935,14.791659,0.0045776367,-0.012710571,-0.008407593,2.4837325,0.80700773,9.452523
34.79421755,31.25845971,0.0,0.0,10-58-15,-0.040788174,0.027436852,-0.046747208,256.0,-5.1852126,14.875432,0.0045776367,-0.012710571,-0.008407593,2.4837325,0.80700773,9.452523
34.79421755,31.25845971,0.0,0.0,10-58-15,-0.0013511181,0.0032535791,0.021345139,256.0,-5.4193163,14.91608,0.03427124,-0.011566162,-0.003250122,2.501527,0.8412329,9.444844
34.79421755,31.25845971,0.0,0.0,10-58-15,-0.0013511181,0.0032535791,0.021345139,256.0,-5.2119503,15.011298,0.03427124,-0.011566162,-0.003250122,2.501527,0.8412329,9.444844
34.79421755,31.25845971,0.0,0.0,10-58-15,-0.02567625,0.009709775,-0.04621601,256.0,-4.920002,15.105021,-0.040481567,-0.015197754,0.022888184,2.525807,0.86665064,9.43608
34.79421755,31.25845971,0.0,0.0,10-58-15,-0.02567625,0.009709775,-0.04621601,256.0,-5.0802894,15.114098,-0.040481567,-0.015197754,0.022888184,2.525807,0.86665064,9.43608
34.79421755,31.25845971,0.0,0.0,10-58-15,-3.2186508E-5,-0.016686797,0.029690742,256.0,-5.197803,15.141445,0.026382446,-0.006866455,-0.0031280518,2.548396,0.84039736,9.432381
34.79421755,31.25845971,0.0,0.0,10-58-15,-3.2186508E-5,-0.016686797,0.029690742,256.0,-5.309681,15.191626,0.026382446,-0.006866455,-0.0031280518,2.548396,0.84039736,9.432381
34.79421755,31.25845971,0.0,0.0,10-58-15,6.313324E-4,-0.01027143,-6.017685E-4,256.0,-5.19857,15.213562,0.004333496,-0.007751465,0.008682251,2.5651574,0.8584238,9.426211
34.79421755,31.25845971,0.0,0.0,10-58-16,6.313324E-4,-0.01027143,-6.017685E-4,256.0,-5.1555333,15.277885,0.004333496,-0.007751465,0.008682251,2.5651574,0.8584238,9.426211
34.79421755,31.25845971,0.0,0.0,10-58-16,-0.0016467571,-0.015453637,-0.016257286,256.0,-5.3000507,15.246278,0.014862061,8.087158E-4,-0.0035247803,2.5766563,0.8631469,9.422643
34.79421755,31.25845971,0.0,0.0,10-58-16,-0.0016467571,-0.015453637,-0.016257286,256.0,-5.218248,15.282041,0.014862061,8.087158E-4,-0.0035247803,2.5766563,0.8631469,9.422643
34.79421755,31.25845971,0.0,0.0,10-58-16,0.0039389133,-0.009296,-0.049108505,256.0,-4.822122,15.158991,-0.04762268,0.004623413,-0.01550293,2.5818563,0.84129536,9.423196
34.79421755,31.25845971,0.0,0.0,10-58-16,0.0039389133,-0.009296,-0.049108505,256.0,-4.9047747,15.172866,-0.04762268,0.004623413,-0.01550293,2.5818563,0.84129536,9.423196
34.79421755,31.25845971,0.0,0.0,10-58-16,-0.02308321,-0.004496813,0.11204529,256.0,-5.3855977,15.230448,0.052322388,-0.007888794,0.0045928955,2.5574446,0.82585746,9.431215
34.79421755,31.25845971,0.0,0.0,10-58-16,-0.02308321,-0.004496813,0.11204529,256.0,-5.487995,15.216391,0.052322388,-0.007888794,0.0045928955,2.5574446,0.82585746,9.431215
34.79421755,31.25845971,0.0,0.0,10-58-16,0.0035204887,0.018715322,-0.05280018,257.0,-5.1017456,15.248802,-0.03250122,-0.0035552979,-0.0063323975,2.5740242,0.87196535,9.42255
34.79421755,31.25845971,0.0,0.0,10-58-16,0.0035204887,0.018715322,-0.05280018,257.0,-5.039604,15.133302,-0.03250122,-0.0035552979,-0.0063323975,2.5740242,0.87196535,9.42255
34.79421755,31.25845971,0.0,0.0,10-58-16,-0.028364897,-0.023629785,0.04462242,256.0,-5.373525,15.207994,0.036849976,-0.0070495605,0.007369995,2.5583458,0.86102617,9.427825
34.79421755,31.25845971,0.0,0.0,10-58-17,-0.009166956,-0.0030115247,-0.036784172,256.0,-5.7606745,15.221144,0.036849976,-0.0070495605,0.007369995,2.5676043,0.88914496,9.422697
34.79421755,31.25845971,0.0,0.0,10-58-17,-0.009166956,-0.0030115247,-0.036784172,256.0,-5.4707613,15.248316,0.0011901855,-0.004852295,-9.460449E-4,2.5676043,0.88914496,9.422697
34.79421755,31.25845971,0.0,0.0,10-58-17,-0.01459527,-0.024950743,0.019443512,257.0,-5.2739,15.185919,0.0011901855,-0.004852295,-9.460449E-4,2.5656972,0.89972603,9.422213
34.79421755,31.25845971,0.0,0.0,10-58-17,-0.01459527,-0.024950743,0.019443512,257.0,-5.439607,15.06502,0.0082092285,0.007949829,-0.007095337,2.5656972,0.89972603,9.422213
34.79421755,31.25845971,0.0,0.0,10-58-17,-0.046287775,0.014496386,0.010597229,257.0,-5.4373465,14.970196,0.0082092285,0.007949829,-0.007095337,2.5390918,0.88787144,9.43054
34.79421755,31.25845971,0.0,0.0,10-58-17,-0.046287775,0.014496386,0.010597229,257.0,-5.427718,14.977243,-0.006958008,-0.005584717,-0.0037384033,2.5390918,0.88787144,9.43054
34.79421755,31.25845971,0.0,0.0,10-58-17,-0.019965649,3.745556E-4,0.042526245,257.0,-5.3671045,14.998912,-0.006958008,-0.005584717,-0.0037384033,2.5255191,0.8888291,9.434093
34.79421755,31.25845971,0.0,0.0,10-58-17,-0.019965649,3.745556E-4,0.042526245,257.0,-5.364949,14.968417,-0.006652832,-0.003479004,-0.008010864,2.5255191,0.8888291,9.434093
34.79421755,31.25845971,0.0,0.0,10-58-17,-0.011009455,0.024797559,-0.052078247,257.0,-5.3403406,15.010327,-0.006652832,-0.003479004,-0.008010864,2.531279,0.8889505,9.432539
34.79421755,31.25845971,0.0,0.0,10-58-17,-0.011009455,0.024797559,-0.052078247,257.0,-5.3550935,15.003435,0.0015411377,0.0060424805,-0.0012664795,2.531279,0.8889505,9.432539
34.79421755,31.25845971,0.0,0.0,10-58-18,0.032092094,-0.033931255,0.04935646,257.0,-5.45637,14.945684,0.0015411377,0.0060424805,-0.0012664795,2.5358424,0.88227403,9.431939
34.79421755,31.25845971,0.0,0.0,10-58-18,0.032092094,-0.033931255,0.04935646,257.0,-5.199408,14.919153,-0.017944336,4.4250488E-4,0.0015716553,2.5358424,0.88227403,9.431939
34.79421755,31.25845971,0.0,0.0,10-58-18,-0.03165126,0.019306958,0.007928848,257.0,-5.0834193,14.891469,-0.017944336,4.4250488E-4,0.0015716553,2.5181901,0.8745255,9.437389
34.79421755,31.25845971,0.0,0.0,10-58-18,-0.03165126,0.019306958,0.007928848,257.0,-4.8132224,14.906409,-0.033416748,7.9345703E-4,-0.0023040771,2.5181901,0.8745255,9.437389
34.79421755,31.25845971,0.0,0.0,10-58-18,0.014106035,0.0014200807,-0.04703331,257.0,-4.6634955,14.8935,-0.033416748,7.9345703E-4,-0.0023040771,2.5298064,0.80951077,9.440083
34.79421755,31.25845971,0.0,0.0,10-58-18,0.014106035,0.0014200807,-0.04703331,257.0,-4.8681293,14.895562,0.0050811768,-4.272461E-4,0.0032806396,2.5298064,0.80951077,9.440083
34.79421755,31.25845971,0.0,0.0,10-58-18,-0.03163004,-0.018121302,0.0219841,257.0,-4.9297953,14.893179,0.0050811768,-4.272461E-4,0.0032806396,2.5143106,0.7882734,9.446018
34.79421755,31.25845971,0.0,0.0,10-58-18,-0.03163004,-0.018121302,0.0219841,257.0,-5.096528,14.952184,0.026824951,-0.0072631836,0.0058898926,2.5143106,0.7882734,9.446018
34.79421755,31.25845971,0.0,0.0,10-58-18,0.0059268475,0.0036942959,0.0033111572,257.0,-4.843134,14.99351,0.026824951,-0.0072631836,0.0058898926,2.5255349,0.817444,9.440543
34.79421755,31.25845971,0.0,0.0,10-58-18,0.0059268475,0.0036942959,0.0033111572,257.0,-4.7423997,15.039757,-0.032928467,-0.008102417,-0.0010528564,2.5255349,0.817444,9.440543
34.79421755,31.25845971,0.0,0.0,10-58-19,-0.0030927658,0.015758753,-0.024342537,257.0,-4.6213903,15.015727,-0.032928467,-0.008102417,-0.0010528564,2.5402606,0.80569893,9.437601
34.79421755,31.25845971,0.0,0.0,10-58-19,-0.0030927658,0.015758753,-0.024342537,257.0,-4.5442777,15.015771,-0.022109985,-0.00390625,-0.010925293,2.5402606,0.80569893,9.437601
34.79421755,31.25845971,0.0,0.0,10-58-19,-0.032236338,-0.040828407,0.062073708,257.0,-4.5135055,15.016135,-0.022109985,-0.00390625,-0.010925293,2.5292165,0.7502556,9.445134
34.79421755,31.25845971,0.0,0.0,10-58-19,-0.032236338,-0.040828407,0.062073708,257.0,-4.5743203,14.995649,0.010925293,-0.0029754639,0.009841919,2.5292165,0.7502556,9.445134
34.79421755,31.25845971,0.0,0.0,10-58-19,-0.022823334,-0.0010822415,-0.048960686,257.0,-4.598257,14.964374,0.010925293,-0.0029754639,0.009841919,2.52987,0.7496703,9.445006
34.79421755,31.25845971,0.0,0.0,10-58-19,-0.022823334,-0.0010822415,-0.048960686,256.0,-4.5738697,14.946683,0.0060577393,-0.0044555664,0.004135132,2.52987,0.7496703,9.445006
34.79421755,31.25845971,0.0,0.0,10-58-19,-0.019747257,-0.022687614,0.04497528,257.0,-4.640587,14.959739,0.0060577393,-0.0044555664,0.004135132,2.5217931,0.7556711,9.446688
34.79421755,31.25845971,0.0,0.0,10-58-19,-0.019747257,-0.022687614,0.04497528,256.0,-4.789513,14.934145,0.020446777,9.3078613E-4,0.0024414063,2.5217931,0.7556711,9.446688
34.79421755,31.25845971,0.0,0.0,10-58-19,-0.020354986,-0.0057058334,-0.028069496,256.0,-4.626746,14.891291,0.020446777,9.3078613E-4,0.0024414063,2.515587,0.7744596,9.446821
34.79421755,31.25845971,0.0,0.0,10-58-19,-0.020354986,-0.0057058334,-0.028069496,257.0,-4.61883,14.856242,-0.018081665,5.0354004E-4,-0.003921509,2.515587,0.7744596,9.446821
34.79421755,31.25845971,0.0,0.0,10-58-20,-0.0072422028,0.001694262,0.013607025,257.0,-4.589139,14.8530245,-0.018081665,5.0354004E-4,-0.003921509,2.5098605,0.76465285,9.449142
34.79421755,31.25845971,0.0,0.0,10-58-20,-0.0072422028,0.001694262,0.013607025,257.0,-4.995199,14.89936,0.03526306,-0.0021820068,0.0034179688,2.5098605,0.76465285,9.449142
34.79421755,31.25845971,0.0,0.0,10-58-20,0.0028743744,0.0047115088,0.016843796,257.0,-4.9723363,14.946129,0.03526306,-0.0021820068,0.0034179688,2.516165,0.78636914,9.445683
34.79421755,31.25845971,0.0,0.0,10-58-20,0.0028743744,0.0047115088,0.016843796,257.0,-4.926943,14.914297,-0.0066375732,-0.0028381348,-0.0042419434,2.516165,0.78636914,9.445683
34.79421755,31.25845971,0.0,0.0,10-58-20,7.6031685E-4,0.0030015707,-0.04292965,257.0,-4.840063,14.892228,-0.0066375732,-0.0028381348,-0.0042419434,2.522297,0.8150238,9.441617
34.79421755,31.25845971,0.0,0.0,10-58-20,7.6031685E-4,0.0030015707,-0.04292965,257.0,-4.8154354,14.899674,-0.004989624,-0.0033416748,0.0016021729,2.522297,0.8150238,9.441617
34.79421755,31.25845971,0.0,0.0,10-58-20,-0.02445817,-0.00939846,0.040460587,257.0,-4.845775,14.773307,-0.004989624,-0.0033416748,0.0016021729,2.50438,0.8028614,9.447427
34.79421755,31.25845971,0.0,0.0,10-58-20,-0.02445817,-0.00939846,0.040460587,257.0,-4.8645687,14.803372,0.006576538,-9.460449E-4,-0.0033416748,2.50438,0.8028614,9.447427
34.79421755,31.25845971,0.0,0.0,10-58-20,-0.016819954,-0.012839735,0.06285095,257.0,-5.2423034,14.860964,0.006576538,-9.460449E-4,-0.0033416748,2.4979887,0.8108561,9.448436
34.79421755,31.25845971,0.0,0.0,10-58-20,-0.016819954,-0.012839735,0.06285095,257.0,-5.04685,14.882065,0.0017242432,-0.009017944,-0.002166748,2.4979887,0.8108561,9.448436
34.79421755,31.25845971,0.0,0.0,10-58-21,-0.018988132,0.018880546,-0.067780495,257.0,-4.9349227,14.887768,0.0017242432,-0.009017944,-0.002166748,2.5119944,0.8236579,9.443615
34.79421755,31.25845971,0.0,0.0,10-58-21,-0.018988132,0.018880546,-0.067780495,256.0,-4.7479877,14.893467,-0.0146484375,-0.0067749023,0.0035858154,2.5119944,0.8236579,9.443615
34.79421755,31.25845971,0.0,0.0,10-58-21,-0.012210131,0.001136303,0.04353714,257.0,-4.895459,15.025912,-0.0146484375,-0.0067749023,0.0035858154,2.5160391,0.8009444,9.444491
34.79421755,31.25845971,0.0,0.0,10-58-21,-0.012210131,0.001136303,0.04353714,256.0,-4.9229903,14.977896,0.018157959,-0.005432129,-2.4414063E-4,2.5160391,0.8009444,9.444491
34.79421755,31.25845971,0.0,0.0,10-58-21,4.5585632E-4,-0.013266504,-0.009194374,257.0,-4.8405566,15.035024,0.018157959,-0.005432129,-2.4414063E-4,2.527742,0.8033378,9.441163
34.79421755,31.25845971,0.0,0.0,10-58-21,4.5585632E-4,-0.013266504,-0.009194374,256.0,-4.8303614,15.019605,-0.011306763,-0.009216309,-0.004714966,2.5299604,0.80970913,9.440024
34.79421755,31.25845971,0.0,0.0,10-58-21,-0.025575876,-0.005084336,-0.01587677,257.0,-4.9829617,15.03305,-0.011306763,-0.009216309,-0.004714966,2.5299604,0.80970913,9.440024
34.79421755,31.25845971,0.0,0.0,10-58-21,-0.00872612,0.01262033,-0.033904076,257.0,-4.672334,15.000537,-0.02507019,4.4250488E-4,-0.010101318,2.5380354,0.7832102,9.440093
34.79421755,31.25845971,0.0,0.0,10-58-21,-0.00872612,0.01262033,-0.033904076,257.0,-4.4165525,15.011359,-0.02507019,4.4250488E-4,-0.010101318,2.5380354,0.7832102,9.440093
34.79421755,31.25845971,0.0,0.0,10-58-21,-0.0019772053,-0.025608718,0.031287193,257.0,-4.6128798,15.041661,0.005203247,-0.0079956055,-0.0040130615,2.5400724,0.7538953,9.441931
34.79421755,31.25845971,0.0,0.0,10-58-22,-0.0019772053,-0.025608718,0.031287193,257.0,-4.6451774,15.074378,0.005203247,-0.0079956055,-0.0040130615,2.5400724,0.7538953,9.441931
34.79421755,31.25845971,0.0,0.0,10-58-22,-0.010617971,0.009682655,0.028780937,257.0,-4.8121934,15.128603,0.005203247,-0.0079956055,-0.0040130615,2.5514846,0.77976036,9.436751
34.79421755,31.25845971,0.0,0.0,10-58-22,-0.010617971,0.009682655,0.028780937,257.0,-4.6205606,15.210056,0.0137786865,-0.01411438,-0.0017852783,2.5514846,0.77976036,9.436751
34.79421755,31.25845971,0.0,0.0,10-58-22,-0.010617971,0.009682655,0.028780937,257.0,-4.640976,15.194259,0.0137786865,-0.01411438,-0.0017852783,2.5514846,0.77976036,9.436751
34.79421755,31.25845971,0.0,0.0,10-58-22,-0.022265911,-0.002507031,-0.029921532,257.0,-4.61213,15.251137,-0.013580322,-0.0061187744,-0.002456665,2.5632944,0.77976894,9.43355
34.79421755,31.25845971,0.0,0.0,10-58-22,-0.0019881725,-0.006626129,-0.009688377,257.0,-4.4223013,15.214949,-0.013580322,-0.0061187744,-0.002456665,2.5733445,0.74629724,9.433521
34.79421755,31.25845971,0.0,0.0,10-58-22,-0.0019881725,-0.006626129,-0.009688377,257.0,-4.4649243,15.281584,-0.02027893,-0.0047302246,-0.006134033,2.5733445,0.74629724,9.433521
34.79421755,31.25845971,0.0,0.0,10-58-22,-0.017139196,-0.0076824427,0.010726929,257.0,-4.7639227,15.399256,-0.02027893,-0.0047302246,-0.006134033,2.5845225,0.7531847,9.429917
34.79421755,31.25845971,0.0,0.0,10-58-22,-0.017139196,-0.0076824427,0.010726929,257.0,-4.7327666,15.483499,0.035369873,-0.013549805,0.007659912,2.5845225,0.7531847,9.429917
34.79421755,31.25845971,0.0,0.0,10-58-22,0.014033556,-0.026293218,-0.047495842,257.0,-4.694085,15.374289,0.035369873,-0.013549805,0.007659912,2.6096244,0.7690089,9.421723
34.79421755,31.25845971,0.0,0.0,10-58-23,0.014033556,-0.026293218,-0.047495842,257.0,-4.6393433,15.314863,-3.5095215E-4,0.0028076172,3.8146973E-4,2.6096244,0.7690089,9.421723
34.79421755,31.25845971,0.0,0.0,10-58-23,-0.028966665,-0.01105392,0.08331394,257.0,-4.4735856,15.274704,-3.5095215E-4,0.0028076172,3.8146973E-4,2.581204,0.74874103,9.43118
34.79421755,31.25845971,0.0,0.0,10-58-23,-0.028966665,-0.01105392,0.08331394,257.0,-4.598215,15.264839,-0.018295288,9.918213E-4,-0.0016174316,2.581204,0.74874103,9.43118
34.79421755,31.25845971,0.0,0.0,10-58-23,-0.0017044544,-0.0072880387,0.039212227,257.0,-4.912347,15.111376,-0.018295288,9.918213E-4,-0.0016174316,2.5662694,0.7640251,9.43403
34.79421755,31.25845971,0.0,0.0,10-58-23,-0.0017044544,-0.0072880387,0.039212227,257.0,-4.956056,15.120386,0.038391113,0.008712769,-8.8500977E-4,2.5662694,0.7640251,9.43403
34.79421755,31.25845971,0.0,0.0,10-58-23,0.020581007,0.028975844,-0.06958389,257.0,-4.710519,15.106876,0.038391113,0.008712769,-8.8500977E-4,2.562593,0.80370224,9.431732
34.79421755,31.25845971,0.0,0.0,10-58-23,0.020581007,0.028975844,-0.06958389,257.0,-4.9107714,15.108165,-0.025177002,0.003753662,-0.010192871,2.562593,0.80370224,9.431732
34.79421755,31.25845971,0.0,0.0,10-58-23,-0.04008627,-0.005016327,0.06223488,257.0,-5.1881375,15.235037,-0.025177002,0.003753662,-0.010192871,2.5438359,0.81818974,9.435563
34.79421755,31.25845971,0.0,0.0,10-58-23,-0.04008627,-0.005016327,0.06223488,257.0,-5.2292633,15.3309355,0.047348022,-0.022613525,0.0016479492,2.5438359,0.81818974,9.435563
34.79421755,31.25845971,0.0,0.0,10-58-23,0.005236149,0.017667472,-0.02260685,257.0,-5.121193,15.388218,0.047348022,-0.022613525,0.0016479492,2.5845265,0.857143,9.421036
34.79421755,31.25845971,0.0,0.0,10-58-24,0.005236149,0.017667472,-0.02260685,257.0,-5.1154146,15.354554,-0.019851685,-0.011566162,-0.009933472,2.5845265,0.857143,9.421036
34.79421755,31.25845971,0.0,0.0,10-58-24,-0.021916866,-0.019853055,-0.036953926,257.0,-4.9702654,15.19094,-0.019851685,-0.011566162,-0.009933472,2.587572,0.8372749,9.421987
34.79421755,31.25845971,0.0,0.0,10-58-24,-0.021916866,-0.019853055,-0.036953926,257.0,-4.977418,15.118161,-0.007827759,0.015029907,-0.011367798,2.587572,0.8372749,9.421987
34.79421755,31.25845971,0.0,0.0,10-58-24,-0.027156591,-0.00977391,0.11740875,257.0,-5.2689,15.0292845,-0.007827759,0.015029907,-0.011367798,2.5474076,0.8314632,9.433439
34.79421755,31.25845971,0.0,0.0,10-58-24,-0.027156591,-0.00977391,0.11740875,257.0,-5.2712097,15.087771,0.02709961,-0.0051116943,-0.02067566,2.5474076,0.8314632,9.433439
34.79421755,31.25845971,0.0,0.0,10-58-24,-0.06054163,6.0021877E-5,-0.025550842,257.0,-5.132435,15.2512045,0.02709961,-0.0051116943,-0.02067566,2.5461745,0.8507786,9.43205
34.79421755,31.25845971,0.0,0.0,10-58-24,-0.06054163,6.0021877E-5,-0.025550842,257.0,-4.8932943,15.326866,-0.028900146,-0.027282715,9.3078613E-4,2.5461745,0.8507786,9.43205
34.79421755,31.25845971,0.0,0.0,10-58-24,0.0070533752,0.004697919,-0.05143547,257.0,-4.9379263,15.295481,-0.028900146,-0.027282715,9.3078613E-4,2.5851276,0.83779407,9.422611
34.79421755,31.25845971,0.0,0.0,10-58-24,0.0070533752,0.004697919,-0.05143547,257.0,-4.777653,15.300962,-0.012435913,0.0041046143,-0.0028686523,2.5851276,0.83779407,9.422611
34.79421755,31.25845971,0.0,0.0,10-58-24,0.009617567,-0.025308728,0.0016670227,257.0,-4.779276,15.299497,-0.012435913,0.0041046143,-0.0028686523,2.5839663,0.80533457,9.425759
34.79421755,31.25845971,0.0,0.0,10-58-25,0.009617567,-0.025308728,0.0016670227,257.0,-4.581132,15.260439,-0.00894165,-5.493164E-4,0.0043945313,2.5839663,0.80533457,9.425759
34.79421755,31.25845971,0.0,0.0,10-58-25,0.029344797,0.022811472,-0.014138222,257.0,-4.587546,15.158163,-0.00894165,-5.493164E-4,0.0043945313,2.5848794,0.7867891,9.427075
34.79421755,31.25845971,0.0,0.0,10-58-25,0.029344797,0.022811472,-0.014138222,257.0,-4.94553,15.163082,0.004272461,0.011871338,0.0040893555,2.5848794,0.7867891,9.427075
34.79421755,31.25845971,0.0,0.0,10-58-25,-0.053263903,-0.03982222,0.013502121,257.0,-5.0689487,15.130178,0.004272461,0.011871338,0.0040893555,2.5583708,0.7872265,9.434268
34.79421755,31.25845971,0.0,0.0,10-58-25,-0.053263903,-0.03982222,0.013502121,257.0,-4.924952,15.09476,0.029968262,-0.005844116,0.009277344,2.5583708,0.7872265,9.434268
34.79421755,31.25845971,0.0,0.0,10-58-25,-0.04300618,-0.016637981,0.056100845,257.0,-4.9362836,15.0985565,0.029968262,-0.005844116,0.009277344,2.546154,0.8162839,9.435103
34.79421755,31.25845971,0.0,0.0,10-58-25,-0.04300618,-0.016637981,0.056100845,257.0,-4.910967,15.206069,-8.69751E-4,-0.011260986,-0.0071258545,2.546154,0.8162839,9.435103
34.79421755,31.25845971,0.0,0.0,10-58-25,0.02564907,-0.007861733,0.0076503754,257.0,-5.0987973,15.361913,-8.69751E-4,-0.011260986,-0.0071258545,2.5738096,0.8142316,9.427774
34.79421755,31.25845971,0.0,0.0,10-58-25,0.02564907,-0.007861733,0.0076503754,257.0,-5.051137,15.323863,0.012420654,-0.011795044,-0.0028381348,2.5738096,0.8142316,9.427774
34.79421755,31.25845971,0.0,0.0,10-58-25,0.01381731,0.010587037,-0.079193115,257.0,-4.9622164,15.378865,0.012420654,-0.011795044,-0.0028381348,2.6012948,0.8313841,9.418729
34.79421755,31.25845971,0.0,0.0,10-58-26,0.01381731,0.010587037,-0.079193115,257.0,-4.5669837,15.320036,-0.025802612,0.0066070557,-4.8828125E-4,2.6012948,0.8313841,9.418729
34.79421755,31.25845971,0.0,0.0,10-58-26,-0.017368317,0.009038091,0.019756317,257.0,-4.385197,15.264849,-0.025802612,0.0066070557,-4.8828125E-4,2.5831075,0.7811965,9.428026
34.79421755,31.25845971,0.0,0.0,10-58-26,-0.017368317,0.009038091,0.019756317,257.0,-4.658035,15.243928,-0.031661987,-0.00579834,-0.0076446533,2.5831075,0.7811965,9.428026
34.79421755,31.25845971,0.0,0.0,10-58-26,-0.03799963,-0.023698866,0.031357765,257.0,-5.090993,15.193458,-0.031661987,-0.00579834,-0.0076446533,2.5652764,0.7503524,9.435397
34.79421755,31.25845971,0.0,0.0,10-58-26,-0.03799963,-0.023698866,0.031357765,257.0,-5.585351,15.296693,0.07243347,-0.00579834,-0.006088257,2.5652764,0.7503524,9.435397
34.79421755,31.25845971,0.0,0.0,10-58-26,0.0011265278,-0.03148192,0.07039642,257.0,-5.713502,15.365436,0.07243347,-0.00579834,-0.006088257,2.5777028,0.8486087,9.423677
34.79421755,31.25845971,0.0,0.0,10-58-26,0.0011265278,-0.03148192,0.07039642,257.0,-4.8794184,15.345067,0.01878357,-0.016326904,-0.018539429,2.5777028,0.8486087,9.423677
34.79421755,31.25845971,0.0,0.0,10-58-26,-0.06218314,0.042029798,-0.099326134,257.0,-5.0227485,15.254777,0.01878357,-0.016326904,-0.018539429,2.5810595,0.8806493,9.419818
34.79421755,31.25845971,0.0,0.0,10-58-26,-0.06218314,0.042029798,-0.099326134,257.0,-5.360226,15.209728,-0.044403076,-0.0022583008,-0.013458252,2.5810595,0.8806493,9.419818
34.79421755,31.25845971,0.0,0.0,10-58-26,-0.033552647,0.025879204,0.008154869,257.0,-5.33514,15.186497,-0.044403076,-0.0022583008,-0.013458252,2.572196,0.8489548,9.425151
34.79421755,31.25845971,0.0,0.0,10-58-27,0.020061255,-0.0055840015,0.049236298,257.0,-5.441665,15.186364,0.016082764,0.008087158,7.6293945E-5,2.5664284,0.8906803,9.422872
34.79421755,31.25845971,0.0,0.0,10-58-27,0.020061255,-0.0055840015,0.049236298,257.0,-5.6975336,15.225381,0.016082764,0.008087158,7.6293945E-5,2.5664284,0.8906803,9.422872
34.79421755,31.25845971,0.0,0.0,10-58-27,0.020061255,-0.0055840015,0.049236298,257.0,-5.7112284,15.185425,0.051712036,-5.340576E-4,0.013946533,2.5699763,0.91507626,9.419567
34.79421755,31.25845971,0.0,0.0,10-58-27,0.017992258,-0.020885587,-0.037498474,257.0,-5.167727,15.049527,0.051712036,-5.340576E-4,0.013946533,2.5699763,0.91507626,9.419567
34.79421755,31.25845971,0.0,0.0,10-58-27,0.007187605,-0.07038629,0.0120716095,257.0,-5.0008335,14.941169,-0.07029724,0.024169922,0.016143799,2.5512774,0.85917485,9.429909
34.79421755,31.25845971,0.0,0.0,10-58-27,0.007187605,-0.07038629,0.0120716095,257.0,-5.1886077,15.03015,-0.07029724,0.024169922,0.016143799,2.5512774,0.85917485,9.429909
34.79421755,31.25845971,0.0,0.0,10-58-27,0.006276369,0.024151325,0.016915321,257.0,-5.102128,14.943383,0.023254395,-5.340576E-4,-0.014907837,2.5322385,0.8349937,9.437211
34.79421755,31.25845971,0.0,0.0,10-58-27,0.006276369,0.024151325,0.016915321,257.0,-5.170548,14.874979,0.023254395,-5.340576E-4,-0.014907837,2.5322385,0.8349937,9.437211
34.79421755,31.25845971,0.0,0.0,10-58-27,-0.008009195,0.009826064,-0.0057058334,257.0,-5.4077244,14.791036,0.014144897,0.008926392,-0.0061187744,2.520344,0.8664025,9.437563
34.79421755,31.25845971,0.0,0.0,10-58-27,-0.008009195,0.009826064,-0.0057058334,257.0,-5.54399,14.612311,0.014144897,0.008926392,-0.0061187744,2.520344,0.8664025,9.437563
34.79421755,31.25845971,0.0,0.0,10-58-28,-0.06688118,0.008159041,0.014037132,257.0,-5.4128838,14.563068,0.021240234,0.00819397,0.003982544,2.4698324,0.89912724,9.447851
34.79421755,31.25845971,0.0,0.0,10-58-28,-0.06688118,0.008159041,0.014037132,257.0,-5.673069,14.520986,0.021240234,0.00819397,0.003982544,2.4698324,0.89912724,9.447851
34.79421755,31.25845971,0.0,0.0,10-58-28,-0.027786016,-0.033537865,0.056007385,257.0,-5.842297,14.562332,0.016571045,-8.087158E-4,-0.007217407,2.448751,0.9240704,9.450932
34.79421755,31.25845971,0.0,0.0,10-58-28,-0.027786016,-0.033537865,0.056007385,257.0,-5.8684616,14.57128,0.016571045,-8.087158E-4,-0.007217407,2.448751,0.9240704,9.450932
34.79421755,31.25845971,0.0,0.0,10-58-28,-0.049743652,-0.015261173,0.023475647,257.0,-5.7765436,14.593756,0.0068206787,-0.017807007,-0.021911621,2.4462016,0.9529382,9.448725
34.79421755,31.25845971,0.0,0.0,10-58-28,-0.049743652,-0.015261173,0.023475647,258.0,-5.9016476,14.716815,0.0068206787,-0.017807007,-0.021911621,2.4462016,0.9529382,9.448725
34.79421755,31.25845971,0.0,0.0,10-58-28,0.0036826134,0.066933155,-0.039206505,258.0,-5.4932795,14.571552,-0.01574707,-0.020431519,-0.025604248,2.4725156,0.9637734,9.440773
34.79421755,31.25845971,0.0,0.0,10-58-28,0.0036826134,0.066933155,-0.039206505,258.0,-5.3594728,14.681836,-0.01574707,-0.020431519,-0.025604248,2.4725156,0.9637734,9.440773
34.79421755,31.25845971,0.0,0.0,10-58-28,0.013385534,-0.030192792,0.03472328,258.0,-5.5383067,14.921207,-0.03187561,-0.005722046,-0.0074310303,2.4964955,0.9141736,9.439396
34.79421755,31.25845971,0.0,0.0,10-58-28,0.013385534,-0.030192792,0.03472328,257.0,-5.623025,14.979126,-0.03187561,-0.005722046,-0.0074310303,2.4964955,0.9141736,9.439396
34.79421755,31.25845971,0.0,0.0,10-58-29,0.0032887459,0.023928225,-0.030605316,258.0,-5.6303225,15.084167,-0.001739502,-0.016082764,0.0024719238,2.5295267,0.92144424,9.42989
34.79421755,31.25845971,0.0,0.0,10-58-29,0.0032887459,0.023928225,-0.030605316,258.0,-5.901953,15.230737,-0.001739502,-0.016082764,0.0024719238,2.5295267,0.92144424,9.42989
34.79421755,31.25845971,0.0,0.0,10-58-29,0.024169207,-0.009968221,0.02088356,258.0,-6.1952367,15.277389,0.043899536,-0.016647339,0.0024261475,2.5613606,0.9661985,9.416808
34.79421755,31.25845971,0.0,0.0,10-58-29,0.024169207,-0.009968221,0.02088356,257.0,-6.0902205,15.382103,0.043899536,-0.016647339,0.0024261475,2.5613606,0.9661985,9.416808
34.79421755,31.25845971,0.0,0.0,10-58-29,0.0063488483,-0.025864065,-0.052930832,257.0,-5.9702272,15.401914,0.0055999756,-0.0071105957,0.009567261,2.5947382,0.99218726,9.404961
34.79421755,31.25845971,0.0,0.0,10-58-29,0.0063488483,-0.025864065,-0.052930832,257.0,-5.8136926,15.4020605,0.0055999756,-0.0071105957,0.009567261,2.5947382,0.99218726,9.404961
34.79421755,31.25845971,0.0,0.0,10-58-29,-0.026447058,0.005587578,0.0016260147,257.0,-5.6196766,15.375619,-0.0234375,-0.007598877,0.0038757324,2.6014662,0.9564778,9.406801
34.79421755,31.25845971,0.0,0.0,10-58-29,-0.026447058,0.005587578,0.0016260147,258.0,-5.533386,15.374913,-0.0234375,-0.007598877,0.0038757324,2.6014662,0.9564778,9.406801
34.79421755,31.25845971,0.0,0.0,10-58-29,-0.026543379,-0.011218309,0.008266449,257.0,-5.389881,15.306074,-0.020553589,-3.2043457E-4,-0.011505127,2.5910647,0.9070971,9.41456
34.79421755,31.25845971,0.0,0.0,10-58-29,-0.026543379,-0.011218309,0.008266449,257.0,-5.290387,15.309117,-0.020553589,-3.2043457E-4,-0.011505127,2.5910647,0.9070971,9.41456
34.79421755,31.25845971,0.0,0.0,10-58-30,-0.00637269,-0.0026404858,0.011861801,257.0,-5.4330244,15.290649,-0.008331299,-0.0010223389,-0.0022735596,2.587402,0.8870487,9.417478
34.79421755,31.25845971,0.0,0.0,10-58-30,-0.00637269,-0.0026404858,0.011861801,257.0,-5.5393257,15.293968,-0.008331299,-0.0010223389,-0.0022735596,2.587402,0.8870487,9.417478
34.79421755,31.25845971,0.0,0.0,10-58-30,-0.0030846596,-0.0019654632,0.022676468,257.0,-5.199911,15.231234,0.024597168,0.0039520264,0.0037078857,2.5801382,0.9001975,9.418222
