Longitude,Latitude,Speed,Distance,Time,Acc X,Acc Y,Acc Z,Heading,Pitch,Roll,gyro_x,gyro_y,gyro_z,gravity_x,gravity_y,gravity_z
34.80521749,31.26506446,0.0,2.6391814,12-21-13,-0.12226629,-0.02160135,0.2982912,255.0,-1.6290618,-24.260653,0.01676941,-0.04458618,-0.019744873,-4.0008936,0.24792929,8.94996
34.80521749,31.26506446,0.0,2.6391814,12-21-13,-0.12226629,-0.02160135,0.2982912,255.0,-1.6290618,-24.260653,0.01676941,-0.04458618,-0.019744873,-4.0008936,0.24792929,8.94996
34.80521749,31.26506446,0.0,2.6391814,12-21-13,-0.12226629,-0.02160135,0.2982912,255.0,-1.6290618,-24.260653,0.01676941,-0.04458618,-0.019744873,-4.0008936,0.24792929,8.94996
34.80521749,31.26506446,0.0,2.6391814,12-21-13,-0.12226629,-0.02160135,0.2982912,255.0,-1.6290618,-24.260653,0.01676941,-0.04458618,-0.019744873,-4.0008936,0.24792929,8.94996
34.80521749,31.26506446,0.0,2.6391814,12-21-13,-0.12226629,-0.02160135,0.2982912,255.0,-1.6290618,-24.260653,0.01676941,-0.04458618,-0.019744873,-4.0008936,0.24792929,8.94996
34.80521749,31.26506446,0.0,2.6391814,12-21-13,0.08491135,0.05042988,-0.13218784,255.0,-1.5485636,-24.502262,-0.03907776,0.057617188,0.05180359,-4.010795,0.2624468,8.945112
34.80521749,31.26506446,0.0,2.6391814,12-21-13,0.08491135,0.05042988,-0.13218784,255.0,-1.5485636,-24.502262,-0.03907776,0.057617188,0.05180359,-4.010795,0.2624468,8.945112
34.80521749,31.26506446,0.0,2.6391814,12-21-13,0.08491135,0.05042988,-0.13218784,254.0,-1.4964286,-24.73497,-0.03907776,0.057617188,0.05180359,-4.010795,0.2624468,8.945112
34.80521749,31.26506446,0.0,2.6391814,12-21-13,0.08491135,0.05042988,-0.13218784,254.0,-1.4964286,-24.73497,-0.03907776,0.057617188,0.05180359,-4.010795,0.2624468,8.945112
34.80521749,31.26506446,0.0,2.6391814,12-21-13,0.08491135,0.05042988,-0.13218784,254.0,-1.4815603,-24.81752,-0.03907776,0.057617188,0.05180359,-4.010795,0.2624468,8.945112
34.80521749,31.26506446,0.0,2.6391814,12-21-13,0.08491135,0.05042988,-0.13218784,254.0,-1.4815603,-24.81752,-0.03907776,0.057617188,0.05180359,-4.010795,0.2624468,8.945112
34.80521749,31.26506446,0.0,2.6391814,12-21-13,0.08491135,0.05042988,-0.13218784,254.0,-1.4815603,-24.81752,-0.03907776,0.057617188,0.05180359,-4.010795,0.2624468,8.945112
34.80521749,31.26506446,0.0,2.6391814,12-21-13,0.08491135,0.05042988,-0.13218784,254.0,-1.456055,-24.872944,-0.03907776,0.057617188,0.05180359,-4.010795,0.2624468,8.945112
34.80521749,31.26506446,0.0,2.6391814,12-21-13,0.08491135,0.05042988,-0.13218784,254.0,-1.416734,-24.905807,-0.03907776,0.057617188,0.05180359,-4.010795,0.2624468,8.945112
34.80521749,31.26506446,0.0,2.6391814,12-21-13,0.08491135,0.05042988,-0.13218784,254.0,-1.3098142,-24.979553,-0.03907776,0.057617188,0.05180359,-4.010795,0.2624468,8.945112
34.80521749,31.26506446,0.0,2.6391814,12-21-13,0.08491135,0.05042988,-0.13218784,254.0,-1.2541085,-25.011211,-0.071121216,0.05342102,0.0934906,-4.010795,0.2624468,8.945112
34.80521749,31.26506446,0.0,2.6391814,12-21-13,0.08491135,0.05042988,-0.13218784,254.0,-1.2541085,-25.011211,-0.071121216,0.05342102,0.0934906,-4.010795,0.2624468,8.945112
34.80521749,31.26506446,0.0,2.6391814,12-21-13,0.08491135,0.05042988,-0.13218784,254.0,-1.2541085,-25.011211,-0.071121216,0.05342102,0.0934906,-4.010795,0.2624468,8.945112
34.80521749,31.26506446,0.0,2.6391814,12-21-13,0.024113178,-0.04935555,-0.11668396,254.0,-1.2541085,-25.011211,-0.071121216,0.05342102,0.0934906,-4.010795,0.2624468,8.945112
34.80521749,31.26506446,0.0,2.6391814,12-21-13,0.024113178,-0.04935555,-0.11668396,254.0,-1.2053485,-25.01008,-0.071121216,0.05342102,0.0934906,-4.1269712,0.19338027,8.89388
34.80521749,31.26506446,0.0,2.6391814,12-21-13,0.024113178,-0.04935555,-0.11668396,254.0,-1.1654484,-24.990255,-0.071121216,0.05342102,0.0934906,-4.1269712,0.19338027,8.89388
34.80521749,31.26506446,0.0,2.6391814,12-21-13,0.024113178,-0.04935555,-0.11668396,253.0,-0.97555923,-25.05323,-0.071121216,0.05342102,0.0934906,-4.1269712,0.19338027,8.89388
34.80521749,31.26506446,0.0,2.6391814,12-21-13,0.024113178,-0.04935555,-0.11668396,253.0,-0.97555923,-25.05323,-0.071121216,0.05342102,0.0934906,-4.1269712,0.19338027,8.89388
34.80521749,31.26506446,0.0,2.6391814,12-21-13,0.024113178,-0.04935555,-0.11668396,253.0,-0.97555923,-25.05323,-0.071121216,0.05342102,0.0934906,-4.1269712,0.19338027,8.89388
34.80521749,31.26506446,0.0,2.6391814,12-21-13,0.024113178,-0.04935555,-0.11668396,253.0,-0.97555923,-25.05323,-0.071121216,0.05342102,0.0934906,-4.1269712,0.19338027,8.89388
34.80521749,31.26506446,0.0,2.6391814,12-21-13,0.024113178,-0.04935555,-0.11668396,253.0,-0.97555923,-25.05323,-0.071121216,0.05342102,0.0934906,-4.1269712,0.19338027,8.89388
34.80521749,31.26506446,0.0,2.6391814,12-21-13,0.024113178,-0.04935555,-0.11668396,253.0,-0.94496185,-25.061878,-0.071121216,0.05342102,0.0934906,-4.1269712,0.19338027,8.89388
34.8052175,31.26506447,0.0,0.0014616267,12-21-13,0.024113178,-0.04935555,-0.11668396,253.0,-0.95626146,-25.026707,-0.071121216,0.05342102,0.0934906,-4.1269712,0.19338027,8.89388
34.8052175,31.26506447,0.0,0.0014616267,12-21-13,0.024113178,-0.04935555,-0.11668396,253.0,-0.91019565,-25.044048,-0.071121216,0.05342102,0.0934906,-4.1269712,0.19338027,8.89388
34.8052175,31.26506447,0.0,0.0014616267,12-21-13,0.024113178,-0.04935555,-0.11668396,253.0,-0.91019565,-25.044048,-0.071121216,0.05342102,0.0934906,-4.1269712,0.19338027,8.89388
34.8052175,31.26506447,0.0,0.0014616267,12-21-13,0.024113178,-0.04935555,-0.11668396,253.0,-0.91019565,-25.044048,-0.049484253,0.0027618408,0.05168152,-4.1269712,0.19338027,8.89388
34.8052175,31.26506447,0.0,0.0014616267,12-21-13,0.024113178,-0.04935555,-0.11668396,253.0,-0.91019565,-25.044048,-0.049484253,0.0027618408,0.05168152,-4.1269712,0.19338027,8.89388
34.8052175,31.26506447,0.0,0.0014616267,12-21-13,0.024113178,-0.04935555,-0.11668396,253.0,-0.91019565,-25.044048,-0.049484253,0.0027618408,0.05168152,-4.1269712,0.19338027,8.89388
34.8052175,31.26506447,0.0,0.0014616267,12-21-13,-0.034146786,-0.010707796,0.059311867,253.0,-0.877256,-25.064201,-0.049484253,0.0027618408,0.05168152,-4.167879,0.14391029,8.875723
34.8052175,31.26506447,0.0,0.0014616267,12-21-13,-0.034146786,-0.010707796,0.059311867,253.0,-0.9394822,-25.11354,-0.049484253,0.0027618408,0.05168152,-4.167879,0.14391029,8.875723
34.8052175,31.26506447,0.0,0.0014616267,12-21-13,-0.034146786,-0.010707796,0.059311867,253.0,-1.1740175,-25.005112,-0.049484253,0.0027618408,0.05168152,-4.167879,0.14391029,8.875723
34.8052175,31.26506447,0.0,0.0014616267,12-21-13,-0.034146786,-0.010707796,0.059311867,253.0,-1.1740175,-25.005112,-0.049484253,0.0027618408,0.05168152,-4.167879,0.14391029,8.875723
34.8052175,31.26506447,0.0,0.0014616267,12-21-13,-0.034146786,-0.010707796,0.059311867,253.0,-1.2669735,-24.86082,-0.049484253,0.0027618408,0.05168152,-4.167879,0.14391029,8.875723
34.8052175,31.26506447,0.0,0.0014616267,12-21-13,-0.034146786,-0.010707796,0.059311867,253.0,-1.2669735,-24.86082,-0.049484253,0.0027618408,0.05168152,-4.167879,0.14391029,8.875723
34.8052175,31.26506447,0.0,0.0014616267,12-21-13,-0.034146786,-0.010707796,0.059311867,253.0,-1.3568478,-24.687662,-0.049484253,0.0027618408,0.05168152,-4.167879,0.14391029,8.875723
34.8052175,31.26506447,0.0,0.0014616267,12-21-13,-0.034146786,-0.010707796,0.059311867,253.0,-1.3568478,-24.687662,-0.049484253,0.0027618408,0.05168152,-4.167879,0.14391029,8.875723
34.8052175,31.26506447,0.0,0.0014616267,12-21-13,-0.034146786,-0.010707796,0.059311867,254.0,-1.4708891,-24.520538,-0.049484253,0.0027618408,0.05168152,-4.167879,0.14391029,8.875723
34.8052175,31.26506447,0.0,0.0014616267,12-21-13,-0.034146786,-0.010707796,0.059311867,255.0,-1.7282504,-24.299408,-0.049484253,0.0027618408,0.05168152,-4.167879,0.14391029,8.875723
34.8052175,31.26506447,0.0,0.0014616267,12-21-13,-0.034146786,-0.010707796,0.059311867,255.0,-1.7282504,-24.299408,-0.049484253,0.0027618408,0.05168152,-4.167879,0.14391029,8.875723
34.8052175,31.26506447,0.0,0.0014616267,12-21-13,-0.034146786,-0.010707796,0.059311867,255.0,-1.7282504,-24.299408,0.14413452,-0.11903381,-0.15942383,-4.167879,0.14391029,8.875723
34.8052175,31.26506447,0.0,0.0014616267,12-21-13,-1.8572307,0.010350451,1.4670439,255.0,-1.7282504,-24.299408,0.14413452,-0.11903381,-0.15942383,-4.113331,0.18531154,8.900369
34.8052175,31.26506447,0.0,0.0014616267,12-21-13,-1.8572307,0.010350451,1.4670439,255.0,-1.7282504,-24.299408,0.14413452,-0.11903381,-0.15942383,-4.113331,0.18531154,8.900369
34.8052175,31.26506447,0.0,0.0014616267,12-21-13,-1.8572307,0.010350451,1.4670439,255.0,-1.7581246,-24.264704,0.14413452,-0.11903381,-0.15942383,-4.113331,0.18531154,8.900369
34.8052175,31.26506447,0.0,0.0014616267,12-21-14,-1.8572307,0.010350451,1.4670439,254.0,-1.7446908,-24.27625,0.14413452,-0.11903381,-0.15942383,-4.113331,0.18531154,8.900369
34.8052175,31.26506447,0.0,0.0014616267,12-21-14,-1.8572307,0.010350451,1.4670439,253.0,-1.7532568,-24.547737,0.14413452,-0.11903381,-0.15942383,-4.113331,0.18531154,8.900369
34.8052175,31.26506447,0.0,0.0014616267,12-21-14,-1.8572307,0.010350451,1.4670439,253.0,-1.7532568,-24.547737,0.14413452,-0.11903381,-0.15942383,-4.113331,0.18531154,8.900369
34.8052175,31.26506447,0.0,0.0014616267,12-21-14,-1.8572307,0.010350451,1.4670439,253.0,-1.7532568,-24.547737,0.14413452,-0.11903381,-0.15942383,-4.113331,0.18531154,8.900369
34.8052175,31.26506447,0.0,0.0014616267,12-21-14,-1.8572307,0.010350451,1.4670439,253.0,-1.7532568,-24.547737,0.14413452,-0.11903381,-0.15942383,-4.113331,0.18531154,8.900369
34.8052175,31.26506447,0.0,0.0014616267,12-21-14,-1.8572307,0.010350451,1.4670439,253.0,-1.7532568,-24.547737,0.14413452,-0.11903381,-0.15942383,-4.113331,0.18531154,8.900369
34.8052175,31.26506447,0.0,0.0014616267,12-21-14,-1.8572307,0.010350451,1.4670439,253.0,-1.7395352,-24.753096,0.14413452,-0.11903381,-0.15942383,-4.113331,0.18531154,8.900369
34.8052175,31.26506447,0.0,0.0014616267,12-21-14,-1.8572307,0.010350451,1.4670439,252.0,-1.7155704,-24.86843,0.14413452,-0.11903381,-0.15942383,-4.113331,0.18531154,8.900369
34.8052175,31.26506447,0.0,0.0014616267,12-21-14,-1.8572307,0.010350451,1.4670439,252.0,-1.8572077,-25.411293,0.14413452,-0.11903381,-0.15942383,-4.113331,0.18531154,8.900369
34.8052175,31.26506447,0.0,0.0014616267,12-21-14,-1.8572307,0.010350451,1.4670439,252.0,-1.8572077,-25.411293,0.14413452,-0.11903381,-0.15942383,-4.113331,0.18531154,8.900369
34.8052175,31.26506447,0.0,0.0014616267,12-21-14,-0.4674039,0.0035848618,0.9027586,252.0,-1.8572077,-25.411293,-0.06515503,0.12585449,0.17811584,-4.1231375,0.26291534,8.893874
34.8052175,31.26506447,0.0,0.0014616267,12-21-14,-0.4674039,0.0035848618,0.9027586,252.0,-1.937575,-25.627913,-0.06515503,0.12585449,0.17811584,-4.1231375,0.26291534,8.893874
34.8052175,31.26506447,0.0,0.0014616267,12-21-14,-0.4674039,0.0035848618,0.9027586,252.0,-1.937575,-25.627913,-0.06515503,0.12585449,0.17811584,-4.1231375,0.26291534,8.893874
34.8052175,31.26506447,0.0,0.0014616267,12-21-14,-0.4674039,0.0035848618,0.9027586,252.0,-1.937575,-25.627913,-0.06515503,0.12585449,0.17811584,-4.1231375,0.26291534,8.893874
34.8052175,31.26506447,0.0,0.0014616267,12-21-14,-0.4674039,0.0035848618,0.9027586,253.0,-1.9894996,-25.744526,-0.06515503,0.12585449,0.17811584,-4.1231375,0.26291534,8.893874
34.8052175,31.26506447,0.0,0.0014616267,12-21-14,-0.4674039,0.0035848618,0.9027586,254.0,-2.3381767,-25.994112,-0.06515503,0.12585449,0.17811584,-4.1231375,0.26291534,8.893874
34.8052175,31.26506447,0.0,0.0014616267,12-21-14,-0.4674039,0.0035848618,0.9027586,254.0,-2.3381767,-25.994112,-0.06515503,0.12585449,0.17811584,-4.1231375,0.26291534,8.893874
34.8052175,31.26506447,0.0,0.0014616267,12-21-14,-0.4674039,0.0035848618,0.9027586,254.0,-2.349909,-26.07873,-0.06515503,0.12585449,0.17811584,-4.1231375,0.26291534,8.893874
34.8052175,31.26506447,0.0,0.0014616267,12-21-14,-0.4674039,0.0035848618,0.9027586,254.0,-2.349909,-26.07873,-0.06515503,0.12585449,0.17811584,-4.1231375,0.26291534,8.893874
34.8052175,31.26506447,0.0,0.0014616267,12-21-14,-0.4674039,0.0035848618,0.9027586,254.0,-2.349909,-26.07873,-0.06515503,0.12585449,0.17811584,-4.1231375,0.26291534,8.893874
34.8052175,31.26506447,0.0,0.0014616267,12-21-14,-0.4674039,0.0035848618,0.9027586,254.0,-2.4223106,-26.039026,-0.06515503,0.12585449,0.17811584,-4.1231375,0.26291534,8.893874
34.8052175,31.26506447,0.0,0.0014616267,12-21-14,-0.4674039,0.0035848618,0.9027586,253.0,-2.6065798,-26.026527,-0.06515503,0.12585449,0.17811584,-4.1231375,0.26291534,8.893874
34.8052175,31.26506447,0.0,0.0014616267,12-21-14,-0.01202631,-0.40297195,0.092469215,251.0,-2.7607143,-26.234991,-0.06515503,0.12585449,0.17811584,-4.268552,0.32558635,8.822916
34.8052175,31.26506447,0.0,0.0014616267,12-21-14,-0.01202631,-0.40297195,0.092469215,251.0,-2.7607143,-26.234991,-0.06515503,0.12585449,0.17811584,-4.268552,0.32558635,8.822916
34.8052175,31.26506447,0.0,0.0014616267,12-21-14,-0.01202631,-0.40297195,0.092469215,250.0,-2.7568119,-26.132088,-0.01260376,0.049102783,0.18928528,-4.268552,0.32558635,8.822916
34.8052175,31.26506447,0.0,0.0014616267,12-21-14,-0.01202631,-0.40297195,0.092469215,250.0,-2.7568119,-26.132088,-0.01260376,0.049102783,0.18928528,-4.268552,0.32558635,8.822916
34.8052175,31.26506447,0.0,0.0014616267,12-21-14,-0.01202631,-0.40297195,0.092469215,250.0,-2.7568119,-26.132088,-0.01260376,0.049102783,0.18928528,-4.268552,0.32558635,8.822916
34.8052175,31.26506447,0.0,0.0014616267,12-21-14,-0.01202631,-0.40297195,0.092469215,250.0,-2.7249393,-26.007761,-0.01260376,0.049102783,0.18928528,-4.268552,0.32558635,8.822916
34.8052175,31.26506447,0.0,0.0014616267,12-21-14,-0.01202631,-0.40297195,0.092469215,250.0,-2.654752,-26.008598,-0.01260376,0.049102783,0.18928528,-4.268552,0.32558635,8.822916
34.8052175,31.26506447,0.0,0.0014616267,12-21-14,-0.01202631,-0.40297195,0.092469215,251.0,-2.4850152,-25.874153,-0.01260376,0.049102783,0.18928528,-4.268552,0.32558635,8.822916
34.8052175,31.26506447,0.0,0.0014616267,12-21-14,-0.01202631,-0.40297195,0.092469215,251.0,-2.4850152,-25.874153,-0.01260376,0.049102783,0.18928528,-4.268552,0.32558635,8.822916
34.8052175,31.26506447,0.0,0.0014616267,12-21-14,-0.01202631,-0.40297195,0.092469215,252.0,-2.3992226,-25.649889,-0.01260376,0.049102783,0.18928528,-4.268552,0.32558635,8.822916
34.8052175,31.26506447,0.0,0.0014616267,12-21-14,-0.01202631,-0.40297195,0.092469215,252.0,-2.3992226,-25.649889,-0.01260376,0.049102783,0.18928528,-4.268552,0.32558635,8.822916
34.8052175,31.26506447,0.0,0.0014616267,12-21-14,-0.01202631,-0.40297195,0.092469215,252.0,-2.3992226,-25.649889,-0.01260376,0.049102783,0.18928528,-4.268552,0.32558635,8.822916
34.8052175,31.26506447,0.0,0.0014616267,12-21-14,-0.01202631,-0.40297195,0.092469215,253.0,-2.4025078,-25.432302,-0.01260376,0.049102783,0.18928528,-4.268552,0.32558635,8.822916
34.8052175,31.26506447,0.0,0.0014616267,12-21-14,-0.01202631,-0.40297195,0.092469215,253.0,-2.4791684,-25.297464,-0.01260376,0.049102783,0.18928528,-4.268552,0.32558635,8.822916
34.8052175,31.26506447,0.0,0.0014616267,12-21-14,0.31328917,-0.431107,-0.4560299,251.0,-2.8252227,-24.62109,-0.01260376,0.049102783,0.18928528,-4.18372,0.39915434,8.860449
34.8052175,31.26506447,0.0,0.0014616267,12-21-14,0.31328917,-0.431107,-0.4560299,251.0,-2.8252227,-24.62109,-0.01260376,0.049102783,0.18928528,-4.18372,0.39915434,8.860449
34.8052175,31.26506447,0.0,0.0014616267,12-21-14,0.31328917,-0.431107,-0.4560299,251.0,-2.8252227,-24.62109,0.08734131,-0.15124512,-0.09510803,-4.18372,0.39915434,8.860449
34.8052175,31.26506447,0.0,0.0014616267,12-21-14,0.31328917,-0.431107,-0.4560299,251.0,-2.8252227,-24.62109,0.08734131,-0.15124512,-0.09510803,-4.18372,0.39915434,8.860449
34.8052175,31.26506447,0.0,0.0014616267,12-21-14,0.31328917,-0.431107,-0.4560299,251.0,-2.8252227,-24.62109,0.08734131,-0.15124512,-0.09510803,-4.18372,0.39915434,8.860449
34.8052175,31.26506447,0.0,0.0014616267,12-21-14,0.31328917,-0.431107,-0.4560299,251.0,-3.1963506,-24.113747,0.08734131,-0.15124512,-0.09510803,-4.18372,0.39915434,8.860449
34.8052175,31.26506447,0.0,0.0014616267,12-21-14,0.31328917,-0.431107,-0.4560299,252.0,-3.6741672,-23.651665,0.08734131,-0.15124512,-0.09510803,-4.18372,0.39915434,8.860449
34.8052175,31.26506447,0.0,0.0014616267,12-21-14,0.31328917,-0.431107,-0.4560299,249.0,-4.5541387,-22.455673,0.08734131,-0.15124512,-0.09510803,-4.18372,0.39915434,8.860449
34.8052175,31.26506447,0.0,0.0014616267,12-21-14,0.31328917,-0.431107,-0.4560299,249.0,-4.5541387,-22.455673,0.08734131,-0.15124512,-0.09510803,-4.18372,0.39915434,8.860449
34.8052175,31.26506447,0.0,0.0014616267,12-21-14,0.31328917,-0.431107,-0.4560299,249.0,-4.5541387,-22.455673,0.08734131,-0.15124512,-0.09510803,-4.18372,0.39915434,8.860449
34.8052175,31.26506447,0.0,0.0014616267,12-21-14,0.31328917,-0.431107,-0.4560299,249.0,-4.5541387,-22.455673,0.08734131,-0.15124512,-0.09510803,-4.18372,0.39915434,8.860449
34.8052175,31.26506447,0.0,0.0014616267,12-21-14,0.31328917,-0.431107,-0.4560299,249.0,-4.5541387,-22.455673,0.08734131,-0.15124512,-0.09510803,-4.18372,0.39915434,8.860449
34.80521752,31.26506447,0.0,0.0030647577,12-21-14,0.31328917,-0.431107,-0.4560299,247.0,-4.845171,-21.925896,0.08734131,-0.15124512,-0.09510803,-4.18372,0.39915434,8.860449
34.80521752,31.26506447,0.0,0.0030647577,12-21-14,0.31328917,-0.431107,-0.4560299,246.0,-5.0605564,-21.342949,0.08734131,-0.15124512,-0.09510803,-4.18372,0.39915434,8.860449
34.80521752,31.26506447,0.0,0.0030647577,12-21-14,1.479099,0.68095344,-0.19280529,246.0,-5.171655,-20.374933,0.08734131,-0.15124512,-0.09510803,-3.7194107,0.65182674,9.050497
34.80521752,31.26506447,0.0,0.0030647577,12-21-14,1.479099,0.68095344,-0.19280529,246.0,-5.171655,-20.374933,0.08734131,-0.15124512,-0.09510803,-3.7194107,0.65182674,9.050497
34.80521752,31.26506447,0.0,0.0030647577,12-21-14,1.479099,0.68095344,-0.19280529,246.0,-5.171655,-20.374933,0.0146484375,-0.28430176,0.38970947,-3.7194107,0.65182674,9.050497
34.80521752,31.26506447,0.0,0.0030647577,12-21-14,1.479099,0.68095344,-0.19280529,247.0,-5.186459,-20.306513,0.0146484375,-0.28430176,0.38970947,-3.7194107,0.65182674,9.050497
34.80521752,31.26506447,0.0,0.0030647577,12-21-14,1.479099,0.68095344,-0.19280529,247.0,-5.186459,-20.306513,0.0146484375,-0.28430176,0.38970947,-3.7194107,0.65182674,9.050497
34.80521752,31.26506447,0.0,0.0030647577,12-21-14,1.479099,0.68095344,-0.19280529,247.0,-5.186459,-20.306513,0.0146484375,-0.28430176,0.38970947,-3.7194107,0.65182674,9.050497
34.80521752,31.26506447,0.0,0.0030647577,12-21-14,1.479099,0.68095344,-0.19280529,247.0,-5.243336,-20.334154,0.0146484375,-0.28430176,0.38970947,-3.7194107,0.65182674,9.050497
34.80521752,31.26506447,0.0,0.0030647577,12-21-14,1.479099,0.68095344,-0.19280529,248.0,-5.2989326,-20.106808,0.0146484375,-0.28430176,0.38970947,-3.7194107,0.65182674,9.050497
34.80521752,31.26506447,0.0,0.0030647577,12-21-14,1.479099,0.68095344,-0.19280529,248.0,-5.2989326,-20.106808,0.0146484375,-0.28430176,0.38970947,-3.7194107,0.65182674,9.050497
34.80521752,31.26506447,0.0,0.0030647577,12-21-14,1.479099,0.68095344,-0.19280529,248.0,-5.2989326,-20.106808,0.0146484375,-0.28430176,0.38970947,-3.7194107,0.65182674,9.050497
34.80521752,31.26506447,0.0,0.0030647577,12-21-14,1.479099,0.68095344,-0.19280529,248.0,-5.2989326,-20.106808,0.0146484375,-0.28430176,0.38970947,-3.7194107,0.65182674,9.050497
34.80521752,31.26506447,0.0,0.0030647577,12-21-14,1.479099,0.68095344,-0.19280529,247.0,-5.362234,-19.606834,0.0146484375,-0.28430176,0.38970947,-3.7194107,0.65182674,9.050497
34.80521752,31.26506447,0.0,0.0030647577,12-21-14,1.479099,0.68095344,-0.19280529,247.0,-5.362234,-19.606834,0.0146484375,-0.28430176,0.38970947,-3.7194107,0.65182674,9.050497
34.80521752,31.26506447,0.0,0.0030647577,12-21-14,1.479099,0.68095344,-0.19280529,247.0,-5.3729253,-19.178295,0.0146484375,-0.28430176,0.38970947,-3.7194107,0.65182674,9.050497
34.80521752,31.26506447,0.0,0.0030647577,12-21-14,-0.023024082,0.17729545,-0.35407162,246.0,-5.4282546,-18.336025,0.0146484375,-0.28430176,0.38970947,-3.2568955,0.85961646,9.209999
34.80521752,31.26506447,0.0,0.0030647577,12-21-14,-0.023024082,0.17729545,-0.35407162,246.0,-5.4282546,-18.336025,0.0146484375,-0.28430176,0.38970947,-3.2568955,0.85961646,9.209999
34.80521752,31.26506447,0.0,0.0030647577,12-21-14,-0.023024082,0.17729545,-0.35407162,246.0,-5.4282546,-18.336025,0.002166748,-0.17997742,0.05104065,-3.2568955,0.85961646,9.209999
34.80521752,31.26506447,0.0,0.0030647577,12-21-14,-0.023024082,0.17729545,-0.35407162,246.0,-5.4282546,-18.336025,0.002166748,-0.17997742,0.05104065,-3.2568955,0.85961646,9.209999
34.80521752,31.26506447,0.0,0.0030647577,12-21-14,-0.023024082,0.17729545,-0.35407162,246.0,-5.4282546,-18.336025,0.002166748,-0.17997742,0.05104065,-3.2568955,0.85961646,9.209999
34.80521752,31.26506447,0.0,0.0030647577,12-21-15,-0.023024082,0.17729545,-0.35407162,246.0,-5.347793,-18.112648,0.002166748,-0.17997742,0.05104065,-3.2568955,0.85961646,9.209999
34.80521752,31.26506447,0.0,0.0030647577,12-21-15,-0.023024082,0.17729545,-0.35407162,247.0,-5.1766677,-18.088678,0.002166748,-0.17997742,0.05104065,-3.2568955,0.85961646,9.209999
34.80521752,31.26506447,0.0,0.0030647577,12-21-15,-0.023024082,0.17729545,-0.35407162,248.0,-4.808953,-18.145273,0.002166748,-0.17997742,0.05104065,-3.2568955,0.85961646,9.209999
34.80521752,31.26506447,0.0,0.0030647577,12-21-15,-0.023024082,0.17729545,-0.35407162,248.0,-4.808953,-18.145273,0.002166748,-0.17997742,0.05104065,-3.2568955,0.85961646,9.209999
34.80521752,31.26506447,0.0,0.0030647577,12-21-15,-0.023024082,0.17729545,-0.35407162,248.0,-4.808953,-18.145273,0.002166748,-0.17997742,0.05104065,-3.2568955,0.85961646,9.209999
34.80521752,31.26506447,0.0,0.0030647577,12-21-15,-0.023024082,0.17729545,-0.35407162,248.0,-4.808953,-18.145273,0.002166748,-0.17997742,0.05104065,-3.2568955,0.85961646,9.209999
34.80521752,31.26506447,0.0,0.0030647577,12-21-15,-0.023024082,0.17729545,-0.35407162,249.0,-4.543708,-18.13117,0.002166748,-0.17997742,0.05104065,-3.2568955,0.85961646,9.209999
34.80521752,31.26506447,0.0,0.0030647577,12-21-15,-0.023024082,0.17729545,-0.35407162,250.0,-4.2230487,-18.057371,0.002166748,-0.17997742,0.05104065,-3.2568955,0.85961646,9.209999
34.80521752,31.26506447,0.0,0.0030647577,12-21-15,-0.023024082,0.17729545,-0.35407162,250.0,-3.9801712,-18.077734,0.002166748,-0.17997742,0.05104065,-3.2568955,0.85961646,9.209999
34.80521752,31.26506447,0.0,0.0030647577,12-21-15,0.6922331,0.4726326,-0.38329315,252.0,-3.4303992,-18.249136,0.002166748,-0.17997742,0.05104065,-3.0716693,0.7198034,9.285317
34.80521752,31.26506447,0.0,0.0030647577,12-21-15,0.6922331,0.4726326,-0.38329315,252.0,-3.4303992,-18.249136,0.002166748,-0.17997742,0.05104065,-3.0716693,0.7198034,9.285317
34.80521752,31.26506447,0.0,0.0030647577,12-21-15,0.6922331,0.4726326,-0.38329315,252.0,-3.0856552,-18.264654,-0.065093994,-0.023635864,-0.48999023,-3.0716693,0.7198034,9.285317
34.80521752,31.26506447,0.0,0.0030647577,12-21-15,0.6922331,0.4726326,-0.38329315,252.0,-3.0856552,-18.264654,-0.065093994,-0.023635864,-0.48999023,-3.0716693,0.7198034,9.285317
34.80521752,31.26506447,0.0,0.0030647577,12-21-15,0.6922331,0.4726326,-0.38329315,252.0,-3.0856552,-18.264654,-0.065093994,-0.023635864,-0.48999023,-3.0716693,0.7198034,9.285317
34.80521752,31.26506447,0.0,0.0030647577,12-21-15,0.6922331,0.4726326,-0.38329315,253.0,-2.7370393,-18.209547,-0.065093994,-0.023635864,-0.48999023,-3.0716693,0.7198034,9.285317
34.80521752,31.26506447,0.0,0.0030647577,12-21-15,0.6922331,0.4726326,-0.38329315,254.0,-2.559663,-18.018732,-0.065093994,-0.023635864,-0.48999023,-3.0716693,0.7198034,9.285317
34.80521752,31.26506447,0.0,0.0030647577,12-21-15,0.6922331,0.4726326,-0.38329315,256.0,-2.6726787,-17.540367,-0.065093994,-0.023635864,-0.48999023,-3.0716693,0.7198034,9.285317
34.80521752,31.26506447,0.0,0.0030647577,12-21-15,0.6922331,0.4726326,-0.38329315,256.0,-2.6726787,-17.540367,-0.065093994,-0.023635864,-0.48999023,-3.0716693,0.7198034,9.285317
34.80521752,31.26506447,0.0,0.0030647577,12-21-15,0.6922331,0.4726326,-0.38329315,256.0,-2.7386637,-17.104933,-0.065093994,-0.023635864,-0.48999023,-3.0716693,0.7198034,9.285317
34.80521752,31.26506447,0.0,0.0030647577,12-21-15,0.6922331,0.4726326,-0.38329315,256.0,-2.7386637,-17.104933,-0.065093994,-0.023635864,-0.48999023,-3.0716693,0.7198034,9.285317
34.80521752,31.26506447,0.0,0.0030647577,12-21-15,0.6922331,0.4726326,-0.38329315,256.0,-2.7386637,-17.104933,-0.065093994,-0.023635864,-0.48999023,-3.0716693,0.7198034,9.285317
34.80521752,31.26506447,0.0,0.0030647577,12-21-15,0.6922331,0.4726326,-0.38329315,257.0,-2.7757406,-16.54237,-0.065093994,-0.023635864,-0.48999023,-3.0716693,0.7198034,9.285317
34.80521752,31.26506447,0.0,0.0030647577,12-21-15,0.6922331,0.4726326,-0.38329315,257.0,-2.7560158,-16.3413,-0.065093994,-0.023635864,-0.48999023,-3.0716693,0.7198034,9.285317
34.80521752,31.26506447,0.0,0.0030647577,12-21-15,0.2377348,-0.76533234,-0.98390675,256.0,-2.588598,-16.41647,-0.065093994,-0.023635864,-0.48999023,-2.9273846,0.45268786,9.348577
34.80521752,31.26506447,0.0,0.0030647577,12-21-15,0.2377348,-0.76533234,-0.98390675,256.0,-2.695269,-16.347982,-0.065093994,-0.023635864,-0.48999023,-2.9273846,0.45268786,9.348577
34.80521752,31.26506447,0.0,0.0030647577,12-21-15,0.2377348,-0.76533234,-0.98390675,256.0,-2.695269,-16.347982,-0.065093994,-0.023635864,-0.48999023,-2.9273846,0.45268786,9.348577
34.80521752,31.26506447,0.0,0.0030647577,12-21-15,0.2377348,-0.76533234,-0.98390675,256.0,-2.695269,-16.347982,-0.065093994,-0.023635864,-0.48999023,-2.9273846,0.45268786,9.348577
34.80521752,31.26506447,0.0,0.0030647577,12-21-15,0.2377348,-0.76533234,-0.98390675,256.0,-2.695269,-16.347982,0.100753784,-0.18992615,-0.25076294,-2.9273846,0.45268786,9.348577
34.80521752,31.26506447,0.0,0.0030647577,12-21-15,0.2377348,-0.76533234,-0.98390675,255.0,-2.9026327,-16.16158,0.100753784,-0.18992615,-0.25076294,-2.9273846,0.45268786,9.348577
34.80521752,31.26506447,0.0,0.0030647577,12-21-15,0.2377348,-0.76533234,-0.98390675,255.0,-3.0967655,-15.745961,0.100753784,-0.18992615,-0.25076294,-2.9273846,0.45268786,9.348577
34.80521752,31.26506447,0.0,0.0030647577,12-21-15,0.2377348,-0.76533234,-0.98390675,257.0,-3.38087,-15.749152,0.100753784,-0.18992615,-0.25076294,-2.9273846,0.45268786,9.348577
34.80521752,31.26506447,0.0,0.0030647577,12-21-15,0.2377348,-0.76533234,-0.98390675,257.0,-3.38087,-15.749152,0.100753784,-0.18992615,-0.25076294,-2.9273846,0.45268786,9.348577
34.80521752,31.26506447,0.0,0.0030647577,12-21-15,0.2377348,-0.76533234,-0.98390675,257.0,-3.38087,-15.749152,0.100753784,-0.18992615,-0.25076294,-2.9273846,0.45268786,9.348577
34.80521752,31.26506447,0.0,0.0030647577,12-21-15,0.2377348,-0.76533234,-0.98390675,257.0,-3.38087,-15.749152,0.100753784,-0.18992615,-0.25076294,-2.9273846,0.45268786,9.348577
34.80521752,31.26506447,0.0,0.0030647577,12-21-15,0.2377348,-0.76533234,-0.98390675,258.0,-3.3205018,-16.015985,0.100753784,-0.18992615,-0.25076294,-2.9273846,0.45268786,9.348577
34.80521752,31.26506447,0.0,0.0030647577,12-21-15,0.2377348,-0.76533234,-0.98390675,258.0,-3.3205018,-16.015985,0.100753784,-0.18992615,-0.25076294,-2.9273846,0.45268786,9.348577
34.80521752,31.26506447,0.0,0.0030647577,12-21-15,0.2377348,-0.76533234,-0.98390675,258.0,-3.271584,-16.10962,0.100753784,-0.18992615,-0.25076294,-2.9273846,0.45268786,9.348577
34.80521752,31.26506447,0.0,0.0030647577,12-21-15,-0.08855748,0.17078167,0.10752392,259.0,-3.0219831,-15.965071,0.100753784,-0.18992615,-0.25076294,-2.742158,0.45488203,9.4044695
34.80521752,31.26506447,0.0,0.0030647577,12-21-15,-0.08855748,0.17078167,0.10752392,259.0,-3.0219831,-15.965071,0.100753784,-0.18992615,-0.25076294,-2.742158,0.45488203,9.4044695
34.80521752,31.26506447,0.0,0.0030647577,12-21-15,-0.08855748,0.17078167,0.10752392,259.0,-3.0219831,-15.965071,0.100753784,-0.18992615,-0.25076294,-2.742158,0.45488203,9.4044695
34.80521752,31.26506447,0.0,0.0030647577,12-21-15,-0.08855748,0.17078167,0.10752392,259.0,-3.0219831,-15.965071,0.100753784,-0.18992615,-0.25076294,-2.742158,0.45488203,9.4044695
34.80521752,31.26506447,0.0,0.0030647577,12-21-15,-0.08855748,0.17078167,0.10752392,259.0,-3.0468097,-15.915829,0.09837341,-0.044555664,-0.2925415,-2.742158,0.45488203,9.4044695
34.80521752,31.26506447,0.0,0.0030647577,12-21-15,-0.08855748,0.17078167,0.10752392,259.0,-3.0468097,-15.915829,0.09837341,-0.044555664,-0.2925415,-2.742158,0.45488203,9.4044695
34.80521752,31.26506447,0.0,0.0030647577,12-21-15,-0.08855748,0.17078167,0.10752392,259.0,-3.1168425,-15.944515,0.09837341,-0.044555664,-0.2925415,-2.742158,0.45488203,9.4044695
34.80521752,31.26506447,0.0,0.0030647577,12-21-15,-0.08855748,0.17078167,0.10752392,257.0,-3.4373963,-14.466579,0.09837341,-0.044555664,-0.2925415,-2.742158,0.45488203,9.4044695
34.80521752,31.26506447,0.0,0.0030647577,12-21-15,-0.08855748,0.17078167,0.10752392,257.0,-3.4373963,-14.466579,0.09837341,-0.044555664,-0.2925415,-2.742158,0.45488203,9.4044695
34.80521752,31.26506447,0.0,0.0030647577,12-21-15,-0.08855748,0.17078167,0.10752392,257.0,-3.4373963,-14.466579,0.09837341,-0.044555664,-0.2925415,-2.742158,0.45488203,9.4044695
34.80521752,31.26506447,0.0,0.0030647577,12-21-15,-0.08855748,0.17078167,0.10752392,257.0,-3.4373963,-14.466579,0.09837341,-0.044555664,-0.2925415,-2.742158,0.45488203,9.4044695
34.80521752,31.26506447,0.0,0.0030647577,12-21-15,-0.08855748,0.17078167,0.10752392,257.0,-3.4373963,-14.466579,0.09837341,-0.044555664,-0.2925415,-2.742158,0.45488203,9.4044695
34.80521752,31.26506447,0.0,0.0030647577,12-21-15,-0.08855748,0.17078167,0.10752392,256.0,-3.5442266,-14.146515,0.09837341,-0.044555664,-0.2925415,-2.742158,0.45488203,9.4044695
34.80521752,31.26506447,0.0,0.0030647577,12-21-15,-0.08855748,0.17078167,0.10752392,256.0,-3.6279826,-13.767686,0.09837341,-0.044555664,-0.2925415,-2.742158,0.45488203,9.4044695
34.8052175,31.26506444,0.0,0.0024133527,12-21-15,-0.7721212,-0.44685012,-0.053002357,258.0,-4.0107846,-12.577433,0.09837341,-0.044555664,-0.2925415,-2.4765458,0.5520971,9.472713
34.8052175,31.26506444,0.0,0.0024133527,12-21-15,-0.7721212,-0.44685012,-0.053002357,258.0,-4.0107846,-12.577433,0.09837341,-0.044555664,-0.2925415,-2.4765458,0.5520971,9.472713
34.8052175,31.26506444,0.0,0.0024133527,12-21-15,-0.7721212,-0.44685012,-0.053002357,258.0,-4.0107846,-12.577433,0.09837341,-0.044555664,-0.2925415,-2.4765458,0.5520971,9.472713
34.8052175,31.26506444,0.0,0.0024133527,12-21-15,-0.7721212,-0.44685012,-0.053002357,257.0,-4.046668,-12.148314,0.063705444,-0.3495636,0.1330719,-2.4765458,0.5520971,9.472713
34.8052175,31.26506444,0.0,0.0024133527,12-21-15,-0.7721212,-0.44685012,-0.053002357,257.0,-4.046668,-12.148314,0.063705444,-0.3495636,0.1330719,-2.4765458,0.5520971,9.472713
34.8052175,31.26506444,0.0,0.0024133527,12-21-15,-0.7721212,-0.44685012,-0.053002357,257.0,-4.046668,-12.148314,0.063705444,-0.3495636,0.1330719,-2.4765458,0.5520971,9.472713
34.8052175,31.26506444,0.0,0.0024133527,12-21-15,-0.7721212,-0.44685012,-0.053002357,257.0,-3.9907846,-11.847042,0.063705444,-0.3495636,0.1330719,-2.4765458,0.5520971,9.472713
34.8052175,31.26506444,0.0,0.0024133527,12-21-15,-0.7721212,-0.44685012,-0.053002357,256.0,-4.059533,-11.057402,0.063705444,-0.3495636,0.1330719,-2.4765458,0.5520971,9.472713
34.8052175,31.26506444,0.0,0.0024133527,12-21-15,-0.7721212,-0.44685012,-0.053002357,256.0,-4.059533,-11.057402,0.063705444,-0.3495636,0.1330719,-2.4765458,0.5520971,9.472713
34.8052175,31.26506444,0.0,0.0024133527,12-21-15,-0.7721212,-0.44685012,-0.053002357,256.0,-4.059533,-11.057402,0.063705444,-0.3495636,0.1330719,-2.4765458,0.5520971,9.472713
34.8052175,31.26506444,0.0,0.0024133527,12-21-15,-0.7721212,-0.44685012,-0.053002357,257.0,-4.1605735,-10.925379,0.063705444,-0.3495636,0.1330719,-2.4765458,0.5520971,9.472713
34.8052175,31.26506444,0.0,0.0024133527,12-21-15,-0.7721212,-0.44685012,-0.053002357,257.0,-4.1605735,-10.925379,0.063705444,-0.3495636,0.1330719,-2.4765458,0.5520971,9.472713
34.8052175,31.26506444,0.0,0.0024133527,12-21-15,-0.7721212,-0.44685012,-0.053002357,257.0,-4.1605735,-10.925379,0.063705444,-0.3495636,0.1330719,-2.4765458,0.5520971,9.472713
34.8052175,31.26506444,0.0,0.0024133527,12-21-15,-0.7721212,-0.44685012,-0.053002357,257.0,-4.337845,-10.65806,0.063705444,-0.3495636,0.1330719,-2.4765458,0.5520971,9.472713
34.8052175,31.26506444,0.0,0.0024133527,12-21-15,1.1064733,0.06459439,-0.44050026,257.0,-4.5223584,-10.459593,0.063705444,-0.3495636,0.1330719,-1.9661562,0.68625635,9.582989
34.8052175,31.26506444,0.0,0.0024133527,12-21-15,1.1064733,0.06459439,-0.44050026,257.0,-4.5223584,-10.459593,0.063705444,-0.3495636,0.1330719,-1.9661562,0.68625635,9.582989
34.8052175,31.26506444,0.0,0.0024133527,12-21-15,1.1064733,0.06459439,-0.44050026,257.0,-4.5223584,-10.459593,0.063705444,-0.3495636,0.1330719,-1.9661562,0.68625635,9.582989
34.8052175,31.26506444,0.0,0.0024133527,12-21-15,1.1064733,0.06459439,-0.44050026,257.0,-4.612005,-10.465149,0.040527344,-0.09957886,0.027191162,-1.9661562,0.68625635,9.582989
34.8052175,31.26506444,0.0,0.0024133527,12-21-15,1.1064733,0.06459439,-0.44050026,257.0,-4.612005,-10.465149,0.040527344,-0.09957886,0.027191162,-1.9661562,0.68625635,9.582989
34.8052175,31.26506444,0.0,0.0024133527,12-21-16,1.1064733,0.06459439,-0.44050026,257.0,-4.612005,-10.465149,0.040527344,-0.09957886,0.027191162,-1.9661562,0.68625635,9.582989
34.8052175,31.26506444,0.0,0.0024133527,12-21-16,1.1064733,0.06459439,-0.44050026,257.0,-4.793159,-10.5008335,0.040527344,-0.09957886,0.027191162,-1.9661562,0.68625635,9.582989
34.8052175,31.26506444,0.0,0.0024133527,12-21-16,1.1064733,0.06459439,-0.44050026,258.0,-4.945625,-10.667893,0.040527344,-0.09957886,0.027191162,-1.9661562,0.68625635,9.582989
34.8052175,31.26506444,0.0,0.0024133527,12-21-16,1.1064733,0.06459439,-0.44050026,258.0,-4.945625,-10.667893,0.040527344,-0.09957886,0.027191162,-1.9661562,0.68625635,9.582989
34.8052175,31.26506444,0.0,0.0024133527,12-21-16,1.1064733,0.06459439,-0.44050026,258.0,-4.945625,-10.667893,0.040527344,-0.09957886,0.027191162,-1.9661562,0.68625635,9.582989
34.8052175,31.26506444,0.0,0.0024133527,12-21-16,1.1064733,0.06459439,-0.44050026,258.0,-4.9952636,-10.857913,0.040527344,-0.09957886,0.027191162,-1.9661562,0.68625635,9.582989
34.8052175,31.26506444,0.0,0.0024133527,12-21-16,1.1064733,0.06459439,-0.44050026,258.0,-4.9952636,-10.857913,0.040527344,-0.09957886,0.027191162,-1.9661562,0.68625635,9.582989
34.8052175,31.26506444,0.0,0.0024133527,12-21-16,1.1064733,0.06459439,-0.44050026,258.0,-5.059428,-11.046699,0.040527344,-0.09957886,0.027191162,-1.9661562,0.68625635,9.582989
34.8052175,31.26506444,0.0,0.0024133527,12-21-16,1.1064733,0.06459439,-0.44050026,258.0,-5.081045,-11.188623,0.040527344,-0.09957886,0.027191162,-1.9661562,0.68625635,9.582989
34.8052175,31.26506444,0.0,0.0024133527,12-21-16,0.67687213,0.23424268,-0.4345503,258.0,-5.0217085,-11.370781,0.040527344,-0.09957886,0.027191162,-1.8355931,0.7885567,9.600998
34.8052175,31.26506444,0.0,0.0024133527,12-21-16,0.67687213,0.23424268,-0.4345503,258.0,-4.8894396,-11.471603,0.040527344,-0.09957886,0.027191162,-1.8355931,0.7885567,9.600998
34.8052175,31.26506444,0.0,0.0024133527,12-21-16,0.67687213,0.23424268,-0.4345503,257.0,-4.8894396,-11.471603,0.040527344,-0.09957886,0.027191162,-1.8355931,0.7885567,9.600998
34.8052175,31.26506444,0.0,0.0024133527,12-21-16,0.67687213,0.23424268,-0.4345503,257.0,-4.8894396,-11.471603,1.5258789E-4,0.09899902,0.0027770996,-1.8355931,0.7885567,9.600998
34.8052175,31.26506444,0.0,0.0024133527,12-21-16,0.67687213,0.23424268,-0.4345503,257.0,-4.8894396,-11.471603,1.5258789E-4,0.09899902,0.0027770996,-1.8355931,0.7885567,9.600998
34.8052175,31.26506444,0.0,0.0024133527,12-21-16,0.67687213,0.23424268,-0.4345503,257.0,-4.76542,-11.544768,1.5258789E-4,0.09899902,0.0027770996,-1.8355931,0.7885567,9.600998
34.8052175,31.26506444,0.0,0.0024133527,12-21-16,0.67687213,0.23424268,-0.4345503,257.0,-4.6815114,-11.502045,1.5258789E-4,0.09899902,0.0027770996,-1.8355931,0.7885567,9.600998
34.8052175,31.26506444,0.0,0.0024133527,12-21-16,0.67687213,0.23424268,-0.4345503,257.0,-4.43561,-11.753328,1.5258789E-4,0.09899902,0.0027770996,-1.8355931,0.7885567,9.600998
34.8052175,31.26506444,0.0,0.0024133527,12-21-16,0.67687213,0.23424268,-0.4345503,257.0,-4.43561,-11.753328,1.5258789E-4,0.09899902,0.0027770996,-1.8355931,0.7885567,9.600998
34.8052175,31.26506444,0.0,0.0024133527,12-21-16,0.67687213,0.23424268,-0.4345503,257.0,-4.43561,-11.753328,1.5258789E-4,0.09899902,0.0027770996,-1.8355931,0.7885567,9.600998
34.8052175,31.26506444,0.0,0.0024133527,12-21-16,0.67687213,0.23424268,-0.4345503,257.0,-4.43561,-11.753328,1.5258789E-4,0.09899902,0.0027770996,-1.8355931,0.7885567,9.600998
34.8052175,31.26506444,0.0,0.0024133527,12-21-16,0.67687213,0.23424268,-0.4345503,257.0,-4.43561,-11.753328,1.5258789E-4,0.09899902,0.0027770996,-1.8355931,0.7885567,9.600998
34.8052175,31.26506444,0.0,0.0024133527,12-21-16,0.67687213,0.23424268,-0.4345503,257.0,-4.286649,-11.898443,1.5258789E-4,0.09899902,0.0027770996,-1.8355931,0.7885567,9.600998
34.8052175,31.26506444,0.0,0.0024133527,12-21-16,0.67687213,0.23424268,-0.4345503,257.0,-4.1367865,-11.968089,1.5258789E-4,0.09899902,0.0027770996,-1.8355931,0.7885567,9.600998
34.8052175,31.26506444,0.0,0.0024133527,12-21-16,0.17708111,0.13365376,-0.16645813,256.0,-3.9910622,-12.152822,1.5258789E-4,0.09899902,0.0027770996,-1.9670004,0.75637054,9.577537
34.8052175,31.26506444,0.0,0.0024133527,12-21-16,0.17708111,0.13365376,-0.16645813,256.0,-3.9910622,-12.152822,1.5258789E-4,0.09899902,0.0027770996,-1.9670004,0.75637054,9.577537
34.8052175,31.26506444,0.0,0.0024133527,12-21-16,0.17708111,0.13365376,-0.16645813,256.0,-3.9910622,-12.152822,1.5258789E-4,0.09899902,0.0027770996,-1.9670004,0.75637054,9.577537
34.8052175,31.26506444,0.0,0.0024133527,12-21-16,0.17708111,0.13365376,-0.16645813,256.0,-3.9393775,-12.3479595,-0.091033936,0.0907135,0.08769226,-1.9670004,0.75637054,9.577537
34.8052175,31.26506444,0.0,0.0024133527,12-21-16,0.17708111,0.13365376,-0.16645813,256.0,-3.9393775,-12.3479595,-0.091033936,0.0907135,0.08769226,-1.9670004,0.75637054,9.577537
34.8052175,31.26506444,0.0,0.0024133527,12-21-16,0.17708111,0.13365376,-0.16645813,256.0,-3.9393775,-12.3479595,-0.091033936,0.0907135,0.08769226,-1.9670004,0.75637054,9.577537
34.8052175,31.26506444,0.0,0.0024133527,12-21-16,0.17708111,0.13365376,-0.16645813,256.0,-3.8808045,-12.542934,-0.091033936,0.0907135,0.08769226,-1.9670004,0.75637054,9.577537
34.8052175,31.26506444,0.0,0.0024133527,12-21-16,0.17708111,0.13365376,-0.16645813,255.0,-3.6852767,-13.241047,-0.091033936,0.0907135,0.08769226,-1.9670004,0.75637054,9.577537
34.8052175,31.26506444,0.0,0.0024133527,12-21-16,0.17708111,0.13365376,-0.16645813,255.0,-3.6852767,-13.241047,-0.091033936,0.0907135,0.08769226,-1.9670004,0.75637054,9.577537
34.8052175,31.26506444,0.0,0.0024133527,12-21-16,0.17708111,0.13365376,-0.16645813,255.0,-3.6852767,-13.241047,-0.091033936,0.0907135,0.08769226,-1.9670004,0.75637054,9.577537
34.8052175,31.26506444,0.0,0.0024133527,12-21-16,0.17708111,0.13365376,-0.16645813,255.0,-3.7094,-13.496091,-0.091033936,0.0907135,0.08769226,-1.9670004,0.75637054,9.577537
34.8052175,31.26506444,0.0,0.0024133527,12-21-16,0.17708111,0.13365376,-0.16645813,255.0,-3.7094,-13.496091,-0.091033936,0.0907135,0.08769226,-1.9670004,0.75637054,9.577537
34.8052175,31.26506444,0.0,0.0024133527,12-21-16,0.17708111,0.13365376,-0.16645813,255.0,-3.7094,-13.496091,-0.091033936,0.0907135,0.08769226,-1.9670004,0.75637054,9.577537
34.8052175,31.26506444,0.0,0.0024133527,12-21-16,0.17708111,0.13365376,-0.16645813,255.0,-3.6988795,-13.837983,-0.091033936,0.0907135,0.08769226,-1.9670004,0.75637054,9.577537
34.8052175,31.26506444,0.0,0.0024133527,12-21-16,0.71299696,0.16641217,-0.04958248,256.0,-3.503789,-14.68872,-0.091033936,0.0907135,0.08769226,-2.1897435,0.62916255,9.538321
34.8052175,31.26506444,0.0,0.0024133527,12-21-16,0.71299696,0.16641217,-0.04958248,256.0,-3.503789,-14.68872,-0.091033936,0.0907135,0.08769226,-2.1897435,0.62916255,9.538321
34.8052175,31.26506444,0.0,0.0024133527,12-21-16,0.71299696,0.16641217,-0.04958248,256.0,-3.503789,-14.68872,-0.091033936,0.0907135,0.08769226,-2.1897435,0.62916255,9.538321
34.8052175,31.26506444,0.0,0.0024133527,12-21-16,0.71299696,0.16641217,-0.04958248,255.0,-3.4662678,-15.010558,-0.05496216,0.24008179,0.038986206,-2.1897435,0.62916255,9.538321
34.8052175,31.26506444,0.0,0.0024133527,12-21-16,0.71299696,0.16641217,-0.04958248,255.0,-3.4662678,-15.010558,-0.05496216,0.24008179,0.038986206,-2.1897435,0.62916255,9.538321
34.8052175,31.26506444,0.0,0.0024133527,12-21-16,0.71299696,0.16641217,-0.04958248,255.0,-3.4662678,-15.010558,-0.05496216,0.24008179,0.038986206,-2.1897435,0.62916255,9.538321
34.8052175,31.26506444,0.0,0.0024133527,12-21-16,0.71299696,0.16641217,-0.04958248,255.0,-3.4171646,-15.228287,-0.05496216,0.24008179,0.038986206,-2.1897435,0.62916255,9.538321
34.8052175,31.26506444,0.0,0.0024133527,12-21-16,0.71299696,0.16641217,-0.04958248,255.0,-3.2450511,-15.610044,-0.05496216,0.24008179,0.038986206,-2.1897435,0.62916255,9.538321
34.8052175,31.26506444,0.0,0.0024133527,12-21-16,0.71299696,0.16641217,-0.04958248,255.0,-3.2450511,-15.610044,-0.05496216,0.24008179,0.038986206,-2.1897435,0.62916255,9.538321
34.80521751,31.26506443,0.0,0.0038330064,12-21-16,0.71299696,0.16641217,-0.04958248,255.0,-3.1835504,-15.763098,-0.05496216,0.24008179,0.038986206,-2.1897435,0.62916255,9.538321
34.80521751,31.26506443,0.0,0.0038330064,12-21-16,0.71299696,0.16641217,-0.04958248,255.0,-3.1835504,-15.763098,-0.05496216,0.24008179,0.038986206,-2.1897435,0.62916255,9.538321
34.80521751,31.26506443,0.0,0.0038330064,12-21-16,0.71299696,0.16641217,-0.04958248,255.0,-3.1835504,-15.763098,-0.05496216,0.24008179,0.038986206,-2.1897435,0.62916255,9.538321
34.80521751,31.26506443,0.0,0.0038330064,12-21-16,0.71299696,0.16641217,-0.04958248,255.0,-3.1835504,-15.763098,-0.05496216,0.24008179,0.038986206,-2.1897435,0.62916255,9.538321
34.80521751,31.26506443,0.0,0.0038330064,12-21-16,-0.47815013,0.071120024,0.029772758,255.0,-3.132766,-15.818279,-0.05496216,0.24008179,0.038986206,-2.5457156,0.53892195,9.455119
34.80521751,31.26506443,0.0,0.0038330064,12-21-16,-0.47815013,0.071120024,0.029772758,256.0,-2.9518256,-16.058907,-0.05496216,0.24008179,0.038986206,-2.5457156,0.53892195,9.455119
34.80521751,31.26506443,0.0,0.0038330064,12-21-16,-0.47815013,0.071120024,0.029772758,256.0,-2.8411343,-16.079391,-0.03665161,0.07319641,-0.08554077,-2.5457156,0.53892195,9.455119
34.80521751,31.26506443,0.0,0.0038330064,12-21-16,-0.47815013,0.071120024,0.029772758,256.0,-2.9518256,-16.058907,-0.05496216,0.24008179,0.038986206,-2.5457156,0.53892195,9.455119
34.80521751,31.26506443,0.0,0.0038330064,12-21-16,-0.47815013,0.071120024,0.029772758,256.0,-2.8411343,-16.079391,-0.03665161,0.07319641,-0.08554077,-2.5457156,0.53892195,9.455119
34.80521751,31.26506443,0.0,0.0038330064,12-21-16,-0.47815013,0.071120024,0.029772758,256.0,-2.8411343,-16.079391,-0.03665161,0.07319641,-0.08554077,-2.5457156,0.53892195,9.455119
34.80521751,31.26506443,0.0,0.0038330064,12-21-16,-0.47815013,0.071120024,0.029772758,256.0,-2.8411343,-16.079391,-0.03665161,0.07319641,-0.08554077,-2.5457156,0.53892195,9.455119
34.80521751,31.26506443,0.0,0.0038330064,12-21-16,-0.47815013,0.071120024,0.029772758,256.0,-2.7601528,-16.098473,-0.03665161,0.07319641,-0.08554077,-2.5457156,0.53892195,9.455119
34.80521751,31.26506443,0.0,0.0038330064,12-21-16,-0.47815013,0.071120024,0.029772758,256.0,-2.7587852,-16.107233,-0.03665161,0.07319641,-0.08554077,-2.5457156,0.53892195,9.455119
34.80521751,31.26506443,0.0,0.0038330064,12-21-16,-0.47815013,0.071120024,0.029772758,256.0,-2.7587852,-16.107233,-0.03665161,0.07319641,-0.08554077,-2.5457156,0.53892195,9.455119
34.80521751,31.26506443,0.0,0.0038330064,12-21-16,-0.47815013,0.071120024,0.029772758,256.0,-2.7182486,-16.08944,-0.03665161,0.07319641,-0.08554077,-2.5457156,0.53892195,9.455119
34.80521751,31.26506443,0.0,0.0038330064,12-21-16,-0.47815013,0.071120024,0.029772758,256.0,-2.7182486,-16.08944,-0.03665161,0.07319641,-0.08554077,-2.5457156,0.53892195,9.455119
34.80521751,31.26506443,0.0,0.0038330064,12-21-16,-0.47815013,0.071120024,0.029772758,256.0,-2.7182486,-16.08944,-0.03665161,0.07319641,-0.08554077,-2.5457156,0.53892195,9.455119
34.80521751,31.26506443,0.0,0.0038330064,12-21-16,-0.47815013,0.071120024,0.029772758,256.0,-2.6348596,-16.139126,-0.03665161,0.07319641,-0.08554077,-2.5457156,0.53892195,9.455119
34.80521751,31.26506443,0.0,0.0038330064,12-21-16,-0.43313313,-0.4447003,0.18556118,256.0,-2.6113858,-16.161386,-0.03665161,0.07319641,-0.08554077,-2.7106385,0.4430479,9.414166
34.80521751,31.26506443,0.0,0.0038330064,12-21-16,-0.43313313,-0.4447003,0.18556118,256.0,-2.8356533,-16.163044,-0.03665161,0.07319641,-0.08554077,-2.7106385,0.4430479,9.414166
34.80521751,31.26506443,0.0,0.0038330064,12-21-16,-0.43313313,-0.4447003,0.18556118,256.0,-2.8356533,-16.163044,-0.03665161,0.07319641,-0.08554077,-2.7106385,0.4430479,9.414166
34.80521751,31.26506443,0.0,0.0038330064,12-21-16,-0.43313313,-0.4447003,0.18556118,256.0,-2.9412675,-16.146059,0.03074646,0.003112793,-0.027175903,-2.7106385,0.4430479,9.414166
34.80521751,31.26506443,0.0,0.0038330064,12-21-16,-0.43313313,-0.4447003,0.18556118,256.0,-2.9412675,-16.146059,0.03074646,0.003112793,-0.027175903,-2.7106385,0.4430479,9.414166
34.80521751,31.26506443,0.0,0.0038330064,12-21-16,-0.43313313,-0.4447003,0.18556118,256.0,-2.9412675,-16.146059,0.03074646,0.003112793,-0.027175903,-2.7106385,0.4430479,9.414166
34.80521751,31.26506443,0.0,0.0038330064,12-21-17,-0.43313313,-0.4447003,0.18556118,256.0,-2.960208,-16.137505,0.03074646,0.003112793,-0.027175903,-2.7106385,0.4430479,9.414166
34.80521751,31.26506443,0.0,0.0038330064,12-21-17,-0.43313313,-0.4447003,0.18556118,256.0,-2.94263,-16.16224,0.03074646,0.003112793,-0.027175903,-2.7106385,0.4430479,9.414166
34.80521751,31.26506443,0.0,0.0038330064,12-21-17,-0.43313313,-0.4447003,0.18556118,256.0,-3.0597072,-16.067669,0.03074646,0.003112793,-0.027175903,-2.7106385,0.4430479,9.414166
34.80521751,31.26506443,0.0,0.0038330064,12-21-17,-0.43313313,-0.4447003,0.18556118,256.0,-3.0597072,-16.067669,0.03074646,0.003112793,-0.027175903,-2.7106385,0.4430479,9.414166
34.80521751,31.26506443,0.0,0.0038330064,12-21-17,-0.43313313,-0.4447003,0.18556118,256.0,-3.1492531,-16.07821,0.03074646,0.003112793,-0.027175903,-2.7106385,0.4430479,9.414166
34.80521751,31.26506443,0.0,0.0038330064,12-21-17,-0.43313313,-0.4447003,0.18556118,256.0,-3.1492531,-16.07821,0.03074646,0.003112793,-0.027175903,-2.7106385,0.4430479,9.414166
34.80521751,31.26506443,0.0,0.0038330064,12-21-17,-0.43313313,-0.4447003,0.18556118,256.0,-3.1492531,-16.07821,0.03074646,0.003112793,-0.027175903,-2.7106385,0.4430479,9.414166
34.80521751,31.26506443,0.0,0.0038330064,12-21-17,-0.43313313,-0.4447003,0.18556118,256.0,-3.2025204,-16.064371,0.03074646,0.003112793,-0.027175903,-2.7106385,0.4430479,9.414166
34.80521751,31.26506443,0.0,0.0038330064,12-21-17,-0.1096251,-0.27427077,0.15376091,256.0,-3.2755494,-15.9799,0.03074646,0.003112793,-0.027175903,-2.713343,0.46511722,9.412323
34.80521751,31.26506443,0.0,0.0038330064,12-21-17,-0.1096251,-0.27427077,0.15376091,256.0,-3.7442493,-15.770268,0.03074646,0.003112793,-0.027175903,-2.713343,0.46511722,9.412323
34.80521751,31.26506443,0.0,0.0038330064,12-21-17,-0.1096251,-0.27427077,0.15376091,256.0,-3.7442493,-15.770268,0.03074646,0.003112793,-0.027175903,-2.713343,0.46511722,9.412323
34.80521751,31.26506443,0.0,0.0038330064,12-21-17,-0.1096251,-0.27427077,0.15376091,256.0,-3.7442493,-15.770268,0.066848755,-0.02218628,0.08276367,-2.713343,0.46511722,9.412323
34.80521751,31.26506443,0.0,0.0038330064,12-21-17,-0.1096251,-0.27427077,0.15376091,256.0,-3.7442493,-15.770268,0.066848755,-0.02218628,0.08276367,-2.713343,0.46511722,9.412323
34.80521751,31.26506443,0.0,0.0038330064,12-21-17,-0.1096251,-0.27427077,0.15376091,256.0,-3.8830342,-15.76022,0.066848755,-0.02218628,0.08276367,-2.713343,0.46511722,9.412323
34.80521751,31.26506443,0.0,0.0038330064,12-21-17,-0.1096251,-0.27427077,0.15376091,256.0,-3.8830342,-15.76022,0.066848755,-0.02218628,0.08276367,-2.713343,0.46511722,9.412323
34.80521751,31.26506443,0.0,0.0038330064,12-21-17,-0.1096251,-0.27427077,0.15376091,255.0,-4.0086837,-15.772862,0.066848755,-0.02218628,0.08276367,-2.713343,0.46511722,9.412323
34.80521751,31.26506443,0.0,0.0038330064,12-21-17,-0.1096251,-0.27427077,0.15376091,255.0,-4.396277,-15.907292,0.066848755,-0.02218628,0.08276367,-2.713343,0.46511722,9.412323
34.80521751,31.26506443,0.0,0.0038330064,12-21-17,-0.1096251,-0.27427077,0.15376091,255.0,-4.396277,-15.907292,0.066848755,-0.02218628,0.08276367,-2.713343,0.46511722,9.412323
34.80521751,31.26506443,0.0,0.0038330064,12-21-17,-0.1096251,-0.27427077,0.15376091,255.0,-4.396277,-15.907292,0.066848755,-0.02218628,0.08276367,-2.713343,0.46511722,9.412323
34.80521751,31.26506443,0.0,0.0038330064,12-21-17,-0.1096251,-0.27427077,0.15376091,255.0,-4.396277,-15.907292,0.066848755,-0.02218628,0.08276367,-2.713343,0.46511722,9.412323
34.80521751,31.26506443,0.0,0.0038330064,12-21-17,-0.1096251,-0.27427077,0.15376091,255.0,-4.5507474,-16.013042,0.066848755,-0.02218628,0.08276367,-2.713343,0.46511722,9.412323
34.80521751,31.26506443,0.0,0.0038330064,12-21-17,-0.1096251,-0.27427077,0.15376091,255.0,-4.5507474,-16.013042,0.066848755,-0.02218628,0.08276367,-2.713343,0.46511722,9.412323
34.80521751,31.26506443,0.0,0.0038330064,12-21-17,0.69041586,0.2387864,0.3667698,255.0,-4.679138,-16.13162,0.066848755,-0.02218628,0.08276367,-2.6928332,0.6507671,9.407207
34.80521751,31.26506443,0.0,0.0038330064,12-21-17,0.69041586,0.2387864,0.3667698,255.0,-4.8198867,-16.571835,0.066848755,-0.02218628,0.08276367,-2.6928332,0.6507671,9.407207
34.80521751,31.26506443,0.0,0.0038330064,12-21-17,0.69041586,0.2387864,0.3667698,255.0,-4.8198867,-16.571835,0.066848755,-0.02218628,0.08276367,-2.6928332,0.6507671,9.407207
34.80521751,31.26506443,0.0,0.0038330064,12-21-17,0.69041586,0.2387864,0.3667698,255.0,-4.862932,-16.706436,0.06694031,0.09980774,0.02218628,-2.6928332,0.6507671,9.407207
34.80521751,31.26506443,0.0,0.0038330064,12-21-17,0.69041586,0.2387864,0.3667698,255.0,-4.862932,-16.706436,0.06694031,0.09980774,0.02218628,-2.6928332,0.6507671,9.407207
34.80521751,31.26506443,0.0,0.0038330064,12-21-17,0.69041586,0.2387864,0.3667698,255.0,-4.862932,-16.706436,0.06694031,0.09980774,0.02218628,-2.6928332,0.6507671,9.407207
34.80521751,31.26506443,0.0,0.0038330064,12-21-17,0.69041586,0.2387864,0.3667698,255.0,-4.862932,-16.706436,0.06694031,0.09980774,0.02218628,-2.6928332,0.6507671,9.407207
34.80521751,31.26506443,0.0,0.0038330064,12-21-17,0.69041586,0.2387864,0.3667698,255.0,-4.8842225,-16.838444,0.06694031,0.09980774,0.02218628,-2.6928332,0.6507671,9.407207
34.80521751,31.26506443,0.0,0.0038330064,12-21-17,0.69041586,0.2387864,0.3667698,255.0,-4.885498,-17.15357,0.06694031,0.09980774,0.02218628,-2.6928332,0.6507671,9.407207
34.80521751,31.26506443,0.0,0.0038330064,12-21-17,0.69041586,0.2387864,0.3667698,255.0,-4.885498,-17.15357,0.06694031,0.09980774,0.02218628,-2.6928332,0.6507671,9.407207
34.80521751,31.26506443,0.0,0.0038330064,12-21-17,0.69041586,0.2387864,0.3667698,255.0,-4.904678,-17.226301,0.06694031,0.09980774,0.02218628,-2.6928332,0.6507671,9.407207
34.80521751,31.26506443,0.0,0.0038330064,12-21-17,0.69041586,0.2387864,0.3667698,255.0,-4.904678,-17.226301,0.06694031,0.09980774,0.02218628,-2.6928332,0.6507671,9.407207
34.80521751,31.26506443,0.0,0.0038330064,12-21-17,0.69041586,0.2387864,0.3667698,255.0,-4.904678,-17.226301,0.06694031,0.09980774,0.02218628,-2.6928332,0.6507671,9.407207
34.80521751,31.26506443,0.0,0.0038330064,12-21-17,0.69041586,0.2387864,0.3667698,255.0,-4.904678,-17.226301,0.06694031,0.09980774,0.02218628,-2.8231037,0.78190696,9.358905
34.80521751,31.26506443,0.0,0.0038330064,12-21-17,-0.060011625,0.20162815,-0.010707855,255.0,-4.9244614,-17.27873,0.06694031,0.09980774,0.02218628,-2.8231037,0.78190696,9.358905
34.80521751,31.26506443,0.0,0.0038330064,12-21-17,-0.060011625,0.20162815,-0.010707855,255.0,-4.9424553,-17.463848,0.06694031,0.09980774,0.02218628,-2.8231037,0.78190696,9.358905
34.80521751,31.26506443,0.0,0.0038330064,12-21-17,-0.060011625,0.20162815,-0.010707855,255.0,-4.973492,-17.480986,0.06694031,0.09980774,0.02218628,-2.8231037,0.78190696,9.358905
34.80521751,31.26506443,0.0,0.0038330064,12-21-17,-0.060011625,0.20162815,-0.010707855,255.0,-4.973492,-17.480986,-0.0047912598,0.064193726,0.045318604,-2.8231037,0.78190696,9.358905
34.80521751,31.26506443,0.0,0.0038330064,12-21-17,-0.060011625,0.20162815,-0.010707855,255.0,-4.973492,-17.480986,-0.0047912598,0.064193726,0.045318604,-2.8231037,0.78190696,9.358905
34.80521751,31.26506443,0.0,0.0038330064,12-21-17,-0.060011625,0.20162815,-0.010707855,255.0,-4.973492,-17.480986,-0.0047912598,0.064193726,0.045318604,-2.8231037,0.78190696,9.358905
34.80521751,31.26506443,0.0,0.0038330064,12-21-17,-0.060011625,0.20162815,-0.010707855,255.0,-4.973492,-17.480986,-0.0047912598,0.064193726,0.045318604,-2.8231037,0.78190696,9.358905
34.80521751,31.26506443,0.0,0.0038330064,12-21-17,-0.060011625,0.20162815,-0.010707855,255.0,-5.020505,-17.492113,-0.0047912598,0.064193726,0.045318604,-2.8231037,0.78190696,9.358905
34.80521751,31.26506443,0.0,0.0038330064,12-21-17,-0.060011625,0.20162815,-0.010707855,255.0,-5.1629157,-17.626162,-0.0047912598,0.064193726,0.045318604,-2.8231037,0.78190696,9.358905
34.80521751,31.26506443,0.0,0.0038330064,12-21-17,-0.060011625,0.20162815,-0.010707855,255.0,-5.1629157,-17.626162,-0.0047912598,0.064193726,0.045318604,-2.8231037,0.78190696,9.358905
34.80521753,31.26506442,0.0,0.0058465083,12-21-17,-0.060011625,0.20162815,-0.010707855,255.0,-5.1629157,-17.626162,-0.0047912598,0.064193726,0.045318604,-2.8231037,0.78190696,9.358905
34.80521753,31.26506442,0.0,0.0058465083,12-21-17,0.0705688,-0.0018372536,0.07508373,255.0,-5.1629157,-17.626162,-0.0047912598,0.064193726,0.045318604,-2.94813,0.8159379,9.317358
34.80521753,31.26506442,0.0,0.0058465083,12-21-17,0.0705688,-0.0018372536,0.07508373,255.0,-5.1629157,-17.626162,-0.0047912598,0.064193726,0.045318604,-2.94813,0.8159379,9.317358
34.80521753,31.26506442,0.0,0.0058465083,12-21-17,0.0705688,-0.0018372536,0.07508373,255.0,-5.1629157,-17.626162,-0.0047912598,0.064193726,0.045318604,-2.94813,0.8159379,9.317358
34.80521753,31.26506442,0.0,0.0058465083,12-21-17,0.0705688,-0.0018372536,0.07508373,255.0,-5.239742,-17.793543,-0.0047912598,0.064193726,0.045318604,-2.94813,0.8159379,9.317358
34.80521753,31.26506442,0.0,0.0058465083,12-21-17,0.0705688,-0.0018372536,0.07508373,255.0,-5.3505926,-17.883856,-0.0047912598,0.064193726,0.045318604,-2.94813,0.8159379,9.317358
34.80521753,31.26506442,0.0,0.0058465083,12-21-17,0.0705688,-0.0018372536,0.07508373,255.0,-5.3505926,-17.883856,-0.0047912598,0.064193726,0.045318604,-2.94813,0.8159379,9.317358
34.80521753,31.26506442,0.0,0.0058465083,12-21-17,0.0705688,-0.0018372536,0.07508373,255.0,-5.3505926,-17.883856,-0.0047912598,0.064193726,0.045318604,-2.94813,0.8159379,9.317358
34.80521753,31.26506442,0.0,0.0058465083,12-21-17,0.0705688,-0.0018372536,0.07508373,255.0,-5.3505926,-17.883856,-0.0047912598,0.064193726,0.045318604,-2.94813,0.8159379,9.317358
34.80521753,31.26506442,0.0,0.0058465083,12-21-17,0.0705688,-0.0018372536,0.07508373,255.0,-5.3505926,-17.883856,0.033615112,0.04611206,-0.016860962,-2.94813,0.8159379,9.317358
34.80521753,31.26506442,0.0,0.0058465083,12-21-17,0.0705688,-0.0018372536,0.07508373,255.0,-5.4391565,-17.962872,0.033615112,0.04611206,-0.016860962,-2.94813,0.8159379,9.317358
34.80521753,31.26506442,0.0,0.0058465083,12-21-17,0.0705688,-0.0018372536,0.07508373,255.0,-5.497185,-18.099558,0.033615112,0.04611206,-0.016860962,-2.94813,0.8159379,9.317358
34.80521753,31.26506442,0.0,0.0058465083,12-21-17,0.0705688,-0.0018372536,0.07508373,255.0,-5.61753,-18.14783,0.033615112,0.04611206,-0.016860962,-2.94813,0.8159379,9.317358
34.80521753,31.26506442,0.0,0.0058465083,12-21-17,0.0705688,-0.0018372536,0.07508373,255.0,-5.690878,-18.077217,0.033615112,0.04611206,-0.016860962,-2.94813,0.8159379,9.317358
34.80521753,31.26506442,0.0,0.0058465083,12-21-17,0.0705688,-0.0018372536,0.07508373,255.0,-5.690878,-18.077217,0.033615112,0.04611206,-0.016860962,-2.94813,0.8159379,9.317358
34.80521753,31.26506442,0.0,0.0058465083,12-21-17,0.0705688,-0.0018372536,0.07508373,255.0,-5.690878,-18.077217,0.033615112,0.04611206,-0.016860962,-2.94813,0.8159379,9.317358
34.80521753,31.26506442,0.0,0.0058465083,12-21-17,-0.028407335,0.24354178,-0.0852108,255.0,-5.7296643,-18.136936,0.033615112,0.04611206,-0.016860962,-3.0220232,0.8577758,9.289886
34.80521753,31.26506442,0.0,0.0058465083,12-21-17,-0.028407335,0.24354178,-0.0852108,255.0,-5.7296643,-18.136936,0.033615112,0.04611206,-0.016860962,-3.0220232,0.8577758,9.289886
34.80521753,31.26506442,0.0,0.0058465083,12-21-17,-0.028407335,0.24354178,-0.0852108,255.0,-5.722914,-18.25295,0.033615112,0.04611206,-0.016860962,-3.0220232,0.8577758,9.289886
34.80521753,31.26506442,0.0,0.0058465083,12-21-17,-0.028407335,0.24354178,-0.0852108,255.0,-5.6114445,-18.394142,0.033615112,0.04611206,-0.016860962,-3.0220232,0.8577758,9.289886
34.80521753,31.26506442,0.0,0.0058465083,12-21-17,-0.028407335,0.24354178,-0.0852108,255.0,-5.6114445,-18.394142,0.033615112,0.04611206,-0.016860962,-3.0220232,0.8577758,9.289886
34.80521753,31.26506442,0.0,0.0058465083,12-21-17,-0.028407335,0.24354178,-0.0852108,255.0,-5.6114445,-18.394142,0.033615112,0.04611206,-0.016860962,-3.0220232,0.8577758,9.289886
34.80521753,31.26506442,0.0,0.0058465083,12-21-18,-0.028407335,0.24354178,-0.0852108,255.0,-5.6114445,-18.394142,0.033615112,0.04611206,-0.016860962,-3.0220232,0.8577758,9.289886
34.80521753,31.26506442,0.0,0.0058465083,12-21-18,-0.028407335,0.24354178,-0.0852108,255.0,-5.5700035,-18.432339,-0.021347046,0.013656616,-0.021972656,-3.0220232,0.8577758,9.289886
34.80521753,31.26506442,0.0,0.0058465083,12-21-18,-0.028407335,0.24354178,-0.0852108,255.0,-5.5700035,-18.432339,-0.021347046,0.013656616,-0.021972656,-3.0220232,0.8577758,9.289886
34.80521753,31.26506442,0.0,0.0058465083,12-21-18,-0.028407335,0.24354178,-0.0852108,254.0,-5.5479484,-18.484081,-0.021347046,0.013656616,-0.021972656,-3.0220232,0.8577758,9.289886
34.80521753,31.26506442,0.0,0.0058465083,12-21-18,-0.028407335,0.24354178,-0.0852108,255.0,-5.498689,-18.353168,-0.021347046,0.013656616,-0.021972656,-3.0220232,0.8577758,9.289886
34.80521753,31.26506442,0.0,0.0058465083,12-21-18,-0.028407335,0.24354178,-0.0852108,255.0,-5.498689,-18.353168,-0.021347046,0.013656616,-0.021972656,-3.0220232,0.8577758,9.289886
34.80521753,31.26506442,0.0,0.0058465083,12-21-18,-0.15572095,0.24027318,-0.096131325,255.0,-5.498689,-18.353168,-0.021347046,0.013656616,-0.021972656,-3.0616503,0.8190416,9.280402
34.80521753,31.26506442,0.0,0.0058465083,12-21-18,-0.15572095,0.24027318,-0.096131325,255.0,-5.388165,-18.385975,-0.021347046,0.013656616,-0.021972656,-3.0616503,0.8190416,9.280402
34.80521753,31.26506442,0.0,0.0058465083,12-21-18,-0.15572095,0.24027318,-0.096131325,255.0,-5.388165,-18.385975,-0.021347046,0.013656616,-0.021972656,-3.0616503,0.8190416,9.280402
34.80521753,31.26506442,0.0,0.0058465083,12-21-18,-0.15572095,0.24027318,-0.096131325,255.0,-5.388165,-18.385975,-0.021347046,0.013656616,-0.021972656,-3.0616503,0.8190416,9.280402
34.80521753,31.26506442,0.0,0.0058465083,12-21-18,-0.15572095,0.24027318,-0.096131325,255.0,-5.2651143,-18.436224,-0.021347046,0.013656616,-0.021972656,-3.0616503,0.8190416,9.280402
34.80521753,31.26506442,0.0,0.0058465083,12-21-18,-0.15572095,0.24027318,-0.096131325,255.0,-4.917184,-18.249178,-0.021347046,0.013656616,-0.021972656,-3.0616503,0.8190416,9.280402
34.80521753,31.26506442,0.0,0.0058465083,12-21-18,-0.15572095,0.24027318,-0.096131325,255.0,-4.917184,-18.249178,-0.021347046,0.013656616,-0.021972656,-3.0616503,0.8190416,9.280402
