Longitude,Latitude,Speed,Distance,Time,Acc X,Acc Y,Acc Z,Heading,Pitch,Roll,gyro_x,gyro_y,gyro_z,gravity_x,gravity_y,gravity_z
34.80521661,31.26505576,0.0,3.075353,12-16-35,-0.028324366,0.023751318,-0.09813309,109.0,-5.5025187,-15.243737,-0.0014953613,0.06971741,-9.3078613E-4,-2.538872,0.95405746,9.424133
34.80521661,31.26505576,0.0,3.075353,12-16-35,-0.028324366,0.023751318,-0.09813309,109.0,-5.286601,-15.346972,-0.039276123,0.027236938,0.0027618408,-2.538872,0.95405746,9.424133
34.80521661,31.26505576,0.0,3.075353,12-16-35,-0.028324366,0.023751318,-0.09813309,109.0,-5.286601,-15.346972,-0.039276123,0.027236938,0.0027618408,-2.538872,0.95405746,9.424133
34.80521661,31.26505576,0.0,3.075353,12-16-35,-0.028324366,0.023751318,-0.09813309,109.0,-5.286601,-15.346972,-0.039276123,0.027236938,0.0027618408,-2.538872,0.95405746,9.424133
34.80521659,31.26505576,0.0,0.0019047818,12-16-35,-0.028324366,0.023751318,-0.09813309,109.0,-5.238508,-15.300876,-0.039276123,0.027236938,0.0027618408,-2.538872,0.95405746,9.424133
34.80521659,31.26505576,0.0,0.0019047818,12-16-35,-0.028324366,0.023751318,-0.09813309,109.0,-5.238508,-15.300876,-0.039276123,0.027236938,0.0027618408,-2.538872,0.95405746,9.424133
34.80521659,31.26505576,0.0,0.0019047818,12-16-35,-0.002115965,-0.045012653,0.035268784,108.0,-5.371308,-15.300938,-0.039276123,0.027236938,0.0027618408,-2.584551,0.88602316,9.418357
34.80521659,31.26505576,0.0,0.0019047818,12-16-35,-0.002115965,-0.045012653,0.035268784,108.0,-5.485662,-15.348865,-0.0071105957,0.0129852295,0.04246521,-2.584551,0.88602316,9.418357
34.80521659,31.26505576,0.0,0.0019047818,12-16-35,-0.002115965,-0.045012653,0.035268784,108.0,-5.485662,-15.348865,-0.0071105957,0.0129852295,0.04246521,-2.584551,0.88602316,9.418357
34.80521659,31.26505576,0.0,0.0019047818,12-16-35,-0.002115965,-0.045012653,0.035268784,109.0,-5.451759,-15.512134,-0.0071105957,0.0129852295,0.04246521,-2.584551,0.88602316,9.418357
34.80521659,31.26505576,0.0,0.0019047818,12-16-35,0.012285709,0.058050454,0.0343647,108.0,-5.481654,-15.509813,-0.0071105957,0.0129852295,0.04246521,-2.60146,0.9054471,9.411852
34.80521659,31.26505576,0.0,0.0019047818,12-16-35,0.012285709,0.058050454,0.0343647,108.0,-5.481654,-15.509813,-0.0071105957,0.0129852295,0.04246521,-2.60146,0.9054471,9.411852
34.80521659,31.26505576,0.0,0.0019047818,12-16-35,0.012285709,0.058050454,0.0343647,109.0,-5.385863,-15.697669,-0.0071105957,0.0129852295,0.04246521,-2.60146,0.9054471,9.411852
34.80521659,31.26505576,0.0,0.0019047818,12-16-36,0.012285709,0.058050454,0.0343647,109.0,-5.2579427,-15.611865,-0.014144897,0.01663208,8.087158E-4,-2.60146,0.9054471,9.411852
34.80521659,31.26505576,0.0,0.0019047818,12-16-36,0.012285709,0.058050454,0.0343647,109.0,-5.2579427,-15.611865,-0.014144897,0.01663208,8.087158E-4,-2.60146,0.9054471,9.411852
34.80521659,31.26505576,0.0,0.0019047818,12-16-36,0.012285709,0.058050454,0.0343647,109.0,-5.2542143,-15.512418,-0.014144897,0.01663208,8.087158E-4,-2.60146,0.9054471,9.411852
34.80521659,31.26505576,0.0,0.0019047818,12-16-36,-0.09084654,-0.058503866,-0.005584717,109.0,-5.3359103,-15.35534,-0.014144897,0.01663208,8.087158E-4,-2.6363988,0.87816435,9.404713
34.80521659,31.26505576,0.0,0.0019047818,12-16-36,-0.09084654,-0.058503866,-0.005584717,109.0,-5.3359103,-15.35534,-0.014144897,0.01663208,8.087158E-4,-2.6363988,0.87816435,9.404713
34.80521659,31.26505576,0.0,0.0019047818,12-16-36,-0.09084654,-0.058503866,-0.005584717,109.0,-5.3920574,-15.261663,-0.014144897,0.01663208,8.087158E-4,-2.6363988,0.87816435,9.404713
34.80521659,31.26505576,0.0,0.0019047818,12-16-36,-0.09084654,-0.058503866,-0.005584717,109.0,-5.546501,-15.169851,0.028244019,-0.044204712,-0.021911621,-2.6363988,0.87816435,9.404713
34.80521659,31.26505576,0.0,0.0019047818,12-16-36,-0.09084654,-0.058503866,-0.005584717,109.0,-5.546501,-15.169851,0.028244019,-0.044204712,-0.021911621,-2.6363988,0.87816435,9.404713
34.80521659,31.26505576,0.0,0.0019047818,12-16-36,-0.09084654,-0.058503866,-0.005584717,110.0,-5.7133026,-15.230468,0.028244019,-0.044204712,-0.021911621,-2.6363988,0.87816435,9.404713
34.80521659,31.26505576,0.0,0.0019047818,12-16-36,-0.6021087,-0.042997956,0.8481989,109.0,-6.0055075,-14.750117,0.028244019,-0.044204712,-0.021911621,-2.5529077,0.9176978,9.423952
34.80521659,31.26505576,0.0,0.0019047818,12-16-36,-0.6021087,-0.042997956,0.8481989,109.0,-6.0055075,-14.750117,0.028244019,-0.044204712,-0.021911621,-2.5529077,0.9176978,9.423952
34.80521659,31.26505576,0.0,0.0019047818,12-16-36,-0.6021087,-0.042997956,0.8481989,109.0,-6.132311,-14.652818,0.028244019,-0.044204712,-0.021911621,-2.5529077,0.9176978,9.423952
34.80521659,31.26505576,0.0,0.0019047818,12-16-36,-0.6021087,-0.042997956,0.8481989,109.0,-6.5142035,-14.575764,0.07725525,-0.08985901,0.0072784424,-2.5529077,0.9176978,9.423952
34.80521659,31.26505576,0.0,0.0019047818,12-16-36,-0.6021087,-0.042997956,0.8481989,109.0,-6.5142035,-14.575764,0.07725525,-0.08985901,0.0072784424,-2.5529077,0.9176978,9.423952
34.80521659,31.26505576,0.0,0.0019047818,12-16-36,-0.6021087,-0.042997956,0.8481989,109.0,-6.5419946,-14.581213,0.07725525,-0.08985901,0.0072784424,-2.5529077,0.9176978,9.423952
34.80521659,31.26505576,0.0,0.0019047818,12-16-36,-0.2508328,0.21263063,0.7806349,108.0,-6.261427,-15.074295,0.07725525,-0.08985901,0.0072784424,-2.4904137,1.0060432,9.431654
34.80521659,31.26505576,0.0,0.0019047818,12-16-36,-0.2508328,0.21263063,0.7806349,108.0,-6.261427,-15.074295,0.07725525,-0.08985901,0.0072784424,-2.4904137,1.0060432,9.431654
34.80521659,31.26505576,0.0,0.0019047818,12-16-36,-0.2508328,0.21263063,0.7806349,108.0,-6.1175475,-15.249778,0.07725525,-0.08985901,0.0072784424,-2.4904137,1.0060432,9.431654
34.80521659,31.26505576,0.0,0.0019047818,12-16-36,-0.2508328,0.21263063,0.7806349,108.0,-5.667284,-16.593472,-0.078552246,0.14035034,0.07434082,-2.4904137,1.0060432,9.431654
34.80521659,31.26505576,0.0,0.0019047818,12-16-36,-0.2508328,0.21263063,0.7806349,108.0,-5.667284,-16.593472,-0.078552246,0.14035034,0.07434082,-2.4904137,1.0060432,9.431654
34.80521659,31.26505576,0.0,0.0019047818,12-16-36,-0.2508328,0.21263063,0.7806349,108.0,-5.536936,-17.000494,-0.078552246,0.14035034,0.07434082,-2.4904137,1.0060432,9.431654
34.80521659,31.2650558,0.0,0.004826704,12-16-36,0.5257001,0.22735304,0.7795429,109.0,-5.1801243,-18.896494,-0.078552246,0.14035034,0.07434082,-2.7680364,0.94364375,9.360443
34.80521659,31.2650558,0.0,0.004826704,12-16-36,0.5257001,0.22735304,0.7795429,109.0,-5.1801243,-18.896494,-0.078552246,0.14035034,0.07434082,-2.7680364,0.94364375,9.360443
34.80521659,31.2650558,0.0,0.004826704,12-16-36,0.5257001,0.22735304,0.7795429,109.0,-5.1520195,-19.48995,-0.078552246,0.14035034,0.07434082,-2.7680364,0.94364375,9.360443
34.80521659,31.2650558,0.0,0.004826704,12-16-36,0.5257001,0.22735304,0.7795429,110.0,-5.266888,-21.340113,0.0051574707,0.40444946,-0.19520569,-2.7680364,0.94364375,9.360443
34.80521659,31.2650558,0.0,0.004826704,12-16-36,0.5257001,0.22735304,0.7795429,110.0,-5.266888,-21.340113,0.0051574707,0.40444946,-0.19520569,-2.7680364,0.94364375,9.360443
34.80521659,31.2650558,0.0,0.004826704,12-16-36,0.5257001,0.22735304,0.7795429,110.0,-5.2154045,-22.109665,0.0051574707,0.40444946,-0.19520569,-2.7680364,0.94364375,9.360443
34.80521659,31.2650558,0.0,0.004826704,12-16-36,-0.036902905,-0.42327136,-0.32427883,108.0,-5.3988023,-22.871918,0.0051574707,0.40444946,-0.19520569,-3.4144437,0.8252283,9.155925
34.80521659,31.2650558,0.0,0.004826704,12-16-36,-0.036902905,-0.42327136,-0.32427883,108.0,-5.3988023,-22.871918,0.0051574707,0.40444946,-0.19520569,-3.4144437,0.8252283,9.155925
34.80521659,31.2650558,0.0,0.004826704,12-16-36,-0.036902905,-0.42327136,-0.32427883,107.0,-5.497397,-23.656002,0.0051574707,0.40444946,-0.19520569,-3.4144437,0.8252283,9.155925
34.80521659,31.2650558,0.0,0.004826704,12-16-37,-0.036902905,-0.42327136,-0.32427883,105.0,-5.6672225,-24.282444,-0.08937073,0.31098938,0.2836914,-3.4144437,0.8252283,9.155925
34.80521659,31.2650558,0.0,0.004826704,12-16-37,-0.036902905,-0.42327136,-0.32427883,105.0,-5.6672225,-24.282444,-0.08937073,0.31098938,0.2836914,-3.4144437,0.8252283,9.155925
34.80521659,31.2650558,0.0,0.004826704,12-16-37,-0.036902905,-0.42327136,-0.32427883,105.0,-5.5080924,-24.590933,-0.08937073,0.31098938,0.2836914,-3.4144437,0.8252283,9.155925
34.80521659,31.2650558,0.0,0.004826704,12-16-37,-0.10468173,0.090168,-0.17221737,107.0,-5.2081504,-24.362247,-0.08937073,0.31098938,0.2836914,-3.8939657,0.81469136,8.963465
34.80521659,31.2650558,0.0,0.004826704,12-16-37,-0.10468173,0.090168,-0.17221737,107.0,-5.2081504,-24.362247,-0.08937073,0.31098938,0.2836914,-3.8939657,0.81469136,8.963465
34.80521659,31.2650558,0.0,0.004826704,12-16-37,-0.10468173,0.090168,-0.17221737,107.0,-5.0598006,-24.297785,-0.08937073,0.31098938,0.2836914,-3.8939657,0.81469136,8.963465
34.80521659,31.2650558,0.0,0.004826704,12-16-37,-0.10468173,0.090168,-0.17221737,105.0,-5.1272054,-23.782505,-0.04121399,-0.0050201416,-0.009033203,-3.8939657,0.81469136,8.963465
34.80521659,31.2650558,0.0,0.004826704,12-16-37,-0.10468173,0.090168,-0.17221737,105.0,-5.1272054,-23.782505,-0.04121399,-0.0050201416,-0.009033203,-3.8939657,0.81469136,8.963465
34.80521659,31.2650558,0.0,0.004826704,12-16-37,-0.10468173,0.090168,-0.17221737,104.0,-5.200252,-23.539581,-0.04121399,-0.0050201416,-0.009033203,-3.8939657,0.81469136,8.963465
34.80521659,31.2650558,0.0,0.004826704,12-16-37,0.08394241,-0.40185207,-0.66850567,104.0,-6.15941,-22.379055,-0.04121399,-0.0050201416,-0.009033203,-3.9390516,0.814439,8.943766
34.80521659,31.2650558,0.0,0.004826704,12-16-37,0.08394241,-0.40185207,-0.66850567,104.0,-6.15941,-22.379055,-0.04121399,-0.0050201416,-0.009033203,-3.9390516,0.814439,8.943766
34.80521659,31.2650558,0.0,0.004826704,12-16-37,0.08394241,-0.40185207,-0.66850567,104.0,-6.36361,-21.90047,-0.04121399,-0.0050201416,-0.009033203,-3.9390516,0.814439,8.943766
34.80521659,31.2650558,0.0,0.004826704,12-16-37,0.08394241,-0.40185207,-0.66850567,103.0,-6.6572156,-21.28329,0.011383057,-0.20368958,0.29367065,-3.9390516,0.814439,8.943766
34.80521659,31.2650558,0.0,0.004826704,12-16-37,0.08394241,-0.40185207,-0.66850567,103.0,-6.6572156,-21.28329,0.011383057,-0.20368958,0.29367065,-3.9390516,0.814439,8.943766
34.80521659,31.2650558,0.0,0.004826704,12-16-37,0.08394241,-0.40185207,-0.66850567,104.0,-6.6055417,-21.268473,0.011383057,-0.20368958,0.29367065,-3.9390516,0.814439,8.943766
34.80521659,31.2650558,0.0,0.004826704,12-16-37,0.4250481,0.6713498,0.023501396,107.0,-6.24064,-20.452147,0.011383057,-0.20368958,0.29367065,-3.6325412,0.9209569,9.062388
34.80521659,31.2650558,0.0,0.004826704,12-16-37,0.4250481,0.6713498,0.023501396,107.0,-6.24064,-20.452147,0.011383057,-0.20368958,0.29367065,-3.6325412,0.9209569,9.062388
34.80521659,31.2650558,0.0,0.004826704,12-16-37,0.4250481,0.6713498,0.023501396,107.0,-6.348142,-20.48877,0.011383057,-0.20368958,0.29367065,-3.6325412,0.9209569,9.062388
34.80521659,31.2650558,0.0,0.004826704,12-16-37,0.4250481,0.6713498,0.023501396,105.0,-6.747932,-19.758205,0.08236694,-0.13362122,-0.18888855,-3.6325412,0.9209569,9.062388
34.80521659,31.2650558,0.0,0.004826704,12-16-37,0.4250481,0.6713498,0.023501396,105.0,-6.747932,-19.758205,0.08236694,-0.13362122,-0.18888855,-3.6325412,0.9209569,9.062388
34.80521547,31.26505611,0.26907247,0.115299165,12-16-37,0.4250481,0.6713498,0.023501396,106.0,-7.0501943,-19.728685,0.08236694,-0.13362122,-0.18888855,-3.6325412,0.9209569,9.062388
34.80521547,31.26505611,0.26907247,0.115299165,12-16-37,0.55698824,-0.40199542,0.4164219,108.0,-7.70988,-19.93446,0.08236694,-0.13362122,-0.18888855,-3.363854,1.0466021,9.152021
34.80521547,31.26505611,0.26907247,0.115299165,12-16-37,0.55698824,-0.40199542,0.4164219,109.0,-7.9075203,-20.075811,0.08236694,-0.13362122,-0.18888855,-3.363854,1.0466021,9.152021
34.80521547,31.26505611,0.26907247,0.115299165,12-16-37,0.55698824,-0.40199542,0.4164219,109.0,-7.9075203,-20.075811,0.08236694,-0.13362122,-0.18888855,-3.363854,1.0466021,9.152021
34.80521547,31.26505611,0.26907247,0.115299165,12-16-37,0.55698824,-0.40199542,0.4164219,111.0,-8.1109915,-20.614483,0.31193542,0.0035705566,-0.49853516,-3.363854,1.0466021,9.152021
34.80521547,31.26505611,0.26907247,0.115299165,12-16-37,0.55698824,-0.40199542,0.4164219,110.0,-8.106756,-20.691118,0.31193542,0.0035705566,-0.49853516,-3.363854,1.0466021,9.152021
34.80521547,31.26505611,0.26907247,0.115299165,12-16-37,0.55698824,-0.40199542,0.4164219,110.0,-8.130306,-20.788097,0.31193542,0.0035705566,-0.49853516,-3.363854,1.0466021,9.152021
34.80521547,31.26505611,0.26907247,0.115299165,12-16-37,0.3421433,0.59553576,0.25589943,112.0,-7.784188,-21.734652,0.31193542,0.0035705566,-0.49853516,-3.3773923,1.221554,9.125318
34.80521547,31.26505611,0.26907247,0.115299165,12-16-37,0.3421433,0.59553576,0.25589943,112.0,-7.784188,-21.734652,0.31193542,0.0035705566,-0.49853516,-3.3773923,1.221554,9.125318
34.80521547,31.26505611,0.26907247,0.115299165,12-16-37,0.3421433,0.59553576,0.25589943,112.0,-7.7605133,-22.01164,0.31193542,0.0035705566,-0.49853516,-3.3773923,1.221554,9.125318
34.80521547,31.26505611,0.26907247,0.115299165,12-16-38,0.3421433,0.59553576,0.25589943,111.0,-7.2677183,-22.69864,-0.042404175,0.15995789,-0.11975098,-3.3773923,1.221554,9.125318
34.80521547,31.26505611,0.26907247,0.115299165,12-16-38,0.3421433,0.59553576,0.25589943,111.0,-7.2677183,-22.69864,-0.042404175,0.15995789,-0.11975098,-3.3773923,1.221554,9.125318
34.80521547,31.26505611,0.26907247,0.115299165,12-16-38,0.3421433,0.59553576,0.25589943,111.0,-7.0610003,-23.01282,-0.042404175,0.15995789,-0.11975098,-3.3773923,1.221554,9.125318
34.80521547,31.26505611,0.26907247,0.115299165,12-16-38,0.5077691,0.77547026,-1.8536615,111.0,-6.1978025,-23.271515,-0.042404175,0.15995789,-0.11975098,-3.6600807,1.1769636,9.021583
34.80521547,31.26505611,0.26907247,0.115299165,12-16-38,0.5077691,0.77547026,-1.8536615,111.0,-6.1978025,-23.271515,-0.042404175,0.15995789,-0.11975098,-3.6600807,1.1769636,9.021583
34.80521547,31.26505611,0.26907247,0.115299165,12-16-38,0.5077691,0.77547026,-1.8536615,111.0,-5.936866,-23.160273,-0.042404175,0.15995789,-0.11975098,-3.6600807,1.1769636,9.021583
34.80521547,31.26505611,0.26907247,0.115299165,12-16-38,0.5077691,0.77547026,-1.8536615,111.0,-4.4355083,-22.37307,-0.25401306,0.026977539,0.051620483,-3.6600807,1.1769636,9.021583
34.80521547,31.26505611,0.26907247,0.115299165,12-16-38,0.5077691,0.77547026,-1.8536615,111.0,-4.4355083,-22.37307,-0.25401306,0.026977539,0.051620483,-3.6600807,1.1769636,9.021583
34.80521547,31.26505611,0.26907247,0.115299165,12-16-38,0.5077691,0.77547026,-1.8536615,112.0,-4.2318788,-22.20672,-0.25401306,0.026977539,0.051620483,-3.6600807,1.1769636,9.021583
34.80521547,31.26505611,0.26907247,0.115299165,12-16-38,-0.30314112,-0.104756,-0.20319843,111.0,-3.8752668,-21.627087,-0.25401306,0.026977539,0.051620483,-3.7535326,0.82910633,9.02186
34.80521547,31.26505611,0.26907247,0.115299165,12-16-38,-0.30314112,-0.104756,-0.20319843,111.0,-3.8752668,-21.627087,-0.25401306,0.026977539,0.051620483,-3.7535326,0.82910633,9.02186
34.80521547,31.26505611,0.26907247,0.115299165,12-16-38,-0.30314112,-0.104756,-0.20319843,111.0,-3.9708278,-21.639427,-0.25401306,0.026977539,0.051620483,-3.7535326,0.82910633,9.02186
34.80521547,31.26505611,0.26907247,0.115299165,12-16-38,-0.30314112,-0.104756,-0.20319843,111.0,-4.609534,-21.785666,-0.019958496,-0.082717896,0.012512207,-3.7535326,0.82910633,9.02186
34.80521547,31.26505611,0.26907247,0.115299165,12-16-38,-0.30314112,-0.104756,-0.20319843,111.0,-4.609534,-21.785666,-0.019958496,-0.082717896,0.012512207,-3.7535326,0.82910633,9.02186
34.80521547,31.26505611,0.26907247,0.115299165,12-16-38,-0.30314112,-0.104756,-0.20319843,110.0,-4.8940773,-21.765968,-0.019958496,-0.082717896,0.012512207,-3.623867,0.708338,9.084945
34.80521547,31.26505611,0.26907247,0.115299165,12-16-38,0.16160083,-1.0654719,0.27900124,108.0,-6.067543,-21.828377,-0.019958496,-0.082717896,0.012512207,-3.623867,0.708338,9.084945
34.80521547,31.26505611,0.26907247,0.115299165,12-16-38,0.16160083,-1.0654719,0.27900124,108.0,-6.067543,-21.828377,-0.019958496,-0.082717896,0.012512207,-3.623867,0.708338,9.084945
34.80521547,31.26505611,0.26907247,0.115299165,12-16-38,0.16160083,-1.0654719,0.27900124,108.0,-6.1882305,-21.98191,-0.019958496,-0.082717896,0.012512207,-3.623867,0.708338,9.084945
34.80521547,31.26505611,0.26907247,0.115299165,12-16-38,0.16160083,-1.0654719,0.27900124,109.0,-6.606577,-22.224323,0.11784363,0.053878784,0.14724731,-3.623867,0.708338,9.084945
34.80521547,31.26505611,0.26907247,0.115299165,12-16-38,0.16160083,-1.0654719,0.27900124,109.0,-6.606577,-22.224323,0.11784363,0.053878784,0.14724731,-3.623867,0.708338,9.084945
34.80521547,31.26505611,0.26907247,0.115299165,12-16-38,0.10720301,-0.05647993,-0.39467812,108.0,-6.7779346,-22.304068,0.11784363,0.053878784,0.14724731,-3.653461,0.9650296,9.049382
34.80522987,31.26505642,0.32,1.2649885,12-16-38,0.10720301,-0.05647993,-0.39467812,108.0,-7.549568,-22.124668,0.11784363,0.053878784,0.14724731,-3.653461,0.9650296,9.049382
34.80522987,31.26505642,0.32,1.2649885,12-16-38,0.10720301,-0.05647993,-0.39467812,107.0,-7.781803,-22.08417,0.11784363,0.053878784,0.14724731,-3.653461,0.9650296,9.049382
34.80522987,31.26505642,0.32,1.2649885,12-16-38,0.10720301,-0.05647993,-0.39467812,107.0,-8.036883,-22.039255,0.11784363,0.053878784,0.14724731,-3.653461,0.9650296,9.049382
34.80522987,31.26505642,0.32,1.2649885,12-16-38,0.10720301,-0.05647993,-0.39467812,106.0,-8.54198,-21.98524,0.11672974,0.008514404,0.1304779,-3.653461,0.9650296,9.049382
34.80522987,31.26505642,0.32,1.2649885,12-16-38,0.10720301,-0.05647993,-0.39467812,106.0,-8.54198,-21.98524,0.11672974,0.008514404,0.1304779,-3.653461,0.9650296,9.049382
34.80522987,31.26505642,0.32,1.2649885,12-16-38,0.432966,0.15222979,-0.2486229,106.0,-8.629244,-21.889927,0.11672974,0.008514404,0.1304779,-3.6530156,1.217554,9.019059
34.80522987,31.26505642,0.32,1.2649885,12-16-38,0.432966,0.15222979,-0.2486229,106.0,-8.674792,-21.298204,0.11672974,0.008514404,0.1304779,-3.6530156,1.217554,9.019059
34.80522987,31.26505642,0.32,1.2649885,12-16-38,0.432966,0.15222979,-0.2486229,106.0,-8.674792,-21.298204,0.11672974,0.008514404,0.1304779,-3.6530156,1.217554,9.019059
34.80522987,31.26505642,0.32,1.2649885,12-16-39,0.432966,0.15222979,-0.2486229,106.0,-8.714263,-21.094658,0.11672974,0.008514404,0.1304779,-3.6530156,1.217554,9.019059
34.80522987,31.26505642,0.32,1.2649885,12-16-39,0.432966,0.15222979,-0.2486229,105.0,-8.652188,-20.251152,-0.0047912598,-0.12716675,0.08483887,-3.6530156,1.217554,9.019059
34.80522987,31.26505642,0.32,1.2649885,12-16-39,0.432966,0.15222979,-0.2486229,105.0,-8.652188,-20.251152,-0.0047912598,-0.12716675,0.08483887,-3.6530156,1.217554,9.019059
34.80522987,31.26505642,0.32,1.2649885,12-16-39,0.50885177,0.12810552,-0.015472412,105.0,-8.491925,-19.804474,-0.0047912598,-0.12716675,0.08483887,-3.4493082,1.3438818,9.081115
34.80522987,31.26505642,0.32,1.2649885,12-16-39,0.50885177,0.12810552,-0.015472412,105.0,-8.066224,-18.691652,-0.0047912598,-0.12716675,0.08483887,-3.4493082,1.3438818,9.081115
34.80522987,31.26505642,0.32,1.2649885,12-16-39,0.50885177,0.12810552,-0.015472412,105.0,-8.066224,-18.691652,-0.0047912598,-0.12716675,0.08483887,-3.4493082,1.3438818,9.081115
34.80522987,31.26505642,0.32,1.2649885,12-16-39,0.50885177,0.12810552,-0.015472412,105.0,-7.970444,-18.446056,-0.0047912598,-0.12716675,0.08483887,-3.4493082,1.3438818,9.081115
34.80522987,31.26505642,0.32,1.2649885,12-16-39,0.50885177,0.12810552,-0.015472412,105.0,-7.6635494,-17.403324,-0.06707764,-0.2144165,-0.007385254,-3.4493082,1.3438818,9.081115
34.80522987,31.26505642,0.32,1.2649885,12-16-39,0.50885177,0.12810552,-0.015472412,105.0,-7.6635494,-17.403324,-0.06707764,-0.2144165,-0.007385254,-3.4493082,1.3438818,9.081115
34.80522987,31.26505642,0.32,1.2649885,12-16-39,0.8341365,-0.2725408,0.44850063,105.0,-7.674149,-17.221062,-0.06707764,-0.2144165,-0.007385254,-3.0603147,1.2753336,9.229214
34.80522987,31.26505642,0.32,1.2649885,12-16-39,0.8341365,-0.2725408,0.44850063,105.0,-7.5382495,-16.626606,-0.06707764,-0.2144165,-0.007385254,-3.0603147,1.2753336,9.229214
34.80522987,31.26505642,0.32,1.2649885,12-16-39,0.8341365,-0.2725408,0.44850063,105.0,-7.5382495,-16.626606,-0.06707764,-0.2144165,-0.007385254,-3.0603147,1.2753336,9.229214
34.80522987,31.26505642,0.32,1.2649885,12-16-39,0.8341365,-0.2725408,0.44850063,105.0,-7.4489326,-16.51115,-0.06707764,-0.2144165,-0.007385254,-3.0603147,1.2753336,9.229214
34.80522987,31.26505642,0.32,1.2649885,12-16-39,0.8341365,-0.2725408,0.44850063,105.0,-7.3999877,-16.069786,-0.020401001,-0.11125183,-0.002822876,-3.0603147,1.2753336,9.229214
34.80522987,31.26505642,0.32,1.2649885,12-16-39,0.8341365,-0.2725408,0.44850063,105.0,-7.3999877,-16.069786,-0.020401001,-0.11125183,-0.002822876,-3.0603147,1.2753336,9.229214
34.80522987,31.26505642,0.32,1.2649885,12-16-39,0.2327857,0.26965714,0.32704067,105.0,-7.3684793,-15.722523,-0.020401001,-0.11125183,-0.002822876,-2.7550263,1.2160223,9.332819
34.80522987,31.26505642,0.32,1.2649885,12-16-39,0.2327857,0.26965714,0.32704067,105.0,-7.267336,-15.272128,-0.020401001,-0.11125183,-0.002822876,-2.7550263,1.2160223,9.332819
34.80522987,31.26505642,0.32,1.2649885,12-16-39,0.2327857,0.26965714,0.32704067,105.0,-7.267336,-15.272128,-0.020401001,-0.11125183,-0.002822876,-2.7550263,1.2160223,9.332819
34.80522987,31.26505642,0.32,1.2649885,12-16-39,0.2327857,0.26965714,0.32704067,105.0,-7.236468,-14.902978,-0.020401001,-0.11125183,-0.002822876,-2.7550263,1.2160223,9.332819
34.80522987,31.26505642,0.32,1.2649885,12-16-39,0.10186005,-0.17296839,0.35866356,105.0,-7.6290383,-14.524199,0.006225586,-0.12948608,0.05291748,-2.5317204,1.2286701,9.394209
34.80522987,31.26505642,0.32,1.2649885,12-16-39,0.10186005,-0.17296839,0.35866356,105.0,-7.6290383,-14.524199,0.006225586,-0.12948608,0.05291748,-2.5317204,1.2286701,9.394209
34.80524016,31.26505089,0.0,2.3069603,12-16-39,0.10186005,-0.17296839,0.35866356,104.0,-7.989659,-14.383603,0.006225586,-0.12948608,0.05291748,-2.5317204,1.2286701,9.394209
34.80524016,31.26505089,0.0,2.3069603,12-16-39,0.10186005,-0.17296839,0.35866356,104.0,-8.39917,-14.176584,0.006225586,-0.12948608,0.05291748,-2.5317204,1.2286701,9.394209
34.80524016,31.26505089,0.0,2.3069603,12-16-39,0.10186005,-0.17296839,0.35866356,104.0,-8.528725,-14.107443,0.006225586,-0.12948608,0.05291748,-2.5317204,1.2286701,9.394209
34.80524016,31.26505089,0.0,2.3069603,12-16-39,0.10186005,-0.17296839,0.35866356,104.0,-8.644637,-14.056054,0.006225586,-0.12948608,0.05291748,-2.5317204,1.2286701,9.394209
34.80524016,31.26505089,0.0,2.3069603,12-16-39,0.76382136,0.5645808,0.13794613,104.0,-8.91448,-13.983005,0.0879364,-0.026168823,0.07019043,-2.3696494,1.3915006,9.41376
34.80524016,31.26505089,0.0,2.3069603,12-16-39,0.76382136,0.5645808,0.13794613,104.0,-9.017062,-14.050318,0.0879364,-0.026168823,0.07019043,-2.3696494,1.3915006,9.41376
34.80524016,31.26505089,0.0,2.3069603,12-16-39,0.76382136,0.5645808,0.13794613,103.0,-9.078857,-14.15976,0.0879364,-0.026168823,0.07019043,-2.3696494,1.3915006,9.41376
34.80524016,31.26505089,0.0,2.3069603,12-16-39,0.76382136,0.5645808,0.13794613,102.0,-8.904039,-14.725756,0.0879364,-0.026168823,0.07019043,-2.3696494,1.3915006,9.41376
34.80524016,31.26505089,0.0,2.3069603,12-16-39,0.76382136,0.5645808,0.13794613,102.0,-8.904039,-14.725756,0.0879364,-0.026168823,0.07019043,-2.3696494,1.3915006,9.41376
34.80524016,31.26505089,0.0,2.3069603,12-16-40,0.76382136,0.5645808,0.13794613,102.0,-8.773519,-14.893343,0.0879364,-0.026168823,0.07019043,-2.3696494,1.3915006,9.41376
34.80524016,31.26505089,0.0,2.3069603,12-16-40,0.5466969,0.86926734,-0.17635536,102.0,-8.102258,-15.706342,-0.093933105,0.15881348,0.058059692,-2.4878604,1.4148352,9.379722
34.80524016,31.26505089,0.0,2.3069603,12-16-40,0.5466969,0.86926734,-0.17635536,102.0,-8.102258,-15.706342,-0.093933105,0.15881348,0.058059692,-2.4878604,1.4148352,9.379722
34.80524016,31.26505089,0.0,2.3069603,12-16-40,0.5466969,0.86926734,-0.17635536,102.0,-7.9199824,-15.947344,-0.093933105,0.15881348,0.058059692,-2.4878604,1.4148352,9.379722
34.80524016,31.26505089,0.0,2.3069603,12-16-40,0.5466969,0.86926734,-0.17635536,103.0,-7.008727,-16.748304,-0.093933105,0.15881348,0.058059692,-2.4878604,1.4148352,9.379722
34.80524016,31.26505089,0.0,2.3069603,12-16-40,0.5466969,0.86926734,-0.17635536,103.0,-7.008727,-16.748304,-0.093933105,0.15881348,0.058059692,-2.4878604,1.4148352,9.379722
34.80524016,31.26505089,0.0,2.3069603,12-16-40,0.5466969,0.86926734,-0.17635536,103.0,-6.8391323,-16.889908,-0.093933105,0.15881348,0.058059692,-2.4878604,1.4148352,9.379722
34.80524016,31.26505089,0.0,2.3069603,12-16-40,-0.32749844,-0.083415985,0.059288025,103.0,-6.1733785,-17.304373,-0.15544128,0.13409424,-0.0748291,-2.781591,1.1456428,9.333844
34.80524016,31.26505089,0.0,2.3069603,12-16-40,-0.32749844,-0.083415985,0.059288025,103.0,-6.1733785,-17.304373,-0.15544128,0.13409424,-0.0748291,-2.781591,1.1456428,9.333844
34.80524016,31.26505089,0.0,2.3069603,12-16-40,-0.32749844,-0.083415985,0.059288025,103.0,-6.0326247,-17.4692,-0.15544128,0.13409424,-0.0748291,-2.781591,1.1456428,9.333844
34.80524016,31.26505089,0.0,2.3069603,12-16-40,-0.32749844,-0.083415985,0.059288025,104.0,-5.528399,-18.149279,-0.15544128,0.13409424,-0.0748291,-2.781591,1.1456428,9.333844
34.80524016,31.26505089,0.0,2.3069603,12-16-40,-0.32749844,-0.083415985,0.059288025,104.0,-5.528399,-18.149279,-0.15544128,0.13409424,-0.0748291,-2.781591,1.1456428,9.333844
34.80524016,31.26505089,0.0,2.3069603,12-16-40,-0.32749844,-0.083415985,0.059288025,104.0,-5.1875777,-18.40059,-0.15544128,0.13409424,-0.0748291,-2.781591,1.1456428,9.333844
34.80524016,31.26505089,0.0,2.3069603,12-16-40,-0.36079264,-0.44625682,-0.3843174,105.0,-4.8152742,-18.455141,-0.059432983,0.08395386,-0.173172,-3.0131946,0.86864257,9.291743
34.80524016,31.26505089,0.0,2.3069603,12-16-40,-0.36079264,-0.44625682,-0.3843174,105.0,-4.7008953,-18.411497,-0.059432983,0.08395386,-0.173172,-3.0131946,0.86864257,9.291743
34.80524016,31.26505089,0.0,2.3069603,12-16-40,-0.36079264,-0.44625682,-0.3843174,105.0,-4.603502,-18.340523,-0.059432983,0.08395386,-0.173172,-3.0131946,0.86864257,9.291743
34.80524016,31.26505089,0.0,2.3069603,12-16-40,-0.36079264,-0.44625682,-0.3843174,105.0,-4.3566694,-18.25927,-0.059432983,0.08395386,-0.173172,-3.0131946,0.86864257,9.291743
34.80524016,31.26505089,0.0,2.3069603,12-16-40,-0.36079264,-0.44625682,-0.3843174,106.0,-4.255582,-18.278265,-0.059432983,0.08395386,-0.173172,-3.0131946,0.86864257,9.291743
34.80524016,31.26505089,0.0,2.3069603,12-16-40,-0.36079264,-0.44625682,-0.3843174,106.0,-4.139981,-18.306076,-0.059432983,0.08395386,-0.173172,-3.0131946,0.86864257,9.291743
34.80524016,31.26505089,0.0,2.3069603,12-16-40,0.18185735,-0.44272363,0.17138004,107.0,-3.901495,-18.340431,-0.022903442,-0.014755249,-0.14337158,-3.0787039,0.6844437,9.285662
34.80524016,31.26505089,0.0,2.3069603,12-16-40,0.18185735,-0.44272363,0.17138004,107.0,-3.8758314,-18.317703,-0.022903442,-0.014755249,-0.14337158,-3.0787039,0.6844437,9.285662
34.80524312,31.2650498,0.51,2.6098323,12-16-40,0.18185735,-0.44272363,0.17138004,107.0,-3.8504343,-18.372896,-0.022903442,-0.014755249,-0.14337158,-3.0787039,0.6844437,9.285662
34.80524312,31.2650498,0.51,2.6098323,12-16-40,0.18185735,-0.44272363,0.17138004,108.0,-3.528701,-18.78647,-0.022903442,-0.014755249,-0.14337158,-3.0787039,0.6844437,9.285662
34.80524312,31.2650498,0.51,2.6098323,12-16-40,0.18185735,-0.44272363,0.17138004,108.0,-3.528701,-18.78647,-0.022903442,-0.014755249,-0.14337158,-3.0787039,0.6844437,9.285662
34.80524312,31.2650498,0.51,2.6098323,12-16-40,0.18185735,-0.44272363,0.17138004,108.0,-3.4272723,-18.917103,-0.022903442,-0.014755249,-0.14337158,-3.0787039,0.6844437,9.285662
34.80524312,31.2650498,0.51,2.6098323,12-16-40,-0.17622757,-0.11902255,0.10187626,108.0,-2.989885,-19.406294,-0.019500732,0.073287964,-0.15859985,-3.161836,0.5488889,9.266709
34.80524312,31.2650498,0.51,2.6098323,12-16-40,-0.17622757,-0.11902255,0.10187626,108.0,-2.989885,-19.406294,-0.019500732,0.073287964,-0.15859985,-3.161836,0.5488889,9.266709
34.80524312,31.2650498,0.51,2.6098323,12-16-40,-0.17622757,-0.11902255,0.10187626,109.0,-2.9577677,-19.41056,-0.019500732,0.073287964,-0.15859985,-3.161836,0.5488889,9.266709
34.80524312,31.2650498,0.51,2.6098323,12-16-40,-0.17622757,-0.11902255,0.10187626,109.0,-2.6263964,-19.267208,-0.019500732,0.073287964,-0.15859985,-3.161836,0.5488889,9.266709
34.80524312,31.2650498,0.51,2.6098323,12-16-40,-0.17622757,-0.11902255,0.10187626,109.0,-2.6263964,-19.267208,-0.019500732,0.073287964,-0.15859985,-3.161836,0.5488889,9.266709
34.80524312,31.2650498,0.51,2.6098323,12-16-41,-0.17622757,-0.11902255,0.10187626,109.0,-2.5227716,-19.276173,-0.019500732,0.073287964,-0.15859985,-3.161836,0.5488889,9.266709
34.80524312,31.2650498,0.51,2.6098323,12-16-41,0.090254545,0.18047106,-0.050851822,109.0,-2.3048396,-19.590565,-0.05357361,0.009338379,-0.048355103,-3.2200243,0.5068065,9.249053
34.80524312,31.2650498,0.51,2.6098323,12-16-41,0.090254545,0.18047106,-0.050851822,109.0,-2.3048396,-19.590565,-0.05357361,0.009338379,-0.048355103,-3.2200243,0.5068065,9.249053
34.80524312,31.2650498,0.51,2.6098323,12-16-41,0.090254545,0.18047106,-0.050851822,109.0,-2.296038,-19.686651,-0.05357361,0.009338379,-0.048355103,-3.2200243,0.5068065,9.249053
34.80524312,31.2650498,0.51,2.6098323,12-16-41,0.090254545,0.18047106,-0.050851822,109.0,-2.39896,-20.09692,-0.05357361,0.009338379,-0.048355103,-3.2200243,0.5068065,9.249053
34.80524312,31.2650498,0.51,2.6098323,12-16-41,0.090254545,0.18047106,-0.050851822,109.0,-2.4156172,-20.186056,-0.05357361,0.009338379,-0.048355103,-3.2200243,0.5068065,9.249053
34.80524312,31.2650498,0.51,2.6098323,12-16-41,0.090254545,0.18047106,-0.050851822,109.0,-2.433646,-20.282772,-0.05357361,0.009338379,-0.048355103,-3.2200243,0.5068065,9.249053
34.80524312,31.2650498,0.51,2.6098323,12-16-41,-0.058080435,0.08277699,0.1564722,109.0,-2.5631254,-20.523958,0.027755737,0.092056274,-0.041778564,-3.3172495,0.49077138,9.215497
34.80524312,31.2650498,0.51,2.6098323,12-16-41,-0.058080435,0.08277699,0.1564722,109.0,-2.6262841,-20.515419,0.027755737,0.092056274,-0.041778564,-3.3172495,0.49077138,9.215497
34.80524312,31.2650498,0.51,2.6098323,12-16-41,-0.058080435,0.08277699,0.1564722,109.0,-2.6876507,-20.57588,0.027755737,0.092056274,-0.041778564,-3.3172495,0.49077138,9.215497
34.80524312,31.2650498,0.51,2.6098323,12-16-41,-0.058080435,0.08277699,0.1564722,109.0,-2.7400312,-20.863567,0.027755737,0.092056274,-0.041778564,-3.3172495,0.49077138,9.215497
34.80524312,31.2650498,0.51,2.6098323,12-16-41,-0.058080435,0.08277699,0.1564722,109.0,-2.7308884,-20.96861,0.027755737,0.092056274,-0.041778564,-3.3172495,0.49077138,9.215497
34.80524312,31.2650498,0.51,2.6098323,12-16-41,-0.058080435,0.08277699,0.1564722,109.0,-2.7340984,-21.04515,0.027755737,0.092056274,-0.041778564,-3.3172495,0.49077138,9.215497
34.80524312,31.2650498,0.51,2.6098323,12-16-41,0.19581509,0.006507635,-0.11412144,108.0,-2.810407,-21.157,2.2888184E-4,0.06085205,0.048706055,-3.3903923,0.5276102,9.186797
34.80524312,31.2650498,0.51,2.6098323,12-16-41,0.19581509,0.006507635,-0.11412144,108.0,-2.810407,-21.157,2.2888184E-4,0.06085205,0.048706055,-3.3903923,0.5276102,9.186797
34.80524312,31.2650498,0.51,2.6098323,12-16-41,0.19581509,0.006507635,-0.11412144,108.0,-2.8272386,-21.186699,2.2888184E-4,0.06085205,0.048706055,-3.3903923,0.5276102,9.186797
34.80524312,31.2650498,0.51,2.6098323,12-16-41,0.19581509,0.006507635,-0.11412144,108.0,-2.9019265,-21.45172,2.2888184E-4,0.06085205,0.048706055,-3.3903923,0.5276102,9.186797
34.80524312,31.2650498,0.51,2.6098323,12-16-41,0.19581509,0.006507635,-0.11412144,108.0,-2.9019265,-21.45172,2.2888184E-4,0.06085205,0.048706055,-3.3903923,0.5276102,9.186797
34.80524312,31.2650498,0.51,2.6098323,12-16-41,0.19581509,0.006507635,-0.11412144,108.0,-2.9085312,-21.592276,2.2888184E-4,0.06085205,0.048706055,-3.3903923,0.5276102,9.186797
34.80524312,31.2650498,0.51,2.6098323,12-16-41,-0.022761345,-2.1123886E-4,-0.037423134,107.0,-3.023068,-21.646397,-0.019104004,0.0519104,0.080215454,-3.5051575,0.55387044,9.142072
34.80524312,31.2650498,0.51,2.6098323,12-16-41,-0.022761345,-2.1123886E-4,-0.037423134,107.0,-3.023068,-21.646397,-0.019104004,0.0519104,0.080215454,-3.5051575,0.55387044,9.142072
34.805249,31.26504617,0.65122956,3.262901,12-16-41,-0.022761345,-2.1123886E-4,-0.037423134,107.0,-3.079465,-21.62194,-0.019104004,0.0519104,0.080215454,-3.5051575,0.55387044,9.142072
34.805249,31.26504617,0.65122956,3.262901,12-16-41,-0.022761345,-2.1123886E-4,-0.037423134,107.0,-3.156894,-21.725943,-0.019104004,0.0519104,0.080215454,-3.5051575,0.55387044,9.142072
34.805249,31.26504617,0.65122956,3.262901,12-16-41,-0.022761345,-2.1123886E-4,-0.037423134,107.0,-3.156894,-21.725943,-0.019104004,0.0519104,0.080215454,-3.5051575,0.55387044,9.142072
34.805249,31.26504617,0.65122956,3.262901,12-16-41,-0.022761345,-2.1123886E-4,-0.037423134,107.0,-3.136296,-21.779362,-0.019104004,0.0519104,0.080215454,-3.5051575,0.55387044,9.142072
34.805249,31.26504617,0.65122956,3.262901,12-16-41,-0.28928638,-0.032824695,0.07630253,107.0,-2.8497481,-21.658823,-0.007797241,-0.004425049,1.5258789E-5,-3.660556,0.54187024,9.08169
34.805249,31.26504617,0.65122956,3.262901,12-16-41,-0.28928638,-0.032824695,0.07630253,107.0,-2.8497481,-21.658823,-0.007797241,-0.004425049,1.5258789E-5,-3.660556,0.54187024,9.08169
34.805249,31.26504617,0.65122956,3.262901,12-16-41,-0.28928638,-0.032824695,0.07630253,108.0,-2.8232512,-21.590837,-0.007797241,-0.004425049,1.5258789E-5,-3.660556,0.54187024,9.08169
34.805249,31.26504617,0.65122956,3.262901,12-16-41,-0.28928638,-0.032824695,0.07630253,107.0,-3.020619,-21.427074,-0.007797241,-0.004425049,1.5258789E-5,-3.660556,0.54187024,9.08169
34.805249,31.26504617,0.65122956,3.262901,12-16-41,-0.28928638,-0.032824695,0.07630253,107.0,-3.020619,-21.427074,-0.007797241,-0.004425049,1.5258789E-5,-3.660556,0.54187024,9.08169
34.805249,31.26504617,0.65122956,3.262901,12-16-42,-0.28928638,-0.032824695,0.07630253,107.0,-3.0340245,-21.383366,-0.007797241,-0.004425049,1.5258789E-5,-3.660556,0.54187024,9.08169
34.805249,31.26504617,0.65122956,3.262901,12-16-42,0.058139324,-0.36210358,-0.09993458,108.0,-3.1405253,-21.048157,0.04360962,-0.05458069,-0.02180481,-3.6141143,0.38611218,9.10821
34.805249,31.26504617,0.65122956,3.262901,12-16-42,0.058139324,-0.36210358,-0.09993458,108.0,-3.1405253,-21.048157,0.04360962,-0.05458069,-0.02180481,-3.6141143,0.38611218,9.10821
34.805249,31.26504617,0.65122956,3.262901,12-16-42,0.058139324,-0.36210358,-0.09993458,107.0,-3.311335,-20.705683,0.04360962,-0.05458069,-0.02180481,-3.6141143,0.38611218,9.10821
34.805249,31.26504617,0.65122956,3.262901,12-16-42,0.058139324,-0.36210358,-0.09993458,107.0,-3.8468103,-19.939762,0.04360962,-0.05458069,-0.02180481,-3.6141143,0.38611218,9.10821
34.805249,31.26504617,0.65122956,3.262901,12-16-42,0.058139324,-0.36210358,-0.09993458,107.0,-3.8468103,-19.939762,0.04360962,-0.05458069,-0.02180481,-3.6141143,0.38611218,9.10821
34.805249,31.26504617,0.65122956,3.262901,12-16-42,0.058139324,-0.36210358,-0.09993458,107.0,-3.940158,-19.843338,0.04360962,-0.05458069,-0.02180481,-3.6141143,0.38611218,9.10821
34.805249,31.26504617,0.65122956,3.262901,12-16-42,-0.11161971,-0.095061034,0.10303688,107.0,-4.52362,-19.24459,0.080596924,-0.13925171,0.08242798,-3.4770937,0.44454387,9.158744
34.805249,31.26504617,0.65122956,3.262901,12-16-42,-0.11161971,-0.095061034,0.10303688,107.0,-4.52362,-19.24459,0.080596924,-0.13925171,0.08242798,-3.4770937,0.44454387,9.158744
34.805249,31.26504617,0.65122956,3.262901,12-16-42,-0.11161971,-0.095061034,0.10303688,107.0,-4.659038,-19.013166,0.080596924,-0.13925171,0.08242798,-3.4770937,0.44454387,9.158744
34.805249,31.26504617,0.65122956,3.262901,12-16-42,-0.11161971,-0.095061034,0.10303688,107.0,-4.9950986,-18.18309,0.080596924,-0.13925171,0.08242798,-3.4770937,0.44454387,9.158744
34.805249,31.26504617,0.65122956,3.262901,12-16-42,-0.11161971,-0.095061034,0.10303688,107.0,-4.9950986,-18.18309,0.080596924,-0.13925171,0.08242798,-3.4770937,0.44454387,9.158744
34.805249,31.26504617,0.65122956,3.262901,12-16-42,-0.11161971,-0.095061034,0.10303688,107.0,-5.0397053,-17.97129,0.080596924,-0.13925171,0.08242798,-3.4770937,0.44454387,9.158744
34.805249,31.26504617,0.65122956,3.262901,12-16-42,-0.10638142,0.70794594,-0.09927273,106.0,-5.1706257,-17.277586,0.04270935,-0.17880249,0.045272827,-3.1951582,0.64255375,9.249242
34.805249,31.26504617,0.65122956,3.262901,12-16-42,-0.10638142,0.70794594,-0.09927273,106.0,-5.1706257,-17.277586,0.04270935,-0.17880249,0.045272827,-3.1951582,0.64255375,9.249242
34.805249,31.26504617,0.65122956,3.262901,12-16-42,-0.10638142,0.70794594,-0.09927273,106.0,-5.194139,-17.126902,0.04270935,-0.17880249,0.045272827,-3.1951582,0.64255375,9.249242
34.805249,31.26504617,0.65122956,3.262901,12-16-42,-0.10638142,0.70794594,-0.09927273,106.0,-5.1594,-16.73367,0.04270935,-0.17880249,0.045272827,-3.1951582,0.64255375,9.249242
34.805249,31.26504617,0.65122956,3.262901,12-16-42,-0.10638142,0.70794594,-0.09927273,106.0,-5.2104754,-16.708593,0.04270935,-0.17880249,0.045272827,-3.1951582,0.64255375,9.249242
34.805249,31.26504617,0.65122956,3.262901,12-16-42,-0.10638142,0.70794594,-0.09927273,106.0,-5.2470994,-16.690863,0.04270935,-0.17880249,0.045272827,-3.1951582,0.64255375,9.249242
34.805249,31.26504617,0.65122956,3.262901,12-16-42,0.8887043,0.46660239,-0.105558395,105.0,-5.494467,-17.039581,-0.009628296,-0.01020813,0.091308594,-2.9280105,0.75159174,9.329107
34.805249,31.26504617,0.65122956,3.262901,12-16-42,0.8887043,0.46660239,-0.105558395,105.0,-5.494467,-17.039581,-0.009628296,-0.01020813,0.091308594,-2.9280105,0.75159174,9.329107
34.8052524,31.2650465,0.59,3.5598736,12-16-42,0.8887043,0.46660239,-0.105558395,104.0,-5.583477,-17.081749,-0.009628296,-0.01020813,0.091308594,-2.9280105,0.75159174,9.329107
34.8052524,31.2650465,0.59,3.5598736,12-16-42,0.8887043,0.46660239,-0.105558395,104.0,-5.8972006,-16.911173,-0.009628296,-0.01020813,0.091308594,-2.9280105,0.75159174,9.329107
34.8052524,31.2650465,0.59,3.5598736,12-16-42,0.8887043,0.46660239,-0.105558395,104.0,-5.8972006,-16.911173,-0.009628296,-0.01020813,0.091308594,-2.9280105,0.75159174,9.329107
34.8052524,31.2650465,0.59,3.5598736,12-16-42,-0.37535858,0.5817609,-0.045428276,103.0,-5.9887285,-16.757814,-0.009628296,-0.01020813,0.091308594,-2.8569384,0.8441924,9.343213
34.8052524,31.2650465,0.59,3.5598736,12-16-42,-0.37535858,0.5817609,-0.045428276,103.0,-6.145817,-16.010323,0.0030059814,-0.06820679,0.14234924,-2.8569384,0.8441924,9.343213
34.8052524,31.2650465,0.59,3.5598736,12-16-42,-0.37535858,0.5817609,-0.045428276,103.0,-6.145817,-16.010323,0.0030059814,-0.06820679,0.14234924,-2.8569384,0.8441924,9.343213
34.8052524,31.2650465,0.59,3.5598736,12-16-42,-0.37535858,0.5817609,-0.045428276,103.0,-6.2960014,-15.809824,0.0030059814,-0.06820679,0.14234924,-2.8569384,0.8441924,9.343213
34.8052524,31.2650465,0.59,3.5598736,12-16-42,-0.37535858,0.5817609,-0.045428276,103.0,-6.310118,-15.874708,0.0030059814,-0.06820679,0.14234924,-2.8569384,0.8441924,9.343213
34.8052524,31.2650465,0.59,3.5598736,12-16-42,-0.37535858,0.5817609,-0.045428276,103.0,-6.310118,-15.874708,0.0030059814,-0.06820679,0.14234924,-2.8569384,0.8441924,9.343213
34.8052524,31.2650465,0.59,3.5598736,12-16-43,0.18289948,0.2721396,0.24752998,103.0,-6.3066583,-15.937924,0.0030059814,-0.06820679,0.14234924,-2.7819874,0.92918247,9.357754
34.8052524,31.2650465,0.59,3.5598736,12-16-43,0.18289948,0.2721396,0.24752998,103.0,-6.280857,-16.064116,-0.0044403076,-0.0032043457,0.053512573,-2.7819874,0.92918247,9.357754
34.8052524,31.2650465,0.59,3.5598736,12-16-43,0.18289948,0.2721396,0.24752998,103.0,-6.280857,-16.064116,-0.0044403076,-0.0032043457,0.053512573,-2.7819874,0.92918247,9.357754
34.8052524,31.2650465,0.59,3.5598736,12-16-43,0.18289948,0.2721396,0.24752998,103.0,-6.3180165,-16.154541,-0.0044403076,-0.0032043457,0.053512573,-2.7819874,0.92918247,9.357754
34.8052524,31.2650465,0.59,3.5598736,12-16-43,0.18289948,0.2721396,0.24752998,103.0,-5.9161854,-16.258432,-0.0044403076,-0.0032043457,0.053512573,-2.7819874,0.92918247,9.357754
34.8052524,31.2650465,0.59,3.5598736,12-16-43,0.18289948,0.2721396,0.24752998,103.0,-5.9161854,-16.258432,-0.0044403076,-0.0032043457,0.053512573,-2.7819874,0.92918247,9.357754
34.8052524,31.2650465,0.59,3.5598736,12-16-43,0.10977173,0.3080253,0.058577538,103.0,-5.7949367,-16.33567,-0.0044403076,-0.0032043457,0.053512573,-2.7704005,0.91295373,9.362787
34.8052524,31.2650465,0.59,3.5598736,12-16-43,0.10977173,0.3080253,0.058577538,104.0,-5.143565,-16.700747,-0.064437866,0.05001831,-0.083847046,-2.7704005,0.91295373,9.362787
34.8052524,31.2650465,0.59,3.5598736,12-16-43,0.10977173,0.3080253,0.058577538,104.0,-5.143565,-16.700747,-0.064437866,0.05001831,-0.083847046,-2.7704005,0.91295373,9.362787
34.8052524,31.2650465,0.59,3.5598736,12-16-43,0.10977173,0.3080253,0.058577538,104.0,-4.9742746,-16.820229,-0.064437866,0.05001831,-0.083847046,-2.7704005,0.91295373,9.362787
34.8052524,31.2650465,0.59,3.5598736,12-16-43,0.10977173,0.3080253,0.058577538,104.0,-4.135996,-17.01874,-0.064437866,0.05001831,-0.083847046,-2.7704005,0.91295373,9.362787
34.8052524,31.2650465,0.59,3.5598736,12-16-43,0.10977173,0.3080253,0.058577538,104.0,-4.135996,-17.01874,-0.064437866,0.05001831,-0.083847046,-2.7704005,0.91295373,9.362787
34.8052524,31.2650465,0.59,3.5598736,12-16-43,0.05550313,-0.22174549,-0.20258808,104.0,-3.9845207,-16.965761,-0.064437866,0.05001831,-0.083847046,-2.851702,0.7072459,9.3561735
34.8052524,31.2650465,0.59,3.5598736,12-16-43,0.05550313,-0.22174549,-0.20258808,105.0,-3.4621346,-16.386873,-0.11997986,-0.016647339,-0.08616638,-2.851702,0.7072459,9.3561735
34.8052524,31.2650465,0.59,3.5598736,12-16-43,0.05550313,-0.22174549,-0.20258808,105.0,-3.4621346,-16.386873,-0.11997986,-0.016647339,-0.08616638,-2.851702,0.7072459,9.3561735
34.8052524,31.2650465,0.59,3.5598736,12-16-43,0.05550313,-0.22174549,-0.20258808,105.0,-3.3817787,-16.237795,-0.11997986,-0.016647339,-0.08616638,-2.851702,0.7072459,9.3561735
34.8052524,31.2650465,0.59,3.5598736,12-16-43,0.05550313,-0.22174549,-0.20258808,105.0,-2.8396754,-16.008902,-0.11997986,-0.016647339,-0.08616638,-2.851702,0.7072459,9.3561735
34.8052524,31.2650465,0.59,3.5598736,12-16-43,0.05550313,-0.22174549,-0.20258808,105.0,-2.8396754,-16.008902,-0.11997986,-0.016647339,-0.08616638,-2.851702,0.7072459,9.3561735
34.8052524,31.2650465,0.59,3.5598736,12-16-43,0.42837,-0.19710642,-0.029593468,105.0,-2.7838933,-15.962823,-0.11997986,-0.016647339,-0.08616638,-2.8049922,0.4655972,9.385394
34.80524819,31.26504103,0.57035077,3.4224582,12-16-43,0.42837,-0.19710642,-0.029593468,106.0,-2.800578,-15.758008,-0.037109375,-0.06272888,-0.070114136,-2.8049922,0.4655972,9.385394
34.80524819,31.26504103,0.57035077,3.4224582,12-16-43,0.42837,-0.19710642,-0.029593468,106.0,-2.800578,-15.758008,-0.037109375,-0.06272888,-0.070114136,-2.8049922,0.4655972,9.385394
34.80524819,31.26504103,0.57035077,3.4224582,12-16-43,0.42837,-0.19710642,-0.029593468,106.0,-2.820201,-15.706698,-0.037109375,-0.06272888,-0.070114136,-2.8049922,0.4655972,9.385394
34.80524819,31.26504103,0.57035077,3.4224582,12-16-43,0.42837,-0.19710642,-0.029593468,106.0,-2.7737637,-15.657842,-0.037109375,-0.06272888,-0.070114136,-2.8049922,0.4655972,9.385394
34.80524819,31.26504103,0.57035077,3.4224582,12-16-43,-0.11522412,0.043766797,-0.014557838,106.0,-2.7737637,-15.657842,-0.037109375,-0.06272888,-0.070114136,-2.7057505,0.38727248,9.418032
34.80524819,31.26504103,0.57035077,3.4224582,12-16-43,-0.11522412,0.043766797,-0.014557838,105.0,-2.906943,-15.6146755,-0.037109375,-0.06272888,-0.070114136,-2.7057505,0.38727248,9.418032
34.80524819,31.26504103,0.57035077,3.4224582,12-16-43,-0.11522412,0.043766797,-0.014557838,105.0,-3.2435727,-15.656653,0.029800415,-0.010314941,0.03967285,-2.7057505,0.38727248,9.418032
34.80524819,31.26504103,0.57035077,3.4224582,12-16-43,-0.11522412,0.043766797,-0.014557838,105.0,-3.2435727,-15.656653,0.029800415,-0.010314941,0.03967285,-2.7057505,0.38727248,9.418032
34.80524819,31.26504103,0.57035077,3.4224582,12-16-43,-0.11522412,0.043766797,-0.014557838,105.0,-3.5737965,-15.542315,0.029800415,-0.010314941,0.03967285,-2.7057505,0.38727248,9.418032
34.80524819,31.26504103,0.57035077,3.4224582,12-16-43,0.05656147,0.055068076,0.034524918,105.0,-4.0352383,-15.526875,0.029800415,-0.010314941,0.03967285,-2.6342437,0.5346219,9.431083
34.80524819,31.26504103,0.57035077,3.4224582,12-16-43,0.05656147,0.055068076,0.034524918,105.0,-4.0352383,-15.526875,0.029800415,-0.010314941,0.03967285,-2.6342437,0.5346219,9.431083
34.80524819,31.26504103,0.57035077,3.4224582,12-16-44,0.05656147,0.055068076,0.034524918,104.0,-4.3433194,-15.438604,0.029800415,-0.010314941,0.03967285,-2.6342437,0.5346219,9.431083
34.80524819,31.26504103,0.57035077,3.4224582,12-16-44,0.05656147,0.055068076,0.034524918,103.0,-4.9212623,-15.341721,0.10105896,-0.015289307,0.15049744,-2.6342437,0.5346219,9.431083
34.80524819,31.26504103,0.57035077,3.4224582,12-16-44,0.05656147,0.055068076,0.034524918,103.0,-5.048762,-15.270921,0.10105896,-0.015289307,0.15049744,-2.6342437,0.5346219,9.431083
34.80524819,31.26504103,0.57035077,3.4224582,12-16-44,0.05656147,0.055068076,0.034524918,103.0,-5.1379805,-15.273453,0.10105896,-0.015289307,0.15049744,-2.6342437,0.5346219,9.431083
34.80524819,31.26504103,0.57035077,3.4224582,12-16-44,0.2125771,0.52823895,0.3383932,103.0,-5.2569575,-15.144066,0.10105896,-0.015289307,0.15049744,-2.5900939,0.74932456,9.428697
34.80524819,31.26504103,0.57035077,3.4224582,12-16-44,0.2125771,0.52823895,0.3383932,103.0,-5.2569575,-15.144066,0.10105896,-0.015289307,0.15049744,-2.5900939,0.74932456,9.428697
34.80524819,31.26504103,0.57035077,3.4224582,12-16-44,0.2125771,0.52823895,0.3383932,103.0,-5.2903385,-15.178046,0.10105896,-0.015289307,0.15049744,-2.5900939,0.74932456,9.428697
34.80524819,31.26504103,0.57035077,3.4224582,12-16-44,0.2125771,0.52823895,0.3383932,102.0,-5.3698554,-15.6251955,0.008575439,0.03366089,0.08312988,-2.5900939,0.74932456,9.428697
34.80524819,31.26504103,0.57035077,3.4224582,12-16-44,0.2125771,0.52823895,0.3383932,102.0,-5.3698554,-15.6251955,0.008575439,0.03366089,0.08312988,-2.5900939,0.74932456,9.428697
34.80524819,31.26504103,0.57035077,3.4224582,12-16-44,0.2125771,0.52823895,0.3383932,102.0,-5.37485,-15.816911,0.008575439,0.03366089,0.08312988,-2.5900939,0.74932456,9.428697
34.80524819,31.26504103,0.57035077,3.4224582,12-16-44,-0.40537405,-0.28173202,0.20966434,101.0,-5.463053,-16.25206,0.008575439,0.03366089,0.08312988,-2.6724224,0.8316845,9.398768
34.80524819,31.26504103,0.57035077,3.4224582,12-16-44,-0.40537405,-0.28173202,0.20966434,101.0,-5.463053,-16.25206,0.008575439,0.03366089,0.08312988,-2.6724224,0.8316845,9.398768
34.80524819,31.26504103,0.57035077,3.4224582,12-16-44,-0.40537405,-0.28173202,0.20966434,101.0,-5.5172687,-16.263277,0.008575439,0.03366089,0.08312988,-2.6724224,0.8316845,9.398768
34.80524819,31.26504103,0.57035077,3.4224582,12-16-44,-0.40537405,-0.28173202,0.20966434,101.0,-5.90698,-16.234028,0.02947998,0.05340576,0.08943176,-2.6724224,0.8316845,9.398768
34.80524819,31.26504103,0.57035077,3.4224582,12-16-44,-0.40537405,-0.28173202,0.20966434,101.0,-5.90698,-16.234028,0.02947998,0.05340576,0.08943176,-2.6724224,0.8316845,9.398768
34.80524819,31.26504103,0.57035077,3.4224582,12-16-44,-0.40537405,-0.28173202,0.20966434,101.0,-5.9778047,-16.295408,0.02947998,0.05340576,0.08943176,-2.6724224,0.8316845,9.398768
34.80524819,31.26504103,0.57035077,3.4224582,12-16-44,0.17925501,-0.22439176,-0.25273418,101.0,-6.228574,-16.564337,0.02947998,0.05340576,0.08943176,-2.7820427,0.9128033,9.359349
34.80524819,31.26504103,0.57035077,3.4224582,12-16-44,0.17925501,-0.22439176,-0.25273418,101.0,-6.228574,-16.564337,0.02947998,0.05340576,0.08943176,-2.7820427,0.9128033,9.359349
34.80524819,31.26504103,0.57035077,3.4224582,12-16-44,0.17925501,-0.22439176,-0.25273418,101.0,-6.2580028,-16.71355,0.02947998,0.05340576,0.08943176,-2.7820427,0.9128033,9.359349
34.80524819,31.26504103,0.57035077,3.4224582,12-16-44,0.17925501,-0.22439176,-0.25273418,101.0,-6.154675,-17.065107,0.016418457,0.07684326,0.033584595,-2.7820427,0.9128033,9.359349
34.80524819,31.26504103,0.57035077,3.4224582,12-16-44,0.17925501,-0.22439176,-0.25273418,101.0,-6.154675,-17.065107,0.016418457,0.07684326,0.033584595,-2.7820427,0.9128033,9.359349
34.8052478,31.26504396,0.49497476,3.2458584,12-16-44,0.17925501,-0.22439176,-0.25273418,101.0,-6.150328,-17.033916,0.016418457,0.07684326,0.033584595,-2.7820427,0.9128033,9.359349
34.8052478,31.26504396,0.49497476,3.2458584,12-16-44,-0.10323787,0.039423943,-0.1994524,102.0,-5.9159684,-16.708576,0.016418457,0.07684326,0.033584595,-2.8248754,0.9559529,9.3421955
34.8052478,31.26504396,0.49497476,3.2458584,12-16-44,-0.10323787,0.039423943,-0.1994524,102.0,-5.9159684,-16.708576,0.016418457,0.07684326,0.033584595,-2.8248754,0.9559529,9.3421955
34.8052478,31.26504396,0.49497476,3.2458584,12-16-44,-0.10323787,0.039423943,-0.1994524,102.0,-5.834588,-16.656773,0.016418457,0.07684326,0.033584595,-2.8248754,0.9559529,9.3421955
34.8052478,31.26504396,0.49497476,3.2458584,12-16-44,-0.10323787,0.039423943,-0.1994524,103.0,-5.537323,-16.512789,-0.010879517,-0.050750732,-0.14930725,-2.8248754,0.9559529,9.3421955
34.8052478,31.26504396,0.49497476,3.2458584,12-16-44,-0.10323787,0.039423943,-0.1994524,103.0,-5.537323,-16.512789,-0.010879517,-0.050750732,-0.14930725,-2.8248754,0.9559529,9.3421955
34.8052478,31.26504396,0.49497476,3.2458584,12-16-44,-0.10323787,0.039423943,-0.1994524,103.0,-5.3643265,-16.46762,-0.010879517,-0.050750732,-0.14930725,-2.8248754,0.9559529,9.3421955
34.8052478,31.26504396,0.49497476,3.2458584,12-16-45,0.38279104,-2.6756525E-4,0.095225334,104.0,-5.0739174,-16.515451,-0.010879517,-0.050750732,-0.14930725,-2.8035936,0.8602887,9.357893
34.8052478,31.26504396,0.49497476,3.2458584,12-16-45,0.38279104,-2.6756525E-4,0.095225334,104.0,-5.0739174,-16.515451,-0.010879517,-0.050750732,-0.14930725,-2.8035936,0.8602887,9.357893
34.8052478,31.26504396,0.49497476,3.2458584,12-16-45,0.38279104,-2.6756525E-4,0.095225334,104.0,-5.041117,-16.357584,-0.010879517,-0.050750732,-0.14930725,-2.8035936,0.8602887,9.357893
34.8052478,31.26504396,0.49497476,3.2458584,12-16-45,0.38279104,-2.6756525E-4,0.095225334,105.0,-5.0165787,-16.37945,-0.007019043,-0.022003174,-0.12728882,-2.8035936,0.8602887,9.357893
34.8052478,31.26504396,0.49497476,3.2458584,12-16-45,0.38279104,-2.6756525E-4,0.095225334,105.0,-5.0165787,-16.37945,-0.007019043,-0.022003174,-0.12728882,-2.8035936,0.8602887,9.357893
34.8052478,31.26504396,0.49497476,3.2458584,12-16-45,0.38279104,-2.6756525E-4,0.095225334,105.0,-4.9504824,-16.359095,-0.007019043,-0.022003174,-0.12728882,-2.8035936,0.8602887,9.357893
34.8052478,31.26504396,0.49497476,3.2458584,12-16-45,0.021342278,0.065779805,0.13440514,105.0,-4.920251,-16.156815,-0.007019043,-0.022003174,-0.12728882,-2.7387738,0.80761325,9.381752
34.8052478,31.26504396,0.49497476,3.2458584,12-16-45,0.021342278,0.065779805,0.13440514,105.0,-4.920251,-16.156815,-0.007019043,-0.022003174,-0.12728882,-2.7387738,0.80761325,9.381752
34.8052478,31.26504396,0.49497476,3.2458584,12-16-45,0.021342278,0.065779805,0.13440514,105.0,-4.9203544,-16.220951,-0.007019043,-0.022003174,-0.12728882,-2.7387738,0.80761325,9.381752
34.8052478,31.26504396,0.49497476,3.2458584,12-16-45,0.021342278,0.065779805,0.13440514,105.0,-5.366967,-16.454811,0.031570435,0.012176514,-0.019851685,-2.7387738,0.80761325,9.381752
34.8052478,31.26504396,0.49497476,3.2458584,12-16-45,0.021342278,0.065779805,0.13440514,105.0,-5.366967,-16.454811,0.031570435,0.012176514,-0.019851685,-2.7387738,0.80761325,9.381752
34.8052478,31.26504396,0.49497476,3.2458584,12-16-45,0.021342278,0.065779805,0.13440514,105.0,-5.4897566,-16.538168,0.031570435,0.012176514,-0.019851685,-2.7387738,0.80761325,9.381752
34.8052478,31.26504396,0.49497476,3.2458584,12-16-45,0.4064877,0.09499431,0.00733757,104.0,-6.0212674,-17.043236,0.031570435,0.012176514,-0.019851685,-2.603583,0.92101216,9.409755
34.8052478,31.26504396,0.49497476,3.2458584,12-16-45,0.4064877,0.09499431,0.00733757,104.0,-6.0212674,-17.043236,0.031570435,0.012176514,-0.019851685,-2.603583,0.92101216,9.409755
34.8052478,31.26504396,0.49497476,3.2458584,12-16-45,0.4064877,0.09499431,0.00733757,104.0,-6.1793714,-17.253584,0.031570435,0.012176514,-0.019851685,-2.603583,0.92101216,9.409755
34.8052478,31.26504396,0.49497476,3.2458584,12-16-45,0.4064877,0.09499431,0.00733757,104.0,-6.4930325,-18.113255,0.06925964,0.16088867,0.033050537,-2.603583,0.92101216,9.409755
34.8052478,31.26504396,0.49497476,3.2458584,12-16-45,0.4064877,0.09499431,0.00733757,104.0,-6.4930325,-18.113255,0.06925964,0.16088867,0.033050537,-2.603583,0.92101216,9.409755
34.8052478,31.26504396,0.49497476,3.2458584,12-16-45,0.4064877,0.09499431,0.00733757,104.0,-6.55349,-18.28529,0.06925964,0.16088867,0.033050537,-2.603583,0.92101216,9.409755
34.8052478,31.26504396,0.49497476,3.2458584,12-16-45,-0.16155195,0.74839354,-0.50550365,104.0,-6.4146852,-18.510736,0.06925964,0.16088867,0.033050537,-2.8233855,1.0555916,9.331913
34.8052478,31.26504396,0.49497476,3.2458584,12-16-45,-0.16155195,0.74839354,-0.50550365,104.0,-6.4146852,-18.510736,0.06925964,0.16088867,0.033050537,-2.8233855,1.0555916,9.331913
34.8052478,31.26504396,0.49497476,3.2458584,12-16-45,-0.16155195,0.74839354,-0.50550365,104.0,-6.3388915,-18.47382,0.06925964,0.16088867,0.033050537,-2.8233855,1.0555916,9.331913
34.80524185,31.26504359,0.0,2.756652,12-16-45,-0.16155195,0.74839354,-0.50550365,104.0,-5.829936,-17.98787,-0.0770874,-0.022750854,0.031036377,-2.8233855,1.0555916,9.331913
34.80524185,31.26504359,0.0,2.756652,12-16-45,-0.16155195,0.74839354,-0.50550365,104.0,-5.829936,-17.98787,-0.0770874,-0.022750854,0.031036377,-2.8233855,1.0555916,9.331913
34.80524185,31.26504359,0.0,2.756652,12-16-45,-0.16155195,0.74839354,-0.50550365,103.0,-5.7542095,-17.811996,-0.0770874,-0.022750854,0.031036377,-2.8233855,1.0555916,9.331913
34.80524185,31.26504359,0.0,2.756652,12-16-45,-0.41120458,-0.011529088,-0.018238068,104.0,-5.4350233,-17.047838,-0.0770874,-0.022750854,0.031036377,-2.857153,0.99443245,9.328353
34.80524185,31.26504359,0.0,2.756652,12-16-45,-0.41120458,-0.011529088,-0.018238068,104.0,-5.452741,-16.882055,-0.0770874,-0.022750854,0.031036377,-2.857153,0.99443245,9.328353
34.80524185,31.26504359,0.0,2.756652,12-16-45,-0.41120458,-0.011529088,-0.018238068,104.0,-5.455852,-16.723343,-0.0770874,-0.022750854,0.031036377,-2.857153,0.99443245,9.328353
34.80524185,31.26504359,0.0,2.756652,12-16-45,-0.41120458,-0.011529088,-0.018238068,104.0,-5.5396028,-16.637806,-0.011703491,-0.10769653,0.0016174316,-2.857153,0.99443245,9.328353
34.80524185,31.26504359,0.0,2.756652,12-16-45,-0.41120458,-0.011529088,-0.018238068,104.0,-5.5396028,-16.637806,-0.011703491,-0.10769653,0.0016174316,-2.857153,0.99443245,9.328353
34.80524185,31.26504359,0.0,2.756652,12-16-45,-0.41120458,-0.011529088,-0.018238068,104.0,-5.646007,-16.636774,-0.011703491,-0.10769653,0.0016174316,-2.857153,0.99443245,9.328353
34.80524185,31.26504359,0.0,2.756652,12-16-46,-0.1687367,-0.1880933,0.36685848,104.0,-5.7687073,-16.5953,-0.011703491,-0.10769653,0.0016174316,-2.7039084,0.9313262,9.3804
34.80524185,31.26504359,0.0,2.756652,12-16-46,-0.1687367,-0.1880933,0.36685848,104.0,-5.7687073,-16.5953,-0.011703491,-0.10769653,0.0016174316,-2.7039084,0.9313262,9.3804
34.80524185,31.26504359,0.0,2.756652,12-16-46,-0.1687367,-0.1880933,0.36685848,104.0,-5.9691133,-16.466942,-0.011703491,-0.10769653,0.0016174316,-2.7039084,0.9313262,9.3804
34.80524185,31.26504359,0.0,2.756652,12-16-46,-0.1687367,-0.1880933,0.36685848,104.0,-6.3302145,-16.288967,0.08267212,-0.038269043,-0.045669556,-2.7039084,0.9313262,9.3804
34.80524185,31.26504359,0.0,2.756652,12-16-46,-0.1687367,-0.1880933,0.36685848,104.0,-6.3302145,-16.288967,0.08267212,-0.038269043,-0.045669556,-2.7039084,0.9313262,9.3804
34.80524185,31.26504359,0.0,2.756652,12-16-46,-0.1687367,-0.1880933,0.36685848,104.0,-6.3718843,-16.186296,0.08267212,-0.038269043,-0.045669556,-2.7039084,0.9313262,9.3804
34.80524185,31.26504359,0.0,2.756652,12-16-46,0.040970564,-0.16927159,-0.3788767,105.0,-6.4339023,-16.00143,0.08267212,-0.038269043,-0.045669556,-2.6201117,1.0167648,9.395296
34.80524185,31.26504359,0.0,2.756652,12-16-46,0.040970564,-0.16927159,-0.3788767,105.0,-6.4339023,-16.00143,0.08267212,-0.038269043,-0.045669556,-2.6201117,1.0167648,9.395296
34.80524185,31.26504359,0.0,2.756652,12-16-46,0.040970564,-0.16927159,-0.3788767,104.0,-6.441097,-15.949122,0.08267212,-0.038269043,-0.045669556,-2.6201117,1.0167648,9.395296
34.80524185,31.26504359,0.0,2.756652,12-16-46,0.040970564,-0.16927159,-0.3788767,105.0,-6.2029686,-15.870227,-0.009094238,-0.023452759,-0.03112793,-2.6201117,1.0167648,9.395296
34.80524185,31.26504359,0.0,2.756652,12-16-46,0.040970564,-0.16927159,-0.3788767,105.0,-6.2029686,-15.870227,-0.009094238,-0.023452759,-0.03112793,-2.6201117,1.0167648,9.395296
34.80524185,31.26504359,0.0,2.756652,12-16-46,0.040970564,-0.16927159,-0.3788767,105.0,-6.0837364,-15.929974,-0.009094238,-0.023452759,-0.03112793,-2.6201117,1.0167648,9.395296
34.80524185,31.26504359,0.0,2.756652,12-16-46,0.5149715,0.51341844,0.03664112,105.0,-5.3092003,-16.195925,-0.009094238,-0.023452759,-0.03112793,-2.5699267,1.030358,9.407669
34.80524185,31.26504359,0.0,2.756652,12-16-46,0.5149715,0.51341844,0.03664112,105.0,-5.3092003,-16.195925,-0.009094238,-0.023452759,-0.03112793,-2.5699267,1.030358,9.407669
34.80524185,31.26504359,0.0,2.756652,12-16-46,0.5149715,0.51341844,0.03664112,105.0,-5.1742744,-16.205639,-0.009094238,-0.023452759,-0.03112793,-2.5699267,1.030358,9.407669
34.80524185,31.26504359,0.0,2.756652,12-16-46,0.5149715,0.51341844,0.03664112,105.0,-4.6825914,-16.038593,-0.12809753,0.009567261,-0.041610718,-2.5699267,1.030358,9.407669
34.80524185,31.26504359,0.0,2.756652,12-16-46,0.5149715,0.51341844,0.03664112,105.0,-4.6825914,-16.038593,-0.12809753,0.009567261,-0.041610718,-2.5699267,1.030358,9.407669
34.80524185,31.26504359,0.0,2.756652,12-16-46,0.5149715,0.51341844,0.03664112,105.0,-4.567187,-16.057226,-0.12809753,0.009567261,-0.041610718,-2.5699267,1.030358,9.407669
34.80524185,31.26504359,0.0,2.756652,12-16-46,-0.15607834,0.11200267,-0.0687933,105.0,-3.9453535,-16.269047,-0.12809753,0.009567261,-0.041610718,-2.596915,0.83720887,9.419421
34.80524185,31.26504359,0.0,2.756652,12-16-46,-0.15607834,0.11200267,-0.0687933,105.0,-3.9453535,-16.269047,-0.12809753,0.009567261,-0.041610718,-2.596915,0.83720887,9.419421
34.80524185,31.26504359,0.0,2.756652,12-16-46,-0.15607834,0.11200267,-0.0687933,105.0,-3.8996763,-16.360525,-0.12809753,0.009567261,-0.041610718,-2.596915,0.83720887,9.419421
34.80524314,31.26504536,0.0,2.7773716,12-16-46,-0.15607834,0.11200267,-0.0687933,105.0,-3.9360807,-16.3395,-0.0599823,0.009475708,0.015823364,-2.596915,0.83720887,9.419421
34.80524314,31.26504536,0.0,2.7773716,12-16-46,-0.15607834,0.11200267,-0.0687933,105.0,-4.0091577,-16.230768,-0.0599823,0.009475708,0.015823364,-2.596915,0.83720887,9.419421
34.80524314,31.26504536,0.0,2.7773716,12-16-46,-0.15607834,0.11200267,-0.0687933,105.0,-4.0091577,-16.230768,-0.0599823,0.009475708,0.015823364,-2.596915,0.83720887,9.419421
34.80524314,31.26504536,0.0,2.7773716,12-16-46,-0.5816679,-0.25852895,-0.06585598,105.0,-4.3355017,-15.851164,-0.0599823,0.009475708,0.015823364,-2.6009855,0.70484704,9.429128
34.80524314,31.26504536,0.0,2.7773716,12-16-46,-0.5816679,-0.25852895,-0.06585598,105.0,-4.4628406,-15.745378,-0.0599823,0.009475708,0.015823364,-2.6009855,0.70484704,9.429128
34.80524314,31.26504536,0.0,2.7773716,12-16-46,-0.5816679,-0.25852895,-0.06585598,105.0,-4.6245046,-15.685113,-0.0599823,0.009475708,0.015823364,-2.6009855,0.70484704,9.429128
