Longitude,Latitude,Speed,Distance,Time,Acc X,Acc Y,Acc Z,Heading,Pitch,Roll,gyro_x,gyro_y,gyro_z,gravity_x,gravity_y,gravity_z
34.80521902,31.26508342,0.0,0.17547075,12-15-04,0.049488783,0.015882492,-0.008876801,107.0,-6.8751454,-18.086206,-0.0065460205,0.04698181,0.0055389404,-2.968745,1.1149498,9.279754
34.80521902,31.26508342,0.0,0.17547075,12-15-04,0.049488783,0.015882492,-0.008876801,107.0,-6.7911506,-18.073568,-0.0065460205,0.04698181,0.0055389404,-2.968745,1.1149498,9.279754
34.80521902,31.26508342,0.0,0.17547075,12-15-04,0.049488783,0.015882492,-0.008876801,107.0,-6.8159757,-17.968138,-0.0320282,0.0054779053,0.06828308,-2.968745,1.1149498,9.279754
34.80521902,31.26508342,0.0,0.17547075,12-15-04,-0.02397585,0.0052684546,-0.058588028,106.0,-6.8087587,-17.84617,-0.0320282,0.0054779053,0.06828308,-3.0233233,1.1067058,9.263104
34.80521902,31.26508342,0.0,0.17547075,12-15-04,-0.02397585,0.0052684546,-0.058588028,106.0,-6.7753534,-17.732397,-0.0320282,0.0054779053,0.06828308,-3.0233233,1.1067058,9.263104
34.80521902,31.26508342,0.0,0.17547075,12-15-04,-0.02397585,0.0052684546,-0.058588028,107.0,-6.75747,-17.64322,-0.0320282,0.0054779053,0.06828308,-3.0233233,1.1067058,9.263104
34.80521902,31.26508342,0.0,0.17547075,12-15-04,0.052746296,0.053854465,0.044124603,107.0,-6.6056714,-17.708265,-0.013442993,-0.013809204,-0.021972656,-2.9774597,1.1029333,9.278398
34.80521902,31.26508342,0.0,0.17547075,12-15-04,0.052746296,0.053854465,0.044124603,107.0,-6.6475606,-17.641989,-0.013442993,-0.013809204,-0.021972656,-2.9774597,1.1029333,9.278398
34.80521902,31.26508342,0.0,0.17547075,12-15-04,0.052746296,0.053854465,0.044124603,107.0,-6.595584,-17.700695,-0.013442993,-0.013809204,-0.021972656,-2.9774597,1.1029333,9.278398
34.80521902,31.26508342,0.0,0.17547075,12-15-04,0.052746296,0.053854465,0.044124603,107.0,-6.302864,-17.94284,-0.013442993,-0.013809204,-0.021972656,-2.9774597,1.1029333,9.278398
34.80521902,31.26508342,0.0,0.17547075,12-15-04,-0.15451717,-0.10437906,0.08811283,106.0,-6.178258,-17.914013,-0.0463562,1.0681152E-4,0.1068573,-3.013973,1.0159203,9.276544
34.80521902,31.26508342,0.0,0.17547075,12-15-04,-0.15451717,-0.10437906,0.08811283,105.0,-6.2064695,-17.797155,-0.0463562,1.0681152E-4,0.1068573,-3.013973,1.0159203,9.276544
34.80521902,31.26508342,0.0,0.17547075,12-15-04,-0.15451717,-0.10437906,0.08811283,105.0,-6.4130087,-17.590199,-0.0463562,1.0681152E-4,0.1068573,-3.013973,1.0159203,9.276544
34.80521902,31.26508342,0.0,0.17547075,12-15-04,-0.15451717,-0.10437906,0.08811283,104.0,-6.5705113,-17.470045,-0.0463562,1.0681152E-4,0.1068573,-3.013973,1.0159203,9.276544
34.805219,31.26508343,0.0,0.0022039732,12-15-04,-0.30820823,0.09428704,0.27609634,103.0,-6.805964,-17.414616,-0.021759033,-0.010055542,0.23710632,-3.0580418,1.0820001,9.254622
34.805219,31.26508343,0.0,0.0022039732,12-15-04,-0.30820823,0.09428704,0.27609634,103.0,-6.9314885,-17.932684,-0.021759033,-0.010055542,0.23710632,-3.0580418,1.0820001,9.254622
34.805219,31.26508343,0.0,0.0022039732,12-15-04,-0.30820823,0.09428704,0.27609634,104.0,-7.145548,-18.685995,-0.021759033,-0.010055542,0.23710632,-3.0580418,1.0820001,9.254622
34.805219,31.26508343,0.0,0.0022039732,12-15-04,-0.30820823,0.09428704,0.27609634,104.0,-7.3039503,-19.277966,-0.021759033,-0.010055542,0.23710632,-3.0580418,1.0820001,9.254622
34.805219,31.26508343,0.0,0.0022039732,12-15-04,-0.09067917,0.023581743,0.45039368,105.0,-7.4701023,-19.991087,0.10708618,0.19743347,-0.16384888,-3.1932461,1.1671989,9.198436
34.805219,31.26508343,0.0,0.0022039732,12-15-05,-0.09067917,0.023581743,0.45039368,105.0,-7.5359015,-20.259329,0.10708618,0.19743347,-0.16384888,-3.1932461,1.1671989,9.198436
34.805219,31.26508343,0.0,0.0022039732,12-15-05,-0.09067917,0.023581743,0.45039368,106.0,-7.446459,-21.082603,0.10708618,0.19743347,-0.16384888,-3.1932461,1.1671989,9.198436
34.805219,31.26508343,0.0,0.0022039732,12-15-05,-0.09067917,0.023581743,0.45039368,105.0,-7.361069,-21.211456,0.10708618,0.19743347,-0.16384888,-3.1932461,1.1671989,9.198436
34.805219,31.26508343,0.0,0.0022039732,12-15-05,0.04578209,0.03784001,0.4002247,106.0,-7.1313534,-21.80918,-0.013320923,0.16931152,-0.08387756,-3.54045,1.1779634,9.069069
34.805219,31.26508343,0.0,0.0022039732,12-15-05,0.04578209,0.03784001,0.4002247,106.0,-7.004397,-22.075546,-0.013320923,0.16931152,-0.08387756,-3.54045,1.1779634,9.069069
34.805219,31.26508343,0.0,0.0022039732,12-15-05,0.04578209,0.03784001,0.4002247,107.0,-6.7517815,-22.32037,-0.013320923,0.16931152,-0.08387756,-3.54045,1.1779634,9.069069
34.805219,31.26508343,0.0,0.0022039732,12-15-05,0.04578209,0.03784001,0.4002247,108.0,-6.5888166,-22.031347,-0.013320923,0.16931152,-0.08387756,-3.54045,1.1779634,9.069069
34.805219,31.26508343,0.0,0.0022039732,12-15-05,0.11970782,0.081335545,-0.08675766,109.0,-6.429589,-22.277296,0.0390625,-3.0517578E-5,-0.24758911,-3.6857808,1.1329131,9.016757
34.805219,31.26508343,0.0,0.0022039732,12-15-05,0.11970782,0.081335545,-0.08675766,109.0,-6.362174,-22.146336,0.0390625,-3.0517578E-5,-0.24758911,-3.6857808,1.1329131,9.016757
34.805219,31.26508343,0.0,0.0022039732,12-15-05,0.11970782,0.081335545,-0.08675766,109.0,-6.3167343,-22.691408,0.0390625,-3.0517578E-5,-0.24758911,-3.6857808,1.1329131,9.016757
34.805219,31.26508343,0.0,0.0022039732,12-15-05,0.11970782,0.081335545,-0.08675766,109.0,-6.3405457,-23.149572,0.0390625,-3.0517578E-5,-0.24758911,-3.6857808,1.1329131,9.016757
34.805219,31.26508343,0.0,0.0022039732,12-15-05,1.048202,-0.13217211,-0.21596527,110.0,-6.337823,-23.657383,0.034805298,0.11819458,-0.11000061,-3.8129544,1.0573671,8.972945
34.805219,31.26508343,0.0,0.0022039732,12-15-05,1.048202,-0.13217211,-0.21596527,111.0,-6.373568,-23.76414,0.034805298,0.11819458,-0.11000061,-3.8129544,1.0573671,8.972945
34.805219,31.26508343,0.0,0.0022039732,12-15-05,1.048202,-0.13217211,-0.21596527,111.0,-6.3148694,-23.841063,0.034805298,0.11819458,-0.11000061,-3.8129544,1.0573671,8.972945
34.80521859,31.26508374,0.23,0.05418431,12-15-05,1.048202,-0.13217211,-0.21596527,111.0,-6.254552,-23.87262,0.034805298,0.11819458,-0.11000061,-3.8129544,1.0573671,8.972945
34.80521859,31.26508374,0.23,0.05418431,12-15-05,0.5516319,-0.15909815,-0.95092964,110.0,-6.021689,-23.559418,-0.027908325,-0.006942749,-0.014465332,-3.9433339,1.0199547,8.9207735
34.80521859,31.26508374,0.23,0.05418431,12-15-05,0.5516319,-0.15909815,-0.95092964,110.0,-5.7731404,-23.459705,-0.027908325,-0.006942749,-0.014465332,-3.9433339,1.0199547,8.9207735
34.80521859,31.26508374,0.23,0.05418431,12-15-05,0.5516319,-0.15909815,-0.95092964,109.0,-5.4418917,-23.348543,-0.027908325,-0.006942749,-0.014465332,-3.9433339,1.0199547,8.9207735
34.80521859,31.26508374,0.23,0.05418431,12-15-05,0.5516319,-0.15909815,-0.95092964,109.0,-5.1614385,-23.233467,-0.027908325,-0.006942749,-0.014465332,-3.9433339,1.0199547,8.9207735
34.80521859,31.26508374,0.23,0.05418431,12-15-05,1.1256623,0.2667269,-0.7119446,111.0,-4.891299,-23.39845,-0.042373657,-0.015701294,-0.14587402,-3.9043875,0.91883814,8.948849
34.80521859,31.26508374,0.23,0.05418431,12-15-06,1.1256623,0.2667269,-0.7119446,112.0,-4.8407035,-23.34137,-0.042373657,-0.015701294,-0.14587402,-3.9043875,0.91883814,8.948849
34.80521859,31.26508374,0.23,0.05418431,12-15-06,1.1256623,0.2667269,-0.7119446,114.0,-5.060099,-23.41647,-0.042373657,-0.015701294,-0.14587402,-3.9043875,0.91883814,8.948849
34.80521859,31.26508374,0.23,0.05418431,12-15-06,1.1256623,0.2667269,-0.7119446,115.0,-5.3565145,-23.255148,-0.042373657,-0.015701294,-0.14587402,-3.9043875,0.91883814,8.948849
34.80521859,31.26508374,0.23,0.05418431,12-15-06,0.37760305,-0.23173243,-0.76890945,115.0,-5.9357095,-23.006294,0.1902008,-0.058303833,-0.16169739,-3.8731909,0.88406086,8.965892
34.80521859,31.26508374,0.23,0.05418431,12-15-06,0.37760305,-0.23173243,-0.76890945,113.0,-6.1892605,-22.708855,0.1902008,-0.058303833,-0.16169739,-3.8731909,0.88406086,8.965892
34.80521859,31.26508374,0.23,0.05418431,12-15-06,0.37760305,-0.23173243,-0.76890945,106.0,-6.2720304,-21.932709,0.1902008,-0.058303833,-0.16169739,-3.8731909,0.88406086,8.965892
34.80521859,31.26508374,0.23,0.05418431,12-15-06,0.37760305,-0.23173243,-0.76890945,105.0,-6.1594844,-21.80506,0.1902008,-0.058303833,-0.16169739,-3.8731909,0.88406086,8.965892
34.80521859,31.26508374,0.23,0.05418431,12-15-06,0.16908503,-0.05923593,-0.57639503,104.0,-6.0894856,-21.702866,-0.29345703,0.0029754639,0.7321625,-3.750081,0.9767997,9.008504
34.80521859,31.26508374,0.23,0.05418431,12-15-06,0.16908503,-0.05923593,-0.57639503,105.0,-6.5226755,-21.216387,-0.29345703,0.0029754639,0.7321625,-3.750081,0.9767997,9.008504
34.80521859,31.26508374,0.23,0.05418431,12-15-06,0.16908503,-0.05923593,-0.57639503,104.0,-6.2798104,-20.853077,-0.29345703,0.0029754639,0.7321625,-3.750081,0.9767997,9.008504
34.80521859,31.26508374,0.23,0.05418431,12-15-06,0.16908503,-0.05923593,-0.57639503,104.0,-6.1501145,-21.065239,-0.29345703,0.0029754639,0.7321625,-3.750081,0.9767997,9.008504
34.80521859,31.26508374,0.23,0.05418431,12-15-06,0.1958046,0.46574545,0.37313557,109.0,-5.942908,-20.954803,0.15351868,-0.12408447,-0.45988464,-3.572544,1.0045248,9.077348
34.80521859,31.26508374,0.23,0.05418431,12-15-06,0.1958046,0.46574545,0.37313557,111.0,-5.8894114,-20.742243,0.15351868,-0.12408447,-0.45988464,-3.572544,1.0045248,9.077348
34.80522102,31.26507918,0.0,0.5072292,12-15-06,0.1958046,0.46574545,0.37313557,108.0,-5.9448833,-19.605387,0.15351868,-0.12408447,-0.45988464,-3.572544,1.0045248,9.077348
34.80522102,31.26507918,0.0,0.5072292,12-15-06,0.1958046,0.46574545,0.37313557,109.0,-5.859659,-19.365986,0.15351868,-0.12408447,-0.45988464,-3.572544,1.0045248,9.077348
34.80522102,31.26507918,0.0,0.5072292,12-15-06,-0.90012455,-0.3270656,0.07320118,110.0,-5.546919,-19.00881,-0.05126953,-0.18389893,0.05432129,-3.396585,0.98800284,9.146444
34.80522102,31.26507918,0.0,0.5072292,12-15-06,-0.90012455,-0.3270656,0.07320118,110.0,-5.425186,-18.748093,-0.05126953,-0.18389893,0.05432129,-3.396585,0.98800284,9.146444
34.80522102,31.26507918,0.0,0.5072292,12-15-06,-0.90012455,-0.3270656,0.07320118,110.0,-5.4757204,-18.744678,-0.05126953,-0.18389893,0.05432129,-3.396585,0.98800284,9.146444
34.80522102,31.26507918,0.0,0.5072292,12-15-06,-0.90012455,-0.3270656,0.07320118,110.0,-5.504186,-19.029716,-0.05126953,-0.18389893,0.05432129,-3.396585,0.98800284,9.146444
34.80522102,31.26507918,0.0,0.5072292,12-15-06,0.04774356,-0.35391092,1.0160093,109.0,-5.7292566,-19.264915,-0.05126953,-0.18389893,0.05432129,-3.2293572,0.9588942,9.209895
34.80522102,31.26507918,0.0,0.5072292,12-15-07,0.04774356,-0.35391092,1.0160093,110.0,-5.8421125,-19.58741,0.029449463,0.0692749,-0.001663208,-3.2293572,0.9588942,9.209895
34.80522102,31.26507918,0.0,0.5072292,12-15-07,0.04774356,-0.35391092,1.0160093,109.0,-6.1592374,-19.890236,0.029449463,0.0692749,-0.001663208,-3.2293572,0.9588942,9.209895
34.80522102,31.26507918,0.0,0.5072292,12-15-07,0.04774356,-0.35391092,1.0160093,108.0,-6.373921,-20.179342,0.029449463,0.0692749,-0.001663208,-3.2293572,0.9588942,9.209895
34.80522102,31.26507918,0.0,0.5072292,12-15-07,0.6810446,-0.0661881,-0.25172997,107.0,-6.656228,-20.7778,0.029449463,0.0692749,-0.001663208,-3.3285806,1.019754,9.167935
34.80522102,31.26507918,0.0,0.5072292,12-15-07,0.6810446,-0.0661881,-0.25172997,107.0,-6.7208233,-21.228083,8.392334E-4,0.16053772,0.18225098,-3.3285806,1.019754,9.167935
34.80522102,31.26507918,0.0,0.5072292,12-15-07,0.6810446,-0.0661881,-0.25172997,106.0,-6.8517327,-21.798386,8.392334E-4,0.16053772,0.18225098,-3.3285806,1.019754,9.167935
34.80522102,31.26507918,0.0,0.5072292,12-15-07,-0.06723094,0.44727814,-0.080099106,106.0,-6.6641307,-22.294025,8.392334E-4,0.16053772,0.18225098,-3.5897074,1.0916626,9.0605
34.80522102,31.26507918,0.0,0.5072292,12-15-07,-0.06723094,0.44727814,-0.080099106,106.0,-6.128173,-22.581383,8.392334E-4,0.16053772,0.18225098,-3.5897074,1.0916626,9.0605
34.80522102,31.26507918,0.0,0.5072292,12-15-07,-0.06723094,0.44727814,-0.080099106,107.0,-5.94109,-22.720854,-0.07321167,0.1255951,2.1362305E-4,-3.5897074,1.0916626,9.0605
34.80522102,31.26507918,0.0,0.5072292,12-15-07,-0.06723094,0.44727814,-0.080099106,108.0,-5.0947413,-22.314957,-0.07321167,0.1255951,2.1362305E-4,-3.5897074,1.0916626,9.0605
34.80522102,31.26507918,0.0,0.5072292,12-15-07,-0.30072808,0.07198471,-1.3556862,108.0,-4.755356,-21.84878,-0.07321167,0.1255951,2.1362305E-4,-3.7193363,0.9395778,9.025193
34.80522102,31.26507918,0.0,0.5072292,12-15-07,-0.30072808,0.07198471,-1.3556862,108.0,-4.2972436,-21.454662,-0.07321167,0.1255951,2.1362305E-4,-3.7193363,0.9395778,9.025193
34.80522102,31.26507918,0.0,0.5072292,12-15-07,-0.30072808,0.07198471,-1.3556862,109.0,-3.8069417,-20.802042,-0.095962524,-0.15812683,-0.18864441,-3.7193363,0.9395778,9.025193
34.80522102,31.26507918,0.0,0.5072292,12-15-07,-0.30072808,0.07198471,-1.3556862,110.0,-3.2507615,-19.846937,-0.095962524,-0.15812683,-0.18864441,-3.7193363,0.9395778,9.025193
34.8052257,31.2650805,0.0,0.7138361,12-15-07,0.35863113,-0.15209144,-0.8871212,110.0,-2.9981291,-18.957922,-0.095962524,-0.15812683,-0.18864441,-3.4377978,0.6524932,9.161123
34.8052257,31.2650805,0.0,0.7138361,12-15-07,0.35863113,-0.15209144,-0.8871212,111.0,-2.4155958,-17.969904,-0.095962524,-0.15812683,-0.18864441,-3.4377978,0.6524932,9.161123
34.8052257,31.2650805,0.0,0.7138361,12-15-07,0.35863113,-0.15209144,-0.8871212,111.0,-2.2054765,-17.587744,-0.08039856,-0.27360535,-0.15727234,-3.4377978,0.6524932,9.161123
34.8052257,31.2650805,0.0,0.7138361,12-15-07,0.35863113,-0.15209144,-0.8871212,111.0,-1.9580494,-17.255003,-0.08039856,-0.27360535,-0.15727234,-3.4377978,0.6524932,9.161123
34.8052257,31.2650805,0.0,0.7138361,12-15-07,1.5212991,-0.39669403,-0.11900616,111.0,-2.0085678,-17.15076,-0.08039856,-0.27360535,-0.15727234,-3.0369422,0.4320513,9.314543
34.8052257,31.2650805,0.0,0.7138361,12-15-07,1.5212991,-0.39669403,-0.11900616,111.0,-1.9550048,-17.123888,-0.08039856,-0.27360535,-0.15727234,-3.0369422,0.4320513,9.314543
34.8052257,31.2650805,0.0,0.7138361,12-15-08,1.5212991,-0.39669403,-0.11900616,111.0,-2.17868,-17.25339,0.012451172,-0.027923584,-0.05873108,-3.0369422,0.4320513,9.314543
34.8052257,31.2650805,0.0,0.7138361,12-15-08,1.5212991,-0.39669403,-0.11900616,111.0,-2.4681852,-17.465961,0.012451172,-0.027923584,-0.05873108,-3.0369422,0.4320513,9.314543
34.8052257,31.2650805,0.0,0.7138361,12-15-08,0.3471887,-0.255055,0.006505966,111.0,-2.8009763,-17.426918,0.012451172,-0.027923584,-0.05873108,-2.9376686,0.4193097,9.346908
34.8052257,31.2650805,0.0,0.7138361,12-15-08,0.3471887,-0.255055,0.006505966,111.0,-3.1311283,-17.300035,0.012451172,-0.027923584,-0.05873108,-2.9376686,0.4193097,9.346908
34.8052257,31.2650805,0.0,0.7138361,12-15-08,0.3471887,-0.255055,0.006505966,110.0,-3.507747,-17.126202,0.09941101,-0.0045928955,0.034988403,-2.9376686,0.4193097,9.346908
34.8052257,31.2650805,0.0,0.7138361,12-15-08,0.3471887,-0.255055,0.006505966,110.0,-3.9906478,-17.018423,0.09941101,-0.0045928955,0.034988403,-2.9376686,0.4193097,9.346908
34.8052257,31.2650805,0.0,0.7138361,12-15-08,0.03995037,0.09738773,0.041740417,109.0,-4.4514146,-16.912039,0.09941101,-0.0045928955,0.034988403,-2.9245827,0.61379033,9.3402605
34.8052257,31.2650805,0.0,0.7138361,12-15-08,0.03995037,0.09738773,0.041740417,109.0,-4.6821423,-16.883312,0.09941101,-0.0045928955,0.034988403,-2.9245827,0.61379033,9.3402605
34.8052257,31.2650805,0.0,0.7138361,12-15-08,0.03995037,0.09738773,0.041740417,109.0,-5.0222044,-16.791332,0.091537476,-0.01171875,0.11305237,-2.9245827,0.61379033,9.3402605
34.8052257,31.2650805,0.0,0.7138361,12-15-08,0.03995037,0.09738773,0.041740417,108.0,-5.523877,-16.871796,0.091537476,-0.01171875,0.11305237,-2.9245827,0.61379033,9.3402605
34.8052257,31.2650805,0.0,0.7138361,12-15-08,0.69517803,0.43571508,-0.15991879,108.0,-5.6548066,-16.894773,0.091537476,-0.01171875,0.11305237,-2.8694072,0.848759,9.338977
34.8052257,31.2650805,0.0,0.7138361,12-15-08,0.69517803,0.43571508,-0.15991879,107.0,-5.7875466,-16.931858,0.091537476,-0.01171875,0.11305237,-2.8694072,0.848759,9.338977
34.8052257,31.2650805,0.0,0.7138361,12-15-08,0.69517803,0.43571508,-0.15991879,107.0,-5.8398585,-16.911613,0.017852783,0.028717041,0.12626648,-2.8694072,0.848759,9.338977
34.80522699,31.26507884,0.0,0.9132518,12-15-08,0.028983831,0.5845199,0.06659222,107.0,-5.6498857,-16.843931,0.017852783,0.028717041,0.12626648,-2.8681464,0.9580519,9.328786
34.80522699,31.26507884,0.0,0.9132518,12-15-08,0.028983831,0.5845199,0.06659222,107.0,-5.5612226,-16.797785,0.017852783,0.028717041,0.12626648,-2.8681464,0.9580519,9.328786
34.80522699,31.26507884,0.0,0.9132518,12-15-08,0.028983831,0.5845199,0.06659222,107.0,-5.4227858,-16.853237,0.017852783,0.028717041,0.12626648,-2.8681464,0.9580519,9.328786
34.80522699,31.26507884,0.0,0.9132518,12-15-08,0.028983831,0.5845199,0.06659222,106.0,-5.2978144,-17.049398,-0.051315308,0.010314941,0.034240723,-2.8681464,0.9580519,9.328786
34.80522699,31.26507884,0.0,0.9132518,12-15-08,0.028983831,0.5845199,0.06659222,106.0,-5.1363263,-17.21725,-0.051315308,0.010314941,0.034240723,-2.8681464,0.9580519,9.328786
34.80522699,31.26507884,0.0,0.9132518,12-15-08,0.031520844,-0.35894257,-0.16099834,105.0,-5.1962156,-17.221487,-0.051315308,0.010314941,0.034240723,-2.8910909,0.90379035,9.327119
34.80522699,31.26507884,0.0,0.9132518,12-15-08,0.031520844,-0.35894257,-0.16099834,105.0,-5.270398,-17.152617,-0.051315308,0.010314941,0.034240723,-2.8910909,0.90379035,9.327119
34.80522699,31.26507884,0.0,0.9132518,12-15-09,0.031520844,-0.35894257,-0.16099834,105.0,-5.5141635,-17.146456,-0.017807007,0.018722534,0.12155151,-2.8910909,0.90379035,9.327119
34.80522699,31.26507884,0.0,0.9132518,12-15-09,0.031520844,-0.35894257,-0.16099834,105.0,-5.807817,-17.13335,-0.017807007,0.018722534,0.12155151,-2.8910909,0.90379035,9.327119
34.80522699,31.26507884,0.0,0.9132518,12-15-09,-0.18553042,-0.3501398,-0.07642746,105.0,-5.967219,-17.124752,-0.017807007,0.018722534,0.12155151,-2.9209197,0.92179006,9.316057
34.80522699,31.26507884,0.0,0.9132518,12-15-09,-0.18553042,-0.3501398,-0.07642746,105.0,-6.0485325,-17.128212,-0.017807007,0.018722534,0.12155151,-2.9209197,0.92179006,9.316057
34.80522699,31.26507884,0.0,0.9132518,12-15-09,-0.18553042,-0.3501398,-0.07642746,105.0,-5.941584,-17.206478,0.044677734,0.005004883,-0.018692017,-2.9209197,0.92179006,9.316057
34.80522699,31.26507884,0.0,0.9132518,12-15-09,-0.18553042,-0.3501398,-0.07642746,105.0,-5.7146616,-17.153683,0.044677734,0.005004883,-0.018692017,-2.9209197,0.92179006,9.316057
34.80522699,31.26507884,0.0,0.9132518,12-15-09,0.060504436,0.16102803,-0.19386578,106.0,-5.388911,-16.876213,0.044677734,0.005004883,-0.018692017,-2.9035852,0.9626834,9.31734
34.80522699,31.26507884,0.0,0.9132518,12-15-09,0.060504436,0.16102803,-0.19386578,106.0,-5.315884,-16.639849,0.044677734,0.005004883,-0.018692017,-2.9035852,0.9626834,9.31734
34.80522699,31.26507884,0.0,0.9132518,12-15-09,0.060504436,0.16102803,-0.19386578,106.0,-5.253324,-16.18808,-0.025939941,-0.0738678,-0.08050537,-2.9035852,0.9626834,9.31734
34.80522699,31.26507884,0.0,0.9132518,12-15-09,0.4357512,-0.3492065,-0.013288498,106.0,-5.358258,-15.981218,-0.025939941,-0.0738678,-0.08050537,-2.8217154,0.91773146,9.346982
34.80522699,31.26507884,0.0,0.9132518,12-15-09,0.4357512,-0.3492065,-0.013288498,106.0,-5.5346084,-16.020493,-0.025939941,-0.0738678,-0.08050537,-2.8217154,0.91773146,9.346982
34.80522699,31.26507884,0.0,0.9132518,12-15-09,0.4357512,-0.3492065,-0.013288498,106.0,-5.7620916,-16.232382,-0.025939941,-0.0738678,-0.08050537,-2.8217154,0.91773146,9.346982
34.80522699,31.26507884,0.0,0.9132518,12-15-09,0.4357512,-0.3492065,-0.013288498,106.0,-5.8730593,-16.205824,0.05848694,0.004501343,-0.0335083,-2.8217154,0.91773146,9.346982
34.80522664,31.2650772,0.0,1.0011345,12-15-09,-0.08546209,0.11920464,-0.004928589,106.0,-5.950602,-16.007221,0.05848694,0.004501343,-0.0335083,-2.7991571,1.0108787,9.344155
34.80522664,31.2650772,0.0,1.0011345,12-15-09,-0.08546209,0.11920464,-0.004928589,106.0,-6.0540023,-15.96763,0.05848694,0.004501343,-0.0335083,-2.7991571,1.0108787,9.344155
34.80522664,31.2650772,0.0,1.0011345,12-15-09,-0.08546209,0.11920464,-0.004928589,106.0,-6.2499833,-15.815422,0.05848694,0.004501343,-0.0335083,-2.7991571,1.0108787,9.344155
34.80522664,31.2650772,0.0,1.0011345,12-15-09,-0.08546209,0.11920464,-0.004928589,106.0,-6.4242644,-15.821201,0.03555298,-0.038391113,0.006515503,-2.7991571,1.0108787,9.344155
34.80522664,31.2650772,0.0,1.0011345,12-15-09,-0.022864819,0.250682,0.094698906,106.0,-6.611579,-15.717308,0.03555298,-0.038391113,0.006515503,-2.7712064,1.1006689,9.34234
34.80522664,31.2650772,0.0,1.0011345,12-15-09,-0.022864819,0.250682,0.094698906,106.0,-6.6591167,-15.657126,0.03555298,-0.038391113,0.006515503,-2.7712064,1.1006689,9.34234
34.80522664,31.2650772,0.0,1.0011345,12-15-09,-0.022864819,0.250682,0.094698906,106.0,-6.6725855,-15.699271,0.03555298,-0.038391113,0.006515503,-2.7712064,1.1006689,9.34234
34.80522664,31.2650772,0.0,1.0011345,12-15-10,-0.022864819,0.250682,0.094698906,105.0,-6.6530313,-15.844851,0.0026397705,0.014556885,0.03555298,-2.7712064,1.1006689,9.34234
34.80522664,31.2650772,0.0,1.0011345,12-15-10,0.69239163,0.48272014,-0.42176342,105.0,-6.4619613,-16.036331,0.0026397705,0.014556885,0.03555298,-2.751098,1.1478335,9.342608
34.80522664,31.2650772,0.0,1.0011345,12-15-10,0.69239163,0.48272014,-0.42176342,105.0,-6.313652,-15.995499,0.0026397705,0.014556885,0.03555298,-2.751098,1.1478335,9.342608
34.80522664,31.2650772,0.0,1.0011345,12-15-10,0.69239163,0.48272014,-0.42176342,105.0,-6.043975,-15.73644,0.0026397705,0.014556885,0.03555298,-2.751098,1.1478335,9.342608
34.80522664,31.2650772,0.0,1.0011345,12-15-10,0.69239163,0.48272014,-0.42176342,105.0,-6.0086546,-15.438453,-0.075668335,-0.028213501,0.05633545,-2.751098,1.1478335,9.342608
34.80522664,31.2650772,0.0,1.0011345,12-15-10,-0.07148886,-0.016578794,0.06957817,105.0,-5.917667,-15.27151,-0.075668335,-0.028213501,0.05633545,-2.7210069,1.0809052,9.359388
34.80522664,31.2650772,0.0,1.0011345,12-15-10,-0.07148886,-0.016578794,0.06957817,105.0,-5.868307,-15.168211,-0.075668335,-0.028213501,0.05633545,-2.7210069,1.0809052,9.359388
34.80522664,31.2650772,0.0,1.0011345,12-15-10,-0.07148886,-0.016578794,0.06957817,105.0,-5.914374,-15.157098,-0.075668335,-0.028213501,0.05633545,-2.7210069,1.0809052,9.359388
34.80522664,31.2650772,0.0,1.0011345,12-15-10,-0.07148886,-0.016578794,0.06957817,105.0,-6.1506386,-15.246331,0.015457153,-0.020141602,0.005355835,-2.7210069,1.0809052,9.359388
34.80522664,31.2650772,0.0,1.0011345,12-15-10,0.16717672,-0.49026144,-0.09133339,104.0,-6.2794313,-15.328165,0.015457153,-0.020141602,0.005355835,-2.657661,1.0559863,9.380411
34.80522664,31.2650772,0.0,1.0011345,12-15-10,0.16717672,-0.49026144,-0.09133339,104.0,-6.5278654,-15.564562,0.015457153,-0.020141602,0.005355835,-2.657661,1.0559863,9.380411
34.80522664,31.2650772,0.0,1.0011345,12-15-10,0.16717672,-0.49026144,-0.09133339,104.0,-6.892495,-15.679382,0.015457153,-0.020141602,0.005355835,-2.657661,1.0559863,9.380411
34.80522664,31.2650772,0.0,1.0011345,12-15-10,0.16717672,-0.49026144,-0.09133339,104.0,-7.090464,-15.746116,0.07119751,0.045684814,0.035446167,-2.657661,1.0559863,9.380411
34.80522509,31.26507442,0.0,1.1532294,12-15-10,-0.108462095,-0.050488472,0.25025463,104.0,-7.3200207,-16.000837,0.07119751,0.045684814,0.035446167,-2.7123988,1.1679226,9.35143
34.80522509,31.26507442,0.0,1.1532294,12-15-10,-0.108462095,-0.050488472,0.25025463,104.0,-7.314602,-16.222733,0.07119751,0.045684814,0.035446167,-2.7123988,1.1679226,9.35143
34.80522509,31.26507442,0.0,1.1532294,12-15-10,-0.108462095,-0.050488472,0.25025463,105.0,-7.2725782,-16.564198,0.07119751,0.045684814,0.035446167,-2.7123988,1.1679226,9.35143
34.80522509,31.26507442,0.0,1.1532294,12-15-10,-0.108462095,-0.050488472,0.25025463,105.0,-7.090907,-16.755184,0.007598877,0.08131409,-0.03804016,-2.7123988,1.1679226,9.35143
34.80522509,31.26507442,0.0,1.1532294,12-15-10,0.09824371,0.38588095,-0.14469719,105.0,-6.7387185,-17.049225,0.007598877,0.08131409,-0.03804016,-2.8415937,1.2153767,9.306911
34.80522509,31.26507442,0.0,1.1532294,12-15-10,0.09824371,0.38588095,-0.14469719,105.0,-6.4060955,-17.138079,0.007598877,0.08131409,-0.03804016,-2.8415937,1.2153767,9.306911
34.80522509,31.26507442,0.0,1.1532294,12-15-11,0.09824371,0.38588095,-0.14469719,105.0,-5.9229774,-17.125439,0.007598877,0.08131409,-0.03804016,-2.8415937,1.2153767,9.306911
34.80522509,31.26507442,0.0,1.1532294,12-15-11,0.09824371,0.38588095,-0.14469719,105.0,-5.603933,-17.009848,-0.1222229,0.014022827,-0.03715515,-2.8415937,1.2153767,9.306911
34.80522509,31.26507442,0.0,1.1532294,12-15-11,-0.30641294,0.044693947,0.17063522,106.0,-5.3220296,-17.027155,-0.1222229,0.014022827,-0.03715515,-2.937579,1.0485623,9.297394
34.80522509,31.26507442,0.0,1.1532294,12-15-11,-0.30641294,0.044693947,0.17063522,106.0,-5.1681113,-16.939375,-0.1222229,0.014022827,-0.03715515,-2.937579,1.0485623,9.297394
34.80522509,31.26507442,0.0,1.1532294,12-15-11,-0.30641294,0.044693947,0.17063522,106.0,-5.0098696,-16.929684,-0.1222229,0.014022827,-0.03715515,-2.937579,1.0485623,9.297394
34.80522509,31.26507442,0.0,1.1532294,12-15-11,-0.30641294,0.044693947,0.17063522,106.0,-5.1295147,-16.915434,-0.033676147,-0.01663208,-0.04219055,-2.937579,1.0485623,9.297394
34.80522509,31.26507442,0.0,1.1532294,12-15-11,-0.0010359287,-0.17872119,-0.1785717,106.0,-5.2359467,-16.908018,-0.033676147,-0.01663208,-0.04219055,-2.9246092,0.9091999,9.316137
34.80522509,31.26507442,0.0,1.1532294,12-15-11,-0.0010359287,-0.17872119,-0.1785717,106.0,-5.43115,-16.778133,-0.033676147,-0.01663208,-0.04219055,-2.9246092,0.9091999,9.316137
34.80522509,31.26507442,0.0,1.1532294,12-15-11,-0.0010359287,-0.17872119,-0.1785717,106.0,-5.5429664,-16.683825,-0.033676147,-0.01663208,-0.04219055,-2.9246092,0.9091999,9.316137
34.80522509,31.26507442,0.0,1.1532294,12-15-11,-0.0010359287,-0.17872119,-0.1785717,106.0,-5.7983923,-16.623842,0.054626465,-0.01939392,-0.0129852295,-2.9246092,0.9091999,9.316137
34.80522509,31.26507442,0.0,1.1532294,12-15-11,0.42330766,0.096052825,-0.5927973,106.0,-5.9948807,-16.789537,0.054626465,-0.01939392,-0.0129852295,-2.8847857,0.9545127,9.324018
34.80522509,31.26507442,0.0,1.1532294,12-15-11,0.42330766,0.096052825,-0.5927973,106.0,-6.095172,-16.864714,0.054626465,-0.01939392,-0.0129852295,-2.8847857,0.9545127,9.324018
34.80522509,31.26507442,0.0,1.1532294,12-15-11,0.42330766,0.096052825,-0.5927973,105.0,-6.139671,-16.822126,0.054626465,-0.01939392,-0.0129852295,-2.8847857,0.9545127,9.324018
34.80522509,31.26507442,0.0,1.1532294,12-15-11,0.42330766,0.096052825,-0.5927973,105.0,-6.262907,-16.707417,0.01828003,0.01802063,0.09489441,-2.8847857,0.9545127,9.324018
34.80522564,31.26507398,0.0,1.2218782,12-15-11,-0.11509538,-0.17332673,0.19201183,105.0,-6.5563555,-16.674063,0.01828003,0.01802063,0.09489441,-2.8692307,1.039865,9.319688
34.80522564,31.26507398,0.0,1.2218782,12-15-11,-0.11509538,-0.17332673,0.19201183,104.0,-6.713635,-16.794147,0.01828003,0.01802063,0.09489441,-2.8692307,1.039865,9.319688
34.80522564,31.26507398,0.0,1.2218782,12-15-11,-0.11509538,-0.17332673,0.19201183,104.0,-6.773532,-16.876453,0.01828003,0.01802063,0.09489441,-2.8692307,1.039865,9.319688
34.80522564,31.26507398,0.0,1.2218782,12-15-11,-0.3815155,-0.41517568,0.1919775,103.0,-6.9409385,-16.730293,0.0181427,0.008453369,0.16906738,-2.8738656,1.1341476,9.307255
34.80522564,31.26507398,0.0,1.2218782,12-15-11,-0.3815155,-0.41517568,0.1919775,103.0,-7.3066916,-16.600431,0.0181427,0.008453369,0.16906738,-2.8738656,1.1341476,9.307255
34.80522564,31.26507398,0.0,1.2218782,12-15-11,-0.3815155,-0.41517568,0.1919775,102.0,-7.4171324,-16.505495,0.0181427,0.008453369,0.16906738,-2.8738656,1.1341476,9.307255
34.80522564,31.26507398,0.0,1.2218782,12-15-12,-0.3815155,-0.41517568,0.1919775,102.0,-7.594539,-16.320501,0.0181427,0.008453369,0.16906738,-2.8738656,1.1341476,9.307255
34.80522564,31.26507398,0.0,1.2218782,12-15-12,-0.117780685,-0.08679283,0.16937637,102.0,-7.771627,-16.31055,0.039657593,-0.030944824,0.10647583,-2.8375638,1.2546353,9.30293
34.80522564,31.26507398,0.0,1.2218782,12-15-12,-0.117780685,-0.08679283,0.16937637,102.0,-7.727696,-16.38145,0.039657593,-0.030944824,0.10647583,-2.8375638,1.2546353,9.30293
34.80522564,31.26507398,0.0,1.2218782,12-15-12,-0.117780685,-0.08679283,0.16937637,102.0,-7.5189524,-16.653753,0.039657593,-0.030944824,0.10647583,-2.8375638,1.2546353,9.30293
34.80522564,31.26507398,0.0,1.2218782,12-15-12,-0.117780685,-0.08679283,0.16937637,102.0,-7.3195715,-16.84566,0.039657593,-0.030944824,0.10647583,-2.8375638,1.2546353,9.30293
34.80522564,31.26507398,0.0,1.2218782,12-15-12,0.2981193,0.19295418,-0.11483669,102.0,-7.0179553,-17.192196,-0.051757813,0.073516846,-0.032302856,-2.8698728,1.2483838,9.293856
34.80522564,31.26507398,0.0,1.2218782,12-15-12,0.2981193,0.19295418,-0.11483669,102.0,-6.7788525,-17.327423,-0.051757813,0.073516846,-0.032302856,-2.8698728,1.2483838,9.293856
34.80522564,31.26507398,0.0,1.2218782,12-15-12,0.2981193,0.19295418,-0.11483669,102.0,-6.561703,-17.466753,-0.051757813,0.073516846,-0.032302856,-2.8698728,1.2483838,9.293856
34.80522564,31.26507398,0.0,1.2218782,12-15-12,0.2981193,0.19295418,-0.11483669,102.0,-6.4586616,-17.316195,-0.051757813,0.073516846,-0.032302856,-2.8698728,1.2483838,9.293856
34.80522564,31.26507398,0.0,1.2218782,12-15-12,0.37733293,-0.080975294,-0.31589985,103.0,-6.2236686,-17.377832,-0.057861328,0.02217102,-0.042236328,-2.9533494,1.1101074,9.285245
34.80522564,31.26507398,0.0,1.2218782,12-15-12,0.37733293,-0.080975294,-0.31589985,102.0,-5.937093,-17.548368,-0.057861328,0.02217102,-0.042236328,-2.9533494,1.1101074,9.285245
34.80522564,31.26507398,0.0,1.2218782,12-15-12,0.37733293,-0.080975294,-0.31589985,103.0,-5.8403654,-17.597822,-0.057861328,0.02217102,-0.042236328,-2.9533494,1.1101074,9.285245
34.80522564,31.26507398,0.0,1.2218782,12-15-12,0.37733293,-0.080975294,-0.31589985,103.0,-5.658265,-17.28947,-0.057861328,0.02217102,-0.042236328,-2.9533494,1.1101074,9.285245
34.80522564,31.26507398,0.0,1.2218782,12-15-12,-0.40859222,0.34307456,-0.32296753,103.0,-5.4625287,-17.003616,-0.061431885,-0.044555664,-0.052734375,-2.9485137,0.9914956,9.300193
34.80522391,31.2650724,0.0,1.3075807,12-15-12,-0.40859222,0.34307456,-0.32296753,104.0,-5.2188096,-16.66391,-0.061431885,-0.044555664,-0.052734375,-2.9485137,0.9914956,9.300193
34.80522391,31.2650724,0.0,1.3075807,12-15-12,-0.40859222,0.34307456,-0.32296753,104.0,-5.113544,-16.510668,-0.061431885,-0.044555664,-0.052734375,-2.9485137,0.9914956,9.300193
34.80522391,31.2650724,0.0,1.3075807,12-15-12,-0.40859222,0.34307456,-0.32296753,104.0,-5.0879025,-16.147947,-0.061431885,-0.044555664,-0.052734375,-2.9485137,0.9914956,9.300193
34.80522391,31.2650724,0.0,1.3075807,12-15-12,-0.0217762,0.26372862,0.0015573502,104.0,-4.9975233,-15.973233,-0.040222168,-0.09320068,-0.03894043,-2.8319297,1.0013599,9.3353
34.80522391,31.2650724,0.0,1.3075807,12-15-12,-0.0217762,0.26372862,0.0015573502,104.0,-4.822417,-16.062014,-0.040222168,-0.09320068,-0.03894043,-2.8319297,1.0013599,9.3353
34.80522391,31.2650724,0.0,1.3075807,12-15-12,-0.0217762,0.26372862,0.0015573502,103.0,-4.766654,-16.161995,-0.040222168,-0.09320068,-0.03894043,-2.8319297,1.0013599,9.3353
34.80522391,31.2650724,0.0,1.3075807,12-15-13,-0.0217762,0.26372862,0.0015573502,103.0,-4.563912,-16.183914,-0.040222168,-0.09320068,-0.03894043,-2.8319297,1.0013599,9.3353
34.80522391,31.2650724,0.0,1.3075807,12-15-13,-0.06325674,0.20584345,0.02702713,103.0,-4.2564673,-15.863496,-0.07797241,-0.0024261475,0.048233032,-2.7696786,0.99394214,9.354751
34.80522391,31.2650724,0.0,1.3075807,12-15-13,-0.06325674,0.20584345,0.02702713,103.0,-4.0569077,-15.542421,-0.07797241,-0.0024261475,0.048233032,-2.7696786,0.99394214,9.354751
34.80522391,31.2650724,0.0,1.3075807,12-15-13,-0.06325674,0.20584345,0.02702713,103.0,-4.093195,-15.249881,-0.07797241,-0.0024261475,0.048233032,-2.7696786,0.99394214,9.354751
34.80522391,31.2650724,0.0,1.3075807,12-15-13,-0.06325674,0.20584345,0.02702713,103.0,-4.142065,-15.289786,-0.07797241,-0.0024261475,0.048233032,-2.7696786,0.99394214,9.354751
34.80522391,31.2650724,0.0,1.3075807,12-15-13,0.114381075,-0.24511081,0.20032215,103.0,-4.288706,-15.274333,-0.009597778,-0.055908203,0.013061523,-2.700263,0.9168958,9.382872
34.80522391,31.2650724,0.0,1.3075807,12-15-13,0.114381075,-0.24511081,0.20032215,103.0,-4.4540687,-15.2854185,-0.009597778,-0.055908203,0.013061523,-2.700263,0.9168958,9.382872
34.80522391,31.2650724,0.0,1.3075807,12-15-13,0.114381075,-0.24511081,0.20032215,103.0,-4.5446606,-15.225037,-0.009597778,-0.055908203,0.013061523,-2.700263,0.9168958,9.382872
34.80522391,31.2650724,0.0,1.3075807,12-15-13,0.114381075,-0.24511081,0.20032215,102.0,-4.5334387,-15.074813,-0.009597778,-0.055908203,0.013061523,-2.700263,0.9168958,9.382872
34.80522391,31.2650724,0.0,1.3075807,12-15-13,-0.38835216,-0.3666438,-0.19719791,102.0,-4.4342217,-14.788003,-0.004776001,-0.04434204,0.09794617,-2.6218777,0.91806746,9.404962
34.80522391,31.2650724,0.0,1.3075807,12-15-13,-0.38835216,-0.3666438,-0.19719791,103.0,-4.4818606,-14.380889,-0.004776001,-0.04434204,0.09794617,-2.6218777,0.91806746,9.404962
34.80522391,31.2650724,0.0,1.3075807,12-15-13,-0.38835216,-0.3666438,-0.19719791,103.0,-4.4490027,-14.132915,-0.004776001,-0.04434204,0.09794617,-2.6218777,0.91806746,9.404962
34.80522391,31.2650724,0.0,1.3075807,12-15-13,-0.38835216,-0.3666438,-0.19719791,103.0,-4.290566,-13.87986,-0.004776001,-0.04434204,0.09794617,-2.6218777,0.91806746,9.404962
34.80522391,31.2650724,0.0,1.3075807,12-15-13,0.047804117,-0.11029893,-0.0017719269,103.0,-4.0932302,-13.671017,-0.015197754,-0.10140991,-0.05154419,-2.4637544,0.86471385,9.452649
34.80522272,31.26507223,0.0,1.289753,12-15-13,0.047804117,-0.11029893,-0.0017719269,103.0,-3.7125883,-13.32888,-0.015197754,-0.10140991,-0.05154419,-2.4637544,0.86471385,9.452649
34.80522272,31.26507223,0.0,1.289753,12-15-13,0.047804117,-0.11029893,-0.0017719269,104.0,-3.4230468,-13.182118,-0.015197754,-0.10140991,-0.05154419,-2.4637544,0.86471385,9.452649
34.80522272,31.26507223,0.0,1.289753,12-15-13,0.047804117,-0.11029893,-0.0017719269,104.0,-3.2088459,-12.9907465,-0.015197754,-0.10140991,-0.05154419,-2.4637544,0.86471385,9.452649
34.80522272,31.26507223,0.0,1.289753,12-15-13,0.5670972,-0.30199617,0.11316109,105.0,-3.161111,-13.031538,-0.040893555,-0.05003357,-0.14372253,-2.301641,0.7461484,9.503478
34.80522272,31.26507223,0.0,1.289753,12-15-13,0.5670972,-0.30199617,0.11316109,105.0,-2.9981794,-13.216793,-0.040893555,-0.05003357,-0.14372253,-2.301641,0.7461484,9.503478
34.80522272,31.26507223,0.0,1.289753,12-15-13,0.5670972,-0.30199617,0.11316109,105.0,-2.8697455,-13.345213,-0.040893555,-0.05003357,-0.14372253,-2.301641,0.7461484,9.503478
34.80522272,31.26507223,0.0,1.289753,12-15-14,0.5670972,-0.30199617,0.11316109,105.0,-2.9430442,-13.459319,-0.040893555,-0.05003357,-0.14372253,-2.301641,0.7461484,9.503478
34.80522272,31.26507223,0.0,1.289753,12-15-14,-0.10979462,-0.20800906,-0.11077595,105.0,-2.9618835,-13.194749,-0.01499939,-0.0015106201,-0.027236938,-2.280866,0.63812554,9.516346
34.80522272,31.26507223,0.0,1.289753,12-15-14,-0.10979462,-0.20800906,-0.11077595,106.0,-2.9893928,-12.86368,-0.01499939,-0.0015106201,-0.027236938,-2.280866,0.63812554,9.516346
34.80522272,31.26507223,0.0,1.289753,12-15-14,-0.10979462,-0.20800906,-0.11077595,106.0,-3.0677156,-12.80468,-0.01499939,-0.0015106201,-0.027236938,-2.280866,0.63812554,9.516346
34.80522272,31.26507223,0.0,1.289753,12-15-14,0.25602126,0.047097087,0.006123543,106.0,-3.1272662,-13.05849,-0.01499939,-0.0015106201,-0.027236938,-2.2732732,0.6328936,9.518511
34.80522272,31.26507223,0.0,1.289753,12-15-14,0.25602126,0.047097087,0.006123543,106.0,-3.2886033,-13.183212,0.034698486,0.0058898926,-0.054840088,-2.2732732,0.6328936,9.518511
34.80522272,31.26507223,0.0,1.289753,12-15-14,0.25602126,0.047097087,0.006123543,107.0,-3.5574188,-13.477307,0.034698486,0.0058898926,-0.054840088,-2.2732732,0.6328936,9.518511
34.80522272,31.26507223,0.0,1.289753,12-15-14,0.25602126,0.047097087,0.006123543,106.0,-3.6986387,-13.679506,0.034698486,0.0058898926,-0.054840088,-2.2732732,0.6328936,9.518511
34.80522272,31.26507223,0.0,1.289753,12-15-14,0.16516423,-0.023991108,0.061001778,106.0,-3.967069,-14.0772295,0.034698486,0.0058898926,-0.054840088,-2.2655394,0.698798,9.515745
34.80522272,31.26507223,0.0,1.289753,12-15-14,0.16516423,-0.023991108,0.061001778,106.0,-4.1892023,-14.156074,0.06593323,0.09008789,0.034729004,-2.2655394,0.698798,9.515745
34.80522272,31.26507223,0.0,1.289753,12-15-14,0.16516423,-0.023991108,0.061001778,106.0,-4.5129685,-14.174067,0.06593323,0.09008789,0.034729004,-2.2655394,0.698798,9.515745
34.80522272,31.26507223,0.0,1.289753,12-15-14,0.16516423,-0.023991108,0.061001778,106.0,-4.7407866,-13.979633,0.06593323,0.09008789,0.034729004,-2.2655394,0.698798,9.515745
34.80522272,31.26507223,0.0,1.289753,12-15-14,-0.008993864,0.068297505,-0.22049999,106.0,-5.1307,-13.5778675,0.06593323,0.09008789,0.034729004,-2.337135,0.89659125,9.481789
34.80522272,31.26507223,0.0,1.289753,12-15-14,-0.008993864,0.068297505,-0.22049999,106.0,-5.3883443,-13.501797,0.09225464,-0.04336548,0.02268982,-2.337135,0.89659125,9.481789
34.8052239,31.26507118,0.0,1.4344767,12-15-14,-0.008993864,0.068297505,-0.22049999,106.0,-5.7904544,-13.701677,0.09225464,-0.04336548,0.02268982,-2.337135,0.89659125,9.481789
34.8052239,31.26507118,0.0,1.4344767,12-15-14,-0.008993864,0.068297505,-0.22049999,106.0,-5.9120135,-13.767545,0.09225464,-0.04336548,0.02268982,-2.337135,0.89659125,9.481789
34.8052239,31.26507118,0.0,1.4344767,12-15-14,0.28783107,-0.04402852,0.33195686,106.0,-6.184971,-14.051139,0.09225464,-0.04336548,0.02268982,-2.1796412,1.039062,9.50473
34.8052239,31.26507118,0.0,1.4344767,12-15-14,0.28783107,-0.04402852,0.33195686,106.0,-6.4232492,-14.199599,0.089035034,0.068725586,0.033096313,-2.1796412,1.039062,9.50473
34.8052239,31.26507118,0.0,1.4344767,12-15-14,0.28783107,-0.04402852,0.33195686,105.0,-6.7360992,-14.561454,0.089035034,0.068725586,0.033096313,-2.1796412,1.039062,9.50473
34.8052239,31.26507118,0.0,1.4344767,12-15-14,0.28783107,-0.04402852,0.33195686,106.0,-6.8526797,-14.918703,0.089035034,0.068725586,0.033096313,-2.1796412,1.039062,9.50473
34.8052239,31.26507118,0.0,1.4344767,12-15-15,0.03912735,-0.1701616,-0.008337021,105.0,-6.9467654,-15.638342,0.089035034,0.068725586,0.033096313,-2.3602314,1.103096,9.454251
34.8052239,31.26507118,0.0,1.4344767,12-15-15,0.03912735,-0.1701616,-0.008337021,106.0,-6.8785796,-16.223486,0.0418396,0.18998718,-0.035064697,-2.3602314,1.103096,9.454251
34.8052239,31.26507118,0.0,1.4344767,12-15-15,0.03912735,-0.1701616,-0.008337021,105.0,-6.851904,-17.12044,0.0418396,0.18998718,-0.035064697,-2.3602314,1.103096,9.454251
34.8052239,31.26507118,0.0,1.4344767,12-15-15,0.03912735,-0.1701616,-0.008337021,105.0,-6.8530197,-17.675413,0.0418396,0.18998718,-0.035064697,-2.3602314,1.103096,9.454251
34.8052239,31.26507118,0.0,1.4344767,12-15-15,-0.33914733,-0.22143054,-0.14086533,105.0,-6.7692432,-18.349669,0.0418396,0.18998718,-0.035064697,-2.7269485,1.1324407,9.3515625
34.8052239,31.26507118,0.0,1.4344767,12-15-15,-0.33914733,-0.22143054,-0.14086533,106.0,-6.5903997,-18.716965,-0.020248413,0.1855011,-0.016296387,-2.7269485,1.1324407,9.3515625
34.8052239,31.26507118,0.0,1.4344767,12-15-15,-0.33914733,-0.22143054,-0.14086533,106.0,-6.3307853,-18.882242,-0.020248413,0.1855011,-0.016296387,-2.7269485,1.1324407,9.3515625
34.8052239,31.26507118,0.0,1.4344767,12-15-15,-0.33914733,-0.22143054,-0.14086533,106.0,-6.2018213,-18.901258,-0.020248413,0.1855011,-0.016296387,-2.7269485,1.1324407,9.3515625
34.8052239,31.26507118,0.0,1.4344767,12-15-15,-0.29258347,-0.06683111,-0.5516062,106.0,-5.8494234,-18.809235,-0.020248413,0.1855011,-0.016296387,-2.990403,1.0500265,9.280373
34.8052239,31.26507118,0.0,1.4344767,12-15-15,-0.29258347,-0.06683111,-0.5516062,107.0,-5.6681447,-18.748848,-0.04727173,-0.009185791,-0.09832764,-2.990403,1.0500265,9.280373
34.8052239,31.26507118,0.0,1.4344767,12-15-15,-0.29258347,-0.06683111,-0.5516062,107.0,-5.4190564,-18.811321,-0.04727173,-0.009185791,-0.09832764,-2.990403,1.0500265,9.280373
34.8052239,31.26507118,0.0,1.4344767,12-15-15,-0.29258347,-0.06683111,-0.5516062,107.0,-5.319824,-18.746162,-0.04727173,-0.009185791,-0.09832764,-2.990403,1.0500265,9.280373
34.8052239,31.26507118,0.0,1.4344767,12-15-15,-0.49967813,-0.02373761,-0.19462204,107.0,-5.1746798,-18.620602,-0.04727173,-0.009185791,-0.09832764,-3.017181,0.92150337,9.285356
34.8052239,31.26507118,0.0,1.4344767,12-15-15,-0.49967813,-0.02373761,-0.19462204,107.0,-5.236633,-18.53111,-0.032699585,-0.054138184,-0.050445557,-3.017181,0.92150337,9.285356
34.8052255,31.26506956,0.0,1.6560082,12-15-15,-0.49967813,-0.02373761,-0.19462204,108.0,-5.134606,-18.384901,-0.032699585,-0.054138184,-0.050445557,-3.017181,0.92150337,9.285356
34.8052255,31.26506956,0.0,1.6560082,12-15-15,-0.49967813,-0.02373761,-0.19462204,108.0,-5.1546836,-18.03536,-0.032699585,-0.054138184,-0.050445557,-3.017181,0.92150337,9.285356
34.8052255,31.26506956,0.0,1.6560082,12-15-15,-0.5432215,0.12373614,0.0054454803,108.0,-5.150046,-17.593176,-0.032699585,-0.054138184,-0.050445557,-2.9072795,0.85547686,9.326643
34.8052255,31.26506956,0.0,1.6560082,12-15-15,-0.5432215,0.12373614,0.0054454803,108.0,-5.1951165,-17.341902,-0.0015258789,-0.11540222,-0.0026855469,-2.9072795,0.85547686,9.326643
34.8052255,31.26506956,0.0,1.6560082,12-15-15,-0.5432215,0.12373614,0.0054454803,108.0,-5.158011,-17.130901,-0.0015258789,-0.11540222,-0.0026855469,-2.9072795,0.85547686,9.326643
34.8052255,31.26506956,0.0,1.6560082,12-15-15,-0.5432215,0.12373614,0.0054454803,107.0,-5.200733,-17.11661,-0.0015258789,-0.11540222,-0.0026855469,-2.9072795,0.85547686,9.326643
34.8052255,31.26506956,0.0,1.6560082,12-15-16,0.6451988,0.16426587,-0.035923004,107.0,-5.2268176,-17.257885,-0.0015258789,-0.11540222,-0.0026855469,-2.7505176,0.85783494,9.373856
34.8052255,31.26506956,0.0,1.6560082,12-15-16,0.6451988,0.16426587,-0.035923004,107.0,-5.2864523,-17.398489,-0.018722534,0.03173828,0.076156616,-2.7505176,0.85783494,9.373856
34.8052255,31.26506956,0.0,1.6560082,12-15-16,0.6451988,0.16426587,-0.035923004,106.0,-5.26505,-17.38052,-0.018722534,0.03173828,0.076156616,-2.7505176,0.85783494,9.373856
34.8052255,31.26506956,0.0,1.6560082,12-15-16,0.6451988,0.16426587,-0.035923004,106.0,-5.335293,-17.244085,-0.018722534,0.03173828,0.076156616,-2.7505176,0.85783494,9.373856
34.8052255,31.26506956,0.0,1.6560082,12-15-16,-0.078695774,0.13335514,0.057958603,106.0,-5.4328194,-17.372509,-0.018722534,0.03173828,0.076156616,-2.7433617,0.8750143,9.374364
34.8052255,31.26506956,0.0,1.6560082,12-15-16,-0.078695774,0.13335514,0.057958603,106.0,-5.435272,-17.464363,-0.017700195,0.011642456,0.07032776,-2.7433617,0.8750143,9.374364
34.8052255,31.26506956,0.0,1.6560082,12-15-16,-0.078695774,0.13335514,0.057958603,106.0,-5.367493,-17.598803,-0.017700195,0.011642456,0.07032776,-2.7433617,0.8750143,9.374364
34.8052255,31.26506956,0.0,1.6560082,12-15-16,-0.078695774,0.13335514,0.057958603,106.0,-5.272626,-17.592314,-0.017700195,0.011642456,0.07032776,-2.7433617,0.8750143,9.374364
34.8052255,31.26506956,0.0,1.6560082,12-15-16,-0.42114115,0.43246013,-0.012747765,106.0,-4.973929,-17.371563,-0.017700195,0.011642456,0.07032776,-2.7776263,0.86793745,9.364927
34.8052255,31.26506956,0.0,1.6560082,12-15-16,-0.42114115,0.43246013,-0.012747765,106.0,-4.9264655,-17.24229,-0.046707153,-0.03819275,-0.031967163,-2.7776263,0.86793745,9.364927
34.8052255,31.26506956,0.0,1.6560082,12-15-16,-0.42114115,0.43246013,-0.012747765,106.0,-4.687957,-16.992474,-0.046707153,-0.03819275,-0.031967163,-2.7776263,0.86793745,9.364927
34.8052255,31.26506956,0.0,1.6560082,12-15-16,-0.42114115,0.43246013,-0.012747765,107.0,-4.5944133,-16.905,-0.046707153,-0.03819275,-0.031967163,-2.7776263,0.86793745,9.364927
34.8052255,31.26506956,0.0,1.6560082,12-15-16,-0.19880176,0.10096198,-0.1762991,108.0,-4.4678717,-16.885872,-0.046707153,-0.03819275,-0.031967163,-2.7516367,0.7960255,9.378978
34.8052255,31.26506956,0.0,1.6560082,12-15-16,-0.19880176,0.10096198,-0.1762991,108.0,-4.233802,-16.779238,-0.008560181,-0.04446411,-0.15739441,-2.7516367,0.7960255,9.378978
34.80522586,31.26506981,0.0,1.6436044,12-15-16,-0.19880176,0.10096198,-0.1762991,109.0,-4.04851,-16.547092,-0.008560181,-0.04446411,-0.15739441,-2.7516367,0.7960255,9.378978
34.80522586,31.26506981,0.0,1.6436044,12-15-16,-0.19880176,0.10096198,-0.1762991,109.0,-3.8672771,-16.304947,-0.008560181,-0.04446411,-0.15739441,-2.7516367,0.7960255,9.378978
34.80522586,31.26506981,0.0,1.6436044,12-15-16,-0.06080413,-0.112243176,-0.56581783,110.0,-3.6587865,-15.584358,-0.008560181,-0.04446411,-0.15739441,-2.6446273,0.6937654,9.417803
34.80522586,31.26506981,0.0,1.6436044,12-15-16,-0.06080413,-0.112243176,-0.56581783,110.0,-3.4770777,-15.337219,-0.0154418945,-0.13418579,-0.18145752,-2.6446273,0.6937654,9.417803
34.80522586,31.26506981,0.0,1.6436044,12-15-16,-0.06080413,-0.112243176,-0.56581783,111.0,-2.8642852,-15.156159,-0.0154418945,-0.13418579,-0.18145752,-2.6446273,0.6937654,9.417803
34.80522586,31.26506981,0.0,1.6436044,12-15-16,-0.06080413,-0.112243176,-0.56581783,111.0,-2.648548,-15.1967535,-0.0154418945,-0.13418579,-0.18145752,-2.6446273,0.6937654,9.417803
34.80522586,31.26506981,0.0,1.6436044,12-15-17,0.34714556,0.2664578,0.17102814,112.0,-2.105223,-15.394625,-0.0154418945,-0.13418579,-0.18145752,-2.497439,0.5322543,9.468363
34.80522586,31.26506981,0.0,1.6436044,12-15-17,0.34714556,0.2664578,0.17102814,112.0,-1.6980506,-15.401936,-0.13179016,-0.0047912598,-0.10319519,-2.497439,0.5322543,9.468363
34.80522586,31.26506981,0.0,1.6436044,12-15-17,0.34714556,0.2664578,0.17102814,111.0,-1.0892365,-15.046308,-0.13179016,-0.0047912598,-0.10319519,-2.497439,0.5322543,9.468363
34.80522586,31.26506981,0.0,1.6436044,12-15-17,0.34714556,0.2664578,0.17102814,111.0,-0.7126593,-14.814846,-0.13179016,-0.0047912598,-0.10319519,-2.497439,0.5322543,9.468363
34.80522586,31.26506981,0.0,1.6436044,12-15-17,-0.5162883,-0.051814765,-0.025454521,112.0,-0.16678251,-14.358644,-0.13179016,-0.0047912598,-0.10319519,-2.4178865,0.25933632,9.500366
34.80522586,31.26506981,0.0,1.6436044,12-15-17,-0.5162883,-0.051814765,-0.025454521,112.0,-0.14597738,-14.347656,-0.13179016,-0.0047912598,-0.10319519,-2.4178865,0.25933632,9.500366
34.80522586,31.26506981,0.0,1.6436044,12-15-17,-0.5162883,-0.051814765,-0.025454521,111.0,-0.22531971,-14.412637,-0.11351013,-0.082733154,0.010238647,-2.4178865,0.25933632,9.500366
34.80522586,31.26506981,0.0,1.6436044,12-15-17,-0.5162883,-0.051814765,-0.025454521,110.0,-0.24673058,-14.51045,-0.11351013,-0.082733154,0.010238647,-2.4178865,0.25933632,9.500366
34.80522586,31.26506981,0.0,1.6436044,12-15-17,0.24820685,-0.48672408,0.20351887,109.0,-0.3496154,-15.432673,-0.11351013,-0.082733154,0.010238647,-2.3622892,0.06769614,9.517636
34.80522586,31.26506981,0.0,1.6436044,12-15-17,0.24820685,-0.48672408,0.20351887,108.0,-0.48124066,-15.895974,-0.038650513,0.14976501,0.27482605,-2.3622892,0.06769614,9.517636
34.80522586,31.26506981,0.0,1.6436044,12-15-17,0.24820685,-0.48672408,0.20351887,107.0,-0.8946182,-16.360594,-0.038650513,0.14976501,0.27482605,-2.3622892,0.06769614,9.517636
34.80522586,31.26506981,0.0,1.6436044,12-15-17,0.045235634,-0.15389955,-0.058609962,106.0,-1.204204,-16.759392,-0.038650513,0.14976501,0.27482605,-2.546701,0.117670596,9.46947
34.80522586,31.26506981,0.0,1.6436044,12-15-17,0.045235634,-0.15389955,-0.058609962,105.0,-1.5983348,-17.424788,-0.038650513,0.14976501,0.27482605,-2.546701,0.117670596,9.46947
34.80522586,31.26506981,0.0,1.6436044,12-15-17,0.045235634,-0.15389955,-0.058609962,104.0,-2.0174086,-17.821493,0.031829834,0.17648315,0.34007263,-2.546701,0.117670596,9.46947
34.80522614,31.26506934,0.0,1.702021,12-15-17,0.045235634,-0.15389955,-0.058609962,104.0,-2.662974,-18.376127,0.031829834,0.17648315,0.34007263,-2.546701,0.117670596,9.46947
34.80522614,31.26506934,0.0,1.702021,12-15-17,-0.4734354,0.055540204,-0.25478363,102.0,-3.2280624,-18.47427,0.031829834,0.17648315,0.34007263,-2.8723738,0.34865367,9.370074
34.80522614,31.26506934,0.0,1.702021,12-15-17,-0.4734354,0.055540204,-0.25478363,102.0,-4.002331,-18.716764,0.031829834,0.17648315,0.34007263,-2.8723738,0.34865367,9.370074
34.80522614,31.26506934,0.0,1.702021,12-15-17,-0.4734354,0.055540204,-0.25478363,101.0,-4.464536,-18.822947,0.107177734,0.08415222,0.28211975,-2.8723738,0.34865367,9.370074
34.80522614,31.26506934,0.0,1.702021,12-15-17,-0.4734354,0.055540204,-0.25478363,99.0,-4.902004,-18.782743,0.107177734,0.08415222,0.28211975,-2.8723738,0.34865367,9.370074
34.80522614,31.26506934,0.0,1.702021,12-15-17,-0.23360705,0.6072368,-0.23866844,99.0,-4.948053,-18.718504,0.107177734,0.08415222,0.28211975,-3.033136,0.6517542,9.302994
34.80522614,31.26506934,0.0,1.702021,12-15-18,-0.23360705,0.6072368,-0.23866844,98.0,-4.788889,-18.758394,0.107177734,0.08415222,0.28211975,-3.033136,0.6517542,9.302994
34.80522614,31.26506934,0.0,1.702021,12-15-18,-0.23360705,0.6072368,-0.23866844,98.0,-4.710805,-18.659372,-0.0867157,-0.003112793,0.22782898,-3.033136,0.6517542,9.302994
34.80522614,31.26506934,0.0,1.702021,12-15-18,-0.23360705,0.6072368,-0.23866844,98.0,-4.404737,-18.394066,-0.0867157,-0.003112793,0.22782898,-3.033136,0.6517542,9.302994
34.80522614,31.26506934,0.0,1.702021,12-15-18,0.016667843,0.09634602,0.0418396,97.0,-4.3185043,-18.453503,-0.0867157,-0.003112793,0.22782898,-3.0377026,0.7207715,9.29641
34.80522614,31.26506934,0.0,1.702021,12-15-18,0.016667843,0.09634602,0.0418396,96.0,-4.667805,-18.217033,-0.0867157,-0.003112793,0.22782898,-3.0377026,0.7207715,9.29641
34.80522614,31.26506934,0.0,1.702021,12-15-18,0.016667843,0.09634602,0.0418396,96.0,-4.5862136,-18.757597,-0.032348633,0.033050537,0.108688354,-3.0377026,0.7207715,9.29641
34.80522614,31.26506934,0.0,1.702021,12-15-18,0.016667843,0.09634602,0.0418396,93.0,-4.6240544,-18.701994,-0.032348633,0.033050537,0.108688354,-3.0377026,0.7207715,9.29641
34.80522614,31.26506934,0.0,1.702021,12-15-18,-0.056836367,0.015942276,-0.0011510849,89.0,-4.2970347,-19.009789,-0.032348633,0.033050537,0.108688354,-3.0537207,0.66805077,9.2951
34.80522614,31.26506934,0.0,1.702021,12-15-18,-0.056836367,0.015942276,-0.0011510849,86.0,-3.8663204,-19.478313,-0.032348633,0.033050537,0.108688354,-3.0537207,0.66805077,9.2951
34.80522614,31.26506934,0.0,1.702021,12-15-18,-0.056836367,0.015942276,-0.0011510849,86.0,-3.530951,-19.771084,-0.032348633,0.033050537,0.108688354,-3.0537207,0.66805077,9.2951
34.80522614,31.26506934,0.0,1.702021,12-15-18,-0.056836367,0.015942276,-0.0011510849,84.0,-3.0433424,-20.075228,-0.38208008,0.15896606,0.8039551,-3.0537207,0.66805077,9.2951
34.80522614,31.26506934,0.0,1.702021,12-15-18,-0.13286805,0.22807556,-0.33114338,82.0,-2.824871,-19.992416,-0.38208008,0.15896606,0.8039551,-3.2495043,0.64079255,9.230412
34.80522614,31.26506934,0.0,1.702021,12-15-18,-0.13286805,0.22807556,-0.33114338,78.0,-2.8133476,-19.554548,-0.38208008,0.15896606,0.8039551,-3.2495043,0.64079255,9.230412
34.80522614,31.26506934,0.0,1.702021,12-15-18,-0.13286805,0.22807556,-0.33114338,76.0,-3.100398,-19.21135,-0.321167,-0.048950195,0.8950958,-3.2495043,0.64079255,9.230412
34.8052262,31.26506921,0.0,1.717518,12-15-18,-0.86402273,-0.92532176,-0.15903568,72.0,-3.6287615,-18.508957,-0.321167,-0.048950195,0.8950958,-3.1520407,0.56101143,9.2693205
34.8052262,31.26506921,0.0,1.717518,12-15-18,-0.86402273,-0.92532176,-0.15903568,68.0,-4.0982676,-17.948025,-0.321167,-0.048950195,0.8950958,-3.1520407,0.56101143,9.2693205
34.8052262,31.26506921,0.0,1.717518,12-15-18,-0.86402273,-0.92532176,-0.15903568,61.0,-4.662325,-16.996843,-0.321167,-0.048950195,0.8950958,-3.1520407,0.56101143,9.2693205
34.8052262,31.26506921,0.0,1.717518,12-15-18,-0.86402273,-0.92532176,-0.15903568,56.0,-5.020822,-16.364378,-0.3413391,-0.10493469,1.6450043,-3.1520407,0.56101143,9.2693205
34.8052262,31.26506921,0.0,1.717518,12-15-18,-0.86402273,-0.92532176,-0.15903568,52.0,-5.461451,-16.054045,-0.3413391,-0.10493469,1.6450043,-3.1520407,0.56101143,9.2693205
34.8052262,31.26506921,0.0,1.717518,12-15-18,0.6156757,-0.12589777,0.30945206,50.0,-5.951687,-16.092136,-0.3413391,-0.10493469,1.6450043,-2.7364445,0.8205703,9.381308
34.8052262,31.26506921,0.0,1.717518,12-15-19,0.6156757,-0.12589777,0.30945206,44.0,-6.4833016,-15.903391,-0.3413391,-0.10493469,1.6450043,-2.7364445,0.8205703,9.381308
34.8052262,31.26506921,0.0,1.717518,12-15-19,0.6156757,-0.12589777,0.30945206,43.0,-6.5339875,-15.86568,-0.3413391,-0.10493469,1.6450043,-2.7364445,0.8205703,9.381308
34.8052262,31.26506921,0.0,1.717518,12-15-19,-0.1261735,0.3382858,0.21826458,38.0,-6.542585,-15.9718485,-0.2107544,0.10064697,1.1097107,-2.5159128,0.99450636,9.426108
34.8052262,31.26506921,0.0,1.717518,12-15-19,-0.1261735,0.3382858,0.21826458,37.0,-6.5219474,-16.007713,-0.2107544,0.10064697,1.1097107,-2.5159128,0.99450636,9.426108
34.8052262,31.26506921,0.0,1.717518,12-15-19,-0.1261735,0.3382858,0.21826458,31.0,-6.338665,-15.967674,-0.2107544,0.10064697,1.1097107,-2.5159128,0.99450636,9.426108
34.8052262,31.26506921,0.0,1.717518,12-15-19,-0.1261735,0.3382858,0.21826458,28.0,-6.3010015,-16.070213,-0.33055115,0.120773315,1.0854797,-2.5159128,0.99450636,9.426108
34.8052262,31.26506921,0.0,1.717518,12-15-19,-1.1838756,0.103927374,-0.47792053,25.0,-6.0237103,-15.693382,-0.33055115,0.120773315,1.0854797,-2.4792485,0.9413148,9.441274
34.8052262,31.26506921,0.0,1.717518,12-15-19,-1.1838756,0.103927374,-0.47792053,23.0,-5.750367,-15.297466,-0.33055115,0.120773315,1.0854797,-2.4792485,0.9413148,9.441274
34.8052262,31.26506921,0.0,1.717518,12-15-19,-1.1838756,0.103927374,-0.47792053,21.0,-5.212662,-14.5151415,-0.33055115,0.120773315,1.0854797,-2.4792485,0.9413148,9.441274
34.8052262,31.26506921,0.0,1.717518,12-15-19,-1.1838756,0.103927374,-0.47792053,17.0,-4.7489443,-14.262106,-0.40109253,-0.08944702,0.97647095,-2.4792485,0.9413148,9.441274
34.8052262,31.26506921,0.0,1.717518,12-15-19,-0.9335067,0.09503925,-0.29711246,12.0,-4.2664266,-13.772258,-0.40109253,-0.08944702,0.97647095,-2.260271,0.7054797,9.516504
34.8052262,31.26506921,0.0,1.717518,12-15-19,-0.9335067,0.09503925,-0.29711246,10.0,-3.8311648,-13.695141,-0.40109253,-0.08944702,0.97647095,-2.260271,0.7054797,9.516504
34.8052262,31.26506921,0.0,1.717518,12-15-19,-0.9335067,0.09503925,-0.29711246,8.0,-3.4488482,-13.519022,-0.40109253,-0.08944702,0.97647095,-2.260271,0.7054797,9.516504
34.8052262,31.26506921,0.0,1.717518,12-15-19,-0.9335067,0.09503925,-0.29711246,6.0,-3.1056244,-13.404517,-0.40109253,-0.08944702,0.97647095,-2.260271,0.7054797,9.516504
34.80522643,31.2650691,0.0,1.737494,12-15-19,-0.16188955,0.48052105,0.00603199,3.0,-2.7307081,-13.396856,-0.38388062,0.007217407,0.9336395,-2.0448956,0.4216751,9.581804
34.80522643,31.2650691,0.0,1.737494,12-15-19,-0.16188955,0.48052105,0.00603199,0.0,-2.643853,-13.608698,-0.38388062,0.007217407,0.9336395,-2.0448956,0.4216751,9.581804
34.80522643,31.2650691,0.0,1.737494,12-15-19,-0.16188955,0.48052105,0.00603199,356.0,-2.5567853,-13.634606,-0.38388062,0.007217407,0.9336395,-2.0448956,0.4216751,9.581804
34.80522643,31.2650691,0.0,1.737494,12-15-19,-0.16188955,0.48052105,0.00603199,353.0,-2.6025574,-13.394582,-0.38388062,0.007217407,0.9336395,-2.0448956,0.4216751,9.581804
34.80522643,31.2650691,0.0,1.737494,12-15-19,-0.6548495,0.4533542,-0.051561356,350.0,-2.9054585,-12.740333,-0.28903198,0.028182983,1.0916138,-1.9803325,0.26576328,9.60094
34.80522643,31.2650691,0.0,1.737494,12-15-19,-0.6548495,0.4533542,-0.051561356,349.0,-2.9375951,-12.495624,-0.28903198,0.028182983,1.0916138,-1.9803325,0.26576328,9.60094
34.80522643,31.2650691,0.0,1.737494,12-15-20,-0.6548495,0.4533542,-0.051561356,345.0,-2.7642758,-11.244011,-0.28903198,0.028182983,1.0916138,-1.9803325,0.26576328,9.60094
34.80522643,31.2650691,0.0,1.737494,12-15-20,-0.6548495,0.4533542,-0.051561356,344.0,-2.8212965,-10.925667,-0.28903198,0.028182983,1.0916138,-1.9803325,0.26576328,9.60094
34.80522643,31.2650691,0.0,1.737494,12-15-20,-0.5971161,0.23469037,-0.30711937,341.0,-3.3043742,-9.942028,-0.12693787,-0.19744873,0.7411194,-1.7251116,0.27859613,9.649703
34.80522643,31.2650691,0.0,1.737494,12-15-20,-0.5971161,0.23469037,-0.30711937,340.0,-3.4025645,-9.737038,-0.12693787,-0.19744873,0.7411194,-1.7251116,0.27859613,9.649703
34.80522643,31.2650691,0.0,1.737494,12-15-20,-0.5971161,0.23469037,-0.30711937,335.0,-3.6022491,-9.465441,-0.12693787,-0.19744873,0.7411194,-1.7251116,0.27859613,9.649703
34.80522643,31.2650691,0.0,1.737494,12-15-20,-0.5971161,0.23469037,-0.30711937,334.0,-3.6262074,-9.374505,-0.12693787,-0.19744873,0.7411194,-1.7251116,0.27859613,9.649703
34.80522643,31.2650691,0.0,1.737494,12-15-20,-0.18458891,0.4046161,0.33543396,331.0,-3.7471178,-9.37709,-0.10487366,-0.053024292,0.91567993,-1.4496028,0.35149884,9.692548
34.80522643,31.2650691,0.0,1.737494,12-15-20,-0.18458891,0.4046161,0.33543396,329.0,-3.6584694,-9.301071,-0.10487366,-0.053024292,0.91567993,-1.4496028,0.35149884,9.692548
34.80522643,31.2650691,0.0,1.737494,12-15-20,-0.18458891,0.4046161,0.33543396,327.0,-2.9750733,-9.177518,-0.10487366,-0.053024292,0.91567993,-1.4496028,0.35149884,9.692548
34.80522643,31.2650691,0.0,1.737494,12-15-20,-0.18458891,0.4046161,0.33543396,325.0,-2.5621877,-9.108643,-0.10487366,-0.053024292,0.91567993,-1.4496028,0.35149884,9.692548
34.80522643,31.2650691,0.0,1.737494,12-15-20,-0.93288267,1.3240085,-0.5307417,322.0,-1.6134773,-9.090354,-0.26698303,0.0027770996,0.7275543,-1.4154023,0.23405825,9.701146
34.80522643,31.2650691,0.0,1.737494,12-15-20,-0.93288267,1.3240085,-0.5307417,321.0,-1.196813,-9.224752,-0.26698303,0.0027770996,0.7275543,-1.4154023,0.23405825,9.701146
34.80522643,31.2650691,0.0,1.737494,12-15-20,-0.93288267,1.3240085,-0.5307417,321.0,-0.9343226,-10.064396,-0.26698303,0.0027770996,0.7275543,-1.4154023,0.23405825,9.701146
34.80522643,31.2650691,0.0,1.737494,12-15-20,-0.93288267,1.3240085,-0.5307417,320.0,-0.6832189,-10.817833,-0.26698303,0.0027770996,0.7275543,-1.4154023,0.23405825,9.701146
34.80522716,31.26506878,0.0,1.7988249,12-15-20,0.30190325,0.5394639,0.41473866,317.0,-0.22542608,-11.549101,-0.24415588,0.20137024,0.5249481,-1.5734693,-0.08124754,9.6792555
34.80522716,31.26506878,0.0,1.7988249,12-15-20,0.30190325,0.5394639,0.41473866,316.0,-0.1099652,-12.231778,-0.24415588,0.20137024,0.5249481,-1.5734693,-0.08124754,9.6792555
34.80522716,31.26506878,0.0,1.7988249,12-15-20,0.30190325,0.5394639,0.41473866,315.0,-0.009264172,-13.295884,-0.24415588,0.20137024,0.5249481,-1.5734693,-0.08124754,9.6792555
34.80522716,31.26506878,0.0,1.7988249,12-15-20,0.30190325,0.5394639,0.41473866,314.0,0.08490827,-13.948513,-0.24415588,0.20137024,0.5249481,-1.5734693,-0.08124754,9.6792555
34.80522716,31.26506878,0.0,1.7988249,12-15-20,0.1253469,0.90066123,0.19643402,312.0,0.23818909,-14.73059,-0.19830322,0.29325867,0.524353,-2.0534325,-0.2667289,9.585545
34.80522716,31.26506878,0.0,1.7988249,12-15-20,0.1253469,0.90066123,0.19643402,312.0,0.15940693,-14.9316435,-0.19830322,0.29325867,0.524353,-2.0534325,-0.2667289,9.585545
34.80522716,31.26506878,0.0,1.7988249,12-15-21,0.1253469,0.90066123,0.19643402,311.0,0.26980287,-14.952438,-0.19830322,0.29325867,0.524353,-2.0534325,-0.2667289,9.585545
34.80522716,31.26506878,0.0,1.7988249,12-15-21,0.1253469,0.90066123,0.19643402,310.0,0.23536855,-14.984691,-0.19830322,0.29325867,0.524353,-2.0534325,-0.2667289,9.585545
34.80522716,31.26506878,0.0,1.7988249,12-15-21,-0.63561535,0.89137256,-0.27613258,308.0,0.061471313,-14.514864,-0.11167908,0.023956299,0.36938477,-2.3774774,-0.31839976,9.508765
34.80522716,31.26506878,0.0,1.7988249,12-15-21,-0.63561535,0.89137256,-0.27613258,308.0,-0.030436045,-14.395927,-0.11167908,0.023956299,0.36938477,-2.3774774,-0.31839976,9.508765
34.80522716,31.26506878,0.0,1.7988249,12-15-21,-0.63561535,0.89137256,-0.27613258,306.0,-0.5046776,-13.848365,-0.11167908,0.023956299,0.36938477,-2.3774774,-0.31839976,9.508765
